{"newspaper": [{"city-county-long": -83.81821, "open-search": [], "rss": [], "media-class": "newspaper", "media-subclass": "city-county", "facebook": "https://www.facebook.com/pages/The-Ada-Herald/163108437070630", "website": "http://www.adaherald.com/", "city-county-lat": 40.774039, "city-county-name": "Ada", "twitter": "", "name": "Ada Herald", "video": ""}, {"city-county-long": -81.51919, "open-search": [], "rss": ["/cmlink/featured-stories-1.345293?localLinksEnabled=false&cache=18961415304345%2Fnews%2Fohio%2Fcss%2Fresults.css", "/cmlink/ohio-com-most-read-stories-1.520974?localLinksEnabled=false&cache=18961415304345%2Fnews%2Fohio%2Fcss%2Fresults.css", "/cmlink/ohio-com-most-read-1.653923?localLinksEnabled=false&cache=18961415304345%2Fnews%2Fohio%2Fcss%2Fresults.css", "/cmlink/apple-news-feed-1.644862?localLinksEnabled=false&cache=18961415304345%2Fnews%2Fohio%2Fcss%2Fresults.css", "/cmlink/ohio-com-facebook-breaking-news-1.705074?localLinksEnabled=false&cache=18961415304345%2Fnews%2Fohio%2Fcss%2Fresults.css"], "media-class": "newspaper", "media-subclass": "city-county", "facebook": "https://www.facebook.com/AkronBeaconJournal", "website": "http://www.ohio.com/", "city-county-lat": 41.043955, "city-county-name": "Akron", "twitter": "http://www.twitter.com/ohiodotcom", "name": "Akron Beacon Journal", "video": "http://www.youtube.com/channel/UClaIZayJYZunD66ib5e32og"}, {"city-county-long": -81.51919, "open-search": [], "rss": [], "media-class": "newspaper", "media-subclass": "city-county", "facebook": "", "website": "http://www.akronlegalnews.com/", "city-county-lat": 41.043955, "city-county-name": "Akron", "twitter": "", "name": "Akron Legal News", "video": ""}, {"city-county-long": -81.51919, "open-search": [], "rss": [], "media-class": "newspaper", "media-subclass": "city-county", "facebook": "https://www.facebook.com/akrondotcom", "website": "http://www.akron.com/", "city-county-lat": 41.043955, "city-county-name": "Akron", "twitter": "http://www.twitter.com/Akrondotcom", "name": "Akron.com", "video": ""}, {"city-county-long": -81.11641, "open-search": [], "rss": [], "media-class": "newspaper", "media-subclass": "city-county", "facebook": "https://www.facebook.com/alliancereview", "website": "http://www.the-review.com/", "city-county-lat": 40.917908, "city-county-name": "Alliance", "twitter": "http://www.twitter.com/alliancereview", "name": "The Review", "video": "https://www.youtube.com/user/alliancereview"}, {"city-county-long": -84.73533, "open-search": [], "rss": ["http://www.westbendnews.net/autonews/comments/feed/", "http://www.westbendnews.net/autonews/feed/"], "media-class": "newspaper", "media-subclass": "city-county", "facebook": "https://www.facebook.com/westbendnewspaper", "website": "http://westbendnews.net/", "city-county-lat": 41.18312, "city-county-name": "Antwerp", "twitter": "", "name": "West Bend News", "video": ""}, {"city-county-long": -84.30866, "open-search": [], "rss": ["/news.xml"], "media-class": "newspaper", "media-subclass": "city-county", "facebook": "https://www.facebook.com/pages/Archbold-Buckeye/362386777163058", "website": "http://www.archboldbuckeye.com/", "city-county-lat": 41.529231, "city-county-name": "Archbold", "twitter": "", "name": "Archbold Buckeye", "video": ""}, {"city-county-long": -82.31514, "open-search": [], "rss": [], "media-class": "newspaper", "media-subclass": "city-county", "facebook": "https://www.facebook.com/timesgazette", "website": "http://www.times-gazette.com/", "city-county-lat": 40.867016, "city-county-name": "Ashland", "twitter": "http://www.twitter.com/timesgazette", "name": "Times Gazette", "video": "http://www.youtube.com/user/AshlandTimesGazette"}, {"city-county-long": -80.79178, "open-search": [], "rss": ["http://www.starbeacon.com/search/?f=rss&t=article&l=50&s=start_time&sd=desc&k[]=%23topstory"], "media-class": "newspaper", "media-subclass": "city-county", "facebook": "https://www.facebook.com/starbeacon4626", "website": "http://starbeacon.com/", "city-county-lat": 41.871212, "city-county-name": "Ashtabula", "twitter": "http://www.twitter.com/thestarbeacon", "name": "Ashtabula Star Beacon", "video": "https://www.youtube.com/user/StarBeacon4626"}, {"city-county-long": -82.09728, "open-search": [], "rss": ["http://www.athensmessenger.com/search/?f=rss&t=article&l=50&s=start_time&sd=desc&k[]=%23topstory"], "media-class": "newspaper", "media-subclass": "city-county", "facebook": "https://www.facebook.com/athensmessenger", "website": "http://www.athensmessenger.com/", "city-county-lat": 39.322847, "city-county-name": "Athens", "twitter": "http://www.twitter.com/athensmessenger", "name": "Athens Messenger", "video": "http://www.youtube.com/user/AthensMessenger"}, {"city-county-long": -82.09728, "open-search": [], "rss": ["http://www.athensnews.com/search/?f=rss&t=article&l=50&s=start_time&sd=desc&k[]=%23topstory"], "media-class": "newspaper", "media-subclass": "city-county", "facebook": "https://www.facebook.com/TheAthensNEWS", "website": "http://www.athensnews.com/", "city-county-lat": 39.322847, "city-county-name": "Athens", "twitter": "http://www.twitter.com/theathensnews", "name": "Athens News", "video": "http://www.youtube.com/user/TheAthensNEWS"}, {"city-county-long": -81.36352, "open-search": [], "rss": [], "media-class": "newspaper", "media-subclass": "city-county", "facebook": "https://www.facebook.com/AuroraAdvocate", "website": "http://www.auroraadvocate.com/", "city-county-lat": 41.320612, "city-county-name": "Aurora", "twitter": "http://www.twitter.com/AuroraAdvocate", "name": "Aurora Advocate", "video": "http://www.youtube.com/user/AuroraAdvocate"}, {"city-county-long": -81.61616, "open-search": [], "rss": ["http://www.barbertonherald.com/comments/feed/", "http://www.barbertonherald.com/feed/"], "media-class": "newspaper", "media-subclass": "city-county", "facebook": "https://www.facebook.com/barbertonherald", "website": "http://www.barbertonherald.com/", "city-county-lat": 41.017522, "city-county-name": "Barberton", "twitter": "http://www.twitter.com/BarbertonHerald", "name": "Barberton Herald", "video": "http://www.youtube.com/user/BarbertonHerald"}, {"city-county-long": -84.15319, "open-search": [], "rss": ["http://clermontsun.com/feed/", "http://clermontsun.com/feed/atom/"], "media-class": "newspaper", "media-subclass": "city-county", "facebook": "https://www.facebook.com/clermontsun", "website": "http://clermontsun.com/", "city-county-lat": 39.082894, "city-county-name": "Batavia", "twitter": "http://www.twitter.com/ClermontSun", "name": "Clermont Sun", "video": "https://www.youtube.com/user/theclermontsun"}, {"city-county-long": -84.0633, "open-search": [], "rss": ["http://beavercreeknewscurrent.com/comments/feed", "http://beavercreeknewscurrent.com/feed"], "media-class": "newspaper", "media-subclass": "city-county", "facebook": "https://www.facebook.com/beavercreeknewscurrent", "website": "http://beavercreeknewscurrent.com/", "city-county-lat": 39.7092, "city-county-name": "Beavercreek", "twitter": "http://www.twitter.com/_beavercreeknc", "name": "News Current", "video": ""}, {"city-county-long": -83.75816, "open-search": ["http://www.examiner.org/component/search/?Itemid=101&format=opensearch"], "rss": ["/component/fpss/module/215?format=feed&type=rss", "/component/fpss/module/215?format=feed&type=atom"], "media-class": "newspaper", "media-subclass": "city-county", "facebook": "https://www.facebook.com/pages/Bellefontaine-Examiner/202711736425953", "website": "http://www.examiner.org/", "city-county-lat": 40.365923, "city-county-name": "Bellefontaine", "twitter": "http://www.twitter.com/BftExaminer", "name": "Bellefontaine Examiner", "video": "http://www.youtube.com/user/BellefExaminer"}, {"city-county-long": -82.84296, "open-search": [], "rss": ["http://thebellevuegazette.com/sports/feed", "http://thebellevuegazette.com/features/feed", "http://thebellevuegazette.com/news/feed", "http://thebellevuegazette.com/opinion/feed"], "media-class": "newspaper", "media-subclass": "city-county", "facebook": "https://www.facebook.com/pages/The-Bellevue-Gazette/159840877372428", "website": "http://thebellevuegazette.com/", "city-county-lat": 41.257163, "city-county-name": "Bellevue", "twitter": "http://www.twitter.com/BellevueGazette", "name": "Bellevue Gazette", "video": ""}, {"city-county-long": -83.65795, "open-search": ["http://www.sent-trib.com/search/opensearch/generic.xml"], "rss": [], "media-class": "newspaper", "media-subclass": "city-county", "facebook": "https://www.facebook.com/pages/Sentinel-Tribune/286310076720", "website": "http://www.sent-trib.com/", "city-county-lat": 41.388519, "city-county-name": "Bowling Green", "twitter": "http://www.twitter.com/sentineltribune", "name": "Sentinel Tribune", "video": "http://www.youtube.com/user/SentinelTribuneVideo"}, {"city-county-long": -84.55459, "open-search": ["http://www.bryantimes.com/search/opensearch/generic.xml"], "rss": [], "media-class": "newspaper", "media-subclass": "city-county", "facebook": "https://www.facebook.com/bryantimes", "website": "http://bryantimes.com/", "city-county-lat": 41.471569, "city-county-name": "Bryan", "twitter": "http://www.twitter.com/bryantimes", "name": "Bryan Times", "video": "http://www.youtube.com/user/bryantimes"}, {"city-county-long": -82.47932, "open-search": [], "rss": ["/news.xml"], "media-class": "newspaper", "media-subclass": "city-county", "facebook": "", "website": "http://www.buckeyelakebeacon.net/", "city-county-lat": 39.93398, "city-county-name": "Buckeye Lake", "twitter": "", "name": "Buckeye Lake Beacon", "video": ""}, {"city-county-long": -82.97091, "open-search": [], "rss": [], "media-class": "newspaper", "media-subclass": "city-county", "facebook": "https://www.facebook.com/BucyrusTelegraphForum", "website": "http://www.bucyrustelegraphforum.com/", "city-county-lat": 40.815179, "city-county-name": "Bucyrus", "twitter": "http://www.twitter.com/bucyrustf", "name": "Telegraph Forum", "video": ""}, {"city-county-long": -81.00415, "open-search": [], "rss": ["http://www.harrisonnewsherald.com/?feed=atom", "http://www.harrisonnewsherald.com/?feed=rss2"], "media-class": "newspaper", "media-subclass": "city-county", "facebook": "https://www.facebook.com/pages/Harrison-News-Herald/195105017177044", "website": "http://www.harrisonnewsherald.com/", "city-county-lat": 40.258447, "city-county-name": "Cadiz", "twitter": "", "name": "Harrison News Herald", "video": "http://www.youtube.com/user/HarrisonNewsHerald"}, {"city-county-long": -81.59243, "open-search": [], "rss": [], "media-class": "newspaper", "media-subclass": "city-county", "facebook": "https://www.facebook.com/daily.jeffersonian", "website": "http://www.daily-jeff.com/", "city-county-lat": 40.025859, "city-county-name": "Cambridge", "twitter": "http://www.twitter.com/dailyjeff", "name": "Daily Jeffersonian", "video": "http://www.youtube.com/DailyJeffersonian"}, {"city-county-long": -81.371185, "open-search": [], "rss": [], "media-class": "newspaper", "media-subclass": "city-county", "facebook": "https://www.facebook.com/CantonRep", "website": "http://www.cantonrep.com/", "city-county-lat": 40.782408, "city-county-name": "Canton", "twitter": "http://www.twitter.com/cantonrepdotcom", "name": "Canton Repository", "video": "http://www.youtube.com/user/cantonrep"}, {"city-county-long": -83.38068, "open-search": [], "rss": [], "media-class": "newspaper", "media-subclass": "city-county", "facebook": "https://www.facebook.com/pages/The-Progressor-Times/337812051559", "website": "http://www.theprogressortimes.com/", "city-county-lat": 40.954293, "city-county-name": "Carey", "twitter": "", "name": "Progressor Times", "video": ""}, {"city-county-long": -81.08187, "open-search": [], "rss": ["http://freepressstandard.com/feed/"], "media-class": "newspaper", "media-subclass": "city-county", "facebook": "https://www.facebook.com/pages/The-Free-Press-Standard/69670310725", "website": "http://www.freepressstandard.com/", "city-county-lat": 40.568568, "city-county-name": "Carrollton", "twitter": "http://www.twitter.com/fpstandard", "name": "Free Press Standard", "video": "http://www.youtube.com/user/fpstandard"}, {"city-county-long": -84.58232, "open-search": [], "rss": [], "media-class": "newspaper", "media-subclass": "city-county", "facebook": "https://www.facebook.com/CelinaDailyStandard", "website": "http://www.dailystandard.com/", "city-county-lat": 40.542778, "city-county-name": "Celina", "twitter": "", "name": "Daily Standard", "video": ""}, {"city-county-long": -81.39232, "open-search": ["http://www.chagrinvalleytoday.com/search/opensearch/generic.xml"], "rss": [], "media-class": "newspaper", "media-subclass": "city-county", "facebook": "", "website": "http://www.chagrinvalleytoday.com/", "city-county-lat": 41.43932, "city-county-name": "Chagrin Falls", "twitter": "", "name": "Chagrin Valley Times", "video": ""}, {"city-county-long": -82.97228, "open-search": [], "rss": [], "media-class": "newspaper", "media-subclass": "city-county", "facebook": "https://www.facebook.com/ChillicotheGazette", "website": "http://www.chillicothegazette.com/", "city-county-lat": 39.33046, "city-county-name": "Chillicothe", "twitter": "http://www.twitter.com/ChilliGaz", "name": "Chillicothe Gazette", "video": ""}, {"city-county-long": -84.53822, "open-search": [], "rss": [], "media-class": "newspaper", "media-subclass": "city-county", "facebook": "https://www.facebook.com/BusinessCourier", "website": "http://www.bizjournals.com/cincinnati/", "city-county-lat": 39.166759, "city-county-name": "Cincinnati", "twitter": "http://www.twitter.com/BusinessCourier", "name": "Cincinnati Business Courier", "video": "http://www.youtube.com/user/TheBusinessCourier"}, {"city-county-long": -84.53822, "open-search": [], "rss": ["http://www.callandpost.com/feed.xml"], "media-class": "newspaper", "media-subclass": "city-county", "facebook": "https://www.facebook.com/CallandPost", "website": "http://callandpost.com/", "city-county-lat": 39.166759, "city-county-name": "Cincinnati", "twitter": "http://www.twitter.com/call_post", "name": "Cincinnati Call and Post", "video": "http://www.youtube.com/user/CallandPost"}, {"city-county-long": -84.53822, "open-search": [], "rss": ["/feeds"], "media-class": "newspaper", "media-subclass": "city-county", "facebook": "https://www.facebook.com/CincinnatiCityBeat", "website": "http://www.citybeat.com/", "city-county-lat": 39.166759, "city-county-name": "Cincinnati", "twitter": "http://www.twitter.com/CityBeatCincy", "name": "Cincinnati City Beat", "video": ""}, {"city-county-long": -84.53822, "open-search": [], "rss": [], "media-class": "newspaper", "media-subclass": "city-county", "facebook": "https://www.facebook.com/Enquirer", "website": "http://www.cincinnati.com/", "city-county-lat": 39.166759, "city-county-name": "Cincinnati", "twitter": "http://www.twitter.com/Enquirer", "name": "Cincinnati Enquirer", "video": "http://www.youtube.com/user/EnquirerMedia"}, {"city-county-long": -84.53822, "open-search": [], "rss": [], "media-class": "newspaper", "media-subclass": "city-county", "facebook": "https://www.facebook.com/pages/The-Cincinnati-Herald/276096779079865", "website": "http://www.thecincinnatiherald.com/", "city-county-lat": 39.166759, "city-county-name": "Cincinnati", "twitter": "http://www.twitter.com/CinciHerald", "name": "Cincinnati Herald", "video": "https://www.youtube.com/channel/UCX2ObQGt6UgUTIRCeM6HhUg"}, {"city-county-long": -82.94285, "open-search": [], "rss": ["http://www.circlevilleherald.com/search/?f=rss&t=article&l=50&s=start_time&sd=desc&k[]=%23topstory"], "media-class": "newspaper", "media-subclass": "city-county", "facebook": "https://www.facebook.com/circlevilleherald", "website": "http://www.circlevilleherald.com/", "city-county-lat": 39.598236, "city-county-name": "Circleville", "twitter": "http://www.twitter.com/CirclevilleNews", "name": "Circleville Herald", "video": "http://www.youtube.com/user/CirclevilleHerald"}, {"city-county-long": -81.599648, "open-search": [], "rss": ["http://www.clevescene.com/cleveland/Rss.xml", "http://www.clevescene.com/cleveland/Rss.xml?id=comments"], "media-class": "newspaper", "media-subclass": "city-county", "facebook": "https://www.facebook.com/ClevelandScene", "website": "http://www.clevescene.com/", "city-county-lat": 41.523401, "city-county-name": "Cleveland", "twitter": "http://www.twitter.com/ClevelandScene", "name": "Cleveland Scene", "video": ""}, {"city-county-long": -81.599648, "open-search": [], "rss": ["http://www.crainscleveland.com/feed/breaking_news"], "media-class": "newspaper", "media-subclass": "city-county", "facebook": "https://www.facebook.com/CrainsCleveland", "website": "http://www.crainscleveland.com/", "city-county-lat": 41.523401, "city-county-name": "Cleveland", "twitter": "http://www.twitter.com/CrainsCleveland", "name": "Crain's Cleveland Business", "video": "https://www.youtube.com/channel/UCgAAaoK308_UhNONRfZmHfA"}, {"city-county-long": -81.599648, "open-search": [], "rss": ["/rss/municipalcourt_rss.xml", "/rss/realestatetaxsales_rss.xml", "/rss/municipalcourt_atom.xml", "/rss/classifieds_rss.xml", "/rss/realestatesheriffsales_atom.xml", "/rss/marriagelicenses_rss.xml", "/rss/realestatesheriffsales_rss.xml", "/rss/ads_atom.xml", "/rss/realestatetaxsales_atom.xml", "/rss/realestatetransfers_atom.xml", "/rss/classifieds_atom.xml", "/rss/commonpleascourt_rss.xml", "/rss/realestatetransfers_rss.xml", "/rss/news_rss.xml", "/rss/foreclosures_rss.xml", "/rss/vendorlicenses_rss.xml", "/rss/domesticrelationscourt_atom.xml", "/rss/ads_rss.xml", "/rss/probatecourt_atom.xml", "/rss/newcorporations_rss.xml", "/rss/probatecourt_rss.xml", "/rss/bankruptcycourt_atom.xml", "/rss/domesticrelationscourt_rss.xml", "/rss/vendorlicenses_atom.xml", "/rss/newcorporations_atom.xml", "/rss/marriagelicenses_atom.xml", "/rss/foreclosures_atom.xml", "/rss/commonpleascourt_atom.xml", "/rss/bankruptcycourt_rss.xml"], "media-class": "newspaper", "media-subclass": "city-county", "facebook": "", "website": "http://www.dln.com/", "city-county-lat": 41.523401, "city-county-name": "Cleveland", "twitter": "", "name": "Daily Legal News", "video": ""}, {"city-county-long": -81.599648, "open-search": [], "rss": [], "media-class": "newspaper", "media-subclass": "city-county", "facebook": "https://www.facebook.com/clevelandcom", "website": "http://www.cleveland.com/plaindealer/", "city-county-lat": 41.523401, "city-county-name": "Cleveland", "twitter": "http://www.twitter.com/clevelanddotcom", "name": "Plain Dealer", "video": "http://www.youtube.com/user/clevelandplaindealer"}, {"city-county-long": -81.5562, "open-search": [], "rss": ["/feeds/stories"], "media-class": "newspaper", "media-subclass": "city-county", "facebook": "https://www.facebook.com/futureheights", "website": "http://heightsobserver.org/", "city-county-lat": 41.5201, "city-county-name": "Cleveland Heights", "twitter": "http://www.twitter.com/heightsobserver", "name": "Heights Observer", "video": ""}, {"city-county-long": -82.96925, "open-search": [], "rss": ["http://clydeenterprise.com/features/feed", "http://clydeenterprise.com/sports/feed", "http://clydeenterprise.com/news/feed", "http://clydeenterprise.com/opinion/feed"], "media-class": "newspaper", "media-subclass": "city-county", "facebook": "https://www.facebook.com/pages/The-Clyde-Enterprise/190219957676578", "website": "http://clydeenterprise.com/", "city-county-lat": 41.304387, "city-county-name": "Clyde", "twitter": "http://www.twitter.com/clydeenterprise", "name": "Clyde Enterprise", "video": ""}, {"city-county-long": -83.02076, "open-search": [], "rss": [], "media-class": "newspaper", "media-subclass": "city-county", "facebook": "https://www.facebook.com/ColumbusBusinessFirst", "website": "http://www.bizjournals.com/columbus/", "city-county-lat": 40.097796, "city-county-name": "Columbus", "twitter": "http://www.twitter.com/columbusbiz1st", "name": "Business First", "video": ""}, {"city-county-long": -83.02076, "open-search": [], "rss": [], "media-class": "newspaper", "media-subclass": "city-county", "facebook": "https://www.facebook.com/columbusalive", "website": "http://www.columbusalive.com/", "city-county-lat": 40.097796, "city-county-name": "Columbus", "twitter": "http://www.twitter.com/ColumbusAlive", "name": "Columbus Alive", "video": "http://www.youtube.com/user/ColumbusAlive"}, {"city-county-long": -83.02076, "open-search": [], "rss": [], "media-class": "newspaper", "media-subclass": "city-county", "facebook": "https://www.facebook.com/columbusdispatch", "website": "http://www.dispatch.com/", "city-county-lat": 40.097796, "city-county-name": "Columbus", "twitter": "http://www.twitter.com/dispatchalerts", "name": "Columbus Dispatch", "video": "http://www.youtube.com/user/TheColumbusDispatch"}, {"city-county-long": -83.02076, "open-search": [], "rss": ["http://columbuspost.com/feed/"], "media-class": "newspaper", "media-subclass": "city-county", "facebook": "https://www.facebook.com/columbuspost", "website": "http://columbuspost.com/", "city-county-lat": 40.097796, "city-county-name": "Columbus", "twitter": "http://www.twitter.com/columbuspost", "name": "Columbus Post", "video": ""}, {"city-county-long": -83.02076, "open-search": [], "rss": ["http://www.thedailyreporteronline.com/feed/"], "media-class": "newspaper", "media-subclass": "city-county", "facebook": "", "website": "http://www.thedailyreporteronline.com/", "city-county-lat": 40.097796, "city-county-name": "Columbus", "twitter": "", "name": "Daily Reporter", "video": ""}, {"city-county-long": -83.02076, "open-search": [], "rss": [], "media-class": "newspaper", "media-subclass": "city-county", "facebook": "https://www.facebook.com/ThisWeekNews", "website": "http://www.thisweeknews.com/", "city-county-lat": 40.097796, "city-county-name": "Columbus", "twitter": "http://www.twitter.com/thisweeknews", "name": "This Week", "video": "http://www.youtube.com/user/ThisWeekNewspapers"}, {"city-county-long": -80.7264, "open-search": [], "rss": ["http://thecortlandnews.com/feed/", "http://thecortlandnews.com/comments/feed/"], "media-class": "newspaper", "media-subclass": "city-county", "facebook": "https://www.facebook.com/pages/Cortland-News-The-Good-News-Newspaper/199874685405", "website": "http://www.thecortlandnews.com/", "city-county-lat": 41.333312, "city-county-name": "Cortland", "twitter": "", "name": "Cortland News", "video": ""}, {"city-county-long": -81.86761, "open-search": [], "rss": [], "media-class": "newspaper", "media-subclass": "city-county", "facebook": "https://www.facebook.com/CoshoctonTribune", "website": "http://www.coshoctontribune.com/", "city-county-lat": 40.270198, "city-county-name": "Coshocton", "twitter": "http://www.twitter.com/coshtribune", "name": "Coshocton Tribune", "video": ""}, {"city-county-long": -84.268593, "open-search": [], "rss": [], "media-class": "newspaper", "media-subclass": "city-county", "facebook": "https://www.facebook.com/dbjnews", "website": "http://www.bizjournals.com/dayton/", "city-county-lat": 39.750471, "city-county-name": "Dayton", "twitter": "http://www.twitter.com/dbjnews", "name": "Dayton Business Journal", "video": ""}, {"city-county-long": -84.268593, "open-search": [], "rss": [], "media-class": "newspaper", "media-subclass": "city-county", "facebook": "https://www.facebook.com/daytondailynews", "website": "http://www.daytondailynews.com/", "city-county-lat": 39.750471, "city-county-name": "Dayton", "twitter": "http://www.twitter.com/daytondailynews", "name": "Dayton Daily News", "video": ""}, {"city-county-long": -84.268593, "open-search": [], "rss": [], "media-class": "newspaper", "media-subclass": "city-county", "facebook": "", "website": "http://www.skywrighter.com/", "city-county-lat": 39.750471, "city-county-name": "Dayton", "twitter": "", "name": "Wright-Patterson Skywrighter", "video": ""}, {"city-county-long": -84.36539, "open-search": [], "rss": ["http://www.crescent-news.com/search/?f=rss&t=article&l=50&s=start_time&sd=desc&k[]=%23topstory"], "media-class": "newspaper", "media-subclass": "city-county", "facebook": "https://www.facebook.com/crescentnews", "website": "http://www.crescent-news.com/", "city-county-lat": 41.29037, "city-county-name": "Defiance", "twitter": "http://www.twitter.com/crescentnews", "name": "Crescent-News", "video": "http://www.youtube.com/user/CrescentNewsCom"}, {"city-county-long": -83.06968, "open-search": [], "rss": ["http://delgazette.com/comments/feed", "http://delgazette.com/feed"], "media-class": "newspaper", "media-subclass": "city-county", "facebook": "https://www.facebook.com/delawaregazette", "website": "http://delgazette.com/", "city-county-lat": 40.295925, "city-county-name": "Delaware", "twitter": "http://www.twitter.com/delgazette", "name": "Delaware Gazette", "video": "http://www.youtube.com/user/delawaregazette"}, {"city-county-long": -84.34178, "open-search": [], "rss": [], "media-class": "newspaper", "media-subclass": "city-county", "facebook": "https://www.facebook.com/pages/The-Delphos-Herald/185052741540410", "website": "http://www.delphosherald.com/", "city-county-lat": 40.841409, "city-county-name": "Delphos", "twitter": "http://www.twitter.com/delphosherald", "name": "Daily Herald", "video": ""}, {"city-county-long": -80.57469, "open-search": [], "rss": [], "media-class": "newspaper", "media-subclass": "city-county", "facebook": "https://www.facebook.com/EastLiverpoolReview", "website": "http://www.reviewonline.com/", "city-county-lat": 40.641545, "city-county-name": "East Liverpool", "twitter": "http://www.twitter.com/TheReviewOnline", "name": "Review", "video": ""}, {"city-county-long": -84.65393, "open-search": [], "rss": ["http://registerherald.com/feed", "http://registerherald.com/comments/feed"], "media-class": "newspaper", "media-subclass": "city-county", "facebook": "https://www.facebook.com/TheRegisterHerald", "website": "http://registerherald.com/", "city-county-lat": 39.739353, "city-county-name": "Eaton", "twitter": "http://www.twitter.com/theeatonrh", "name": "Register-Herald", "video": ""}, {"city-county-long": -82.10874, "open-search": [], "rss": [], "media-class": "newspaper", "media-subclass": "city-county", "facebook": "https://www.facebook.com/ChronicleTelegram", "website": "http://chronicle.northcoastnow.com/", "city-county-lat": 41.369846, "city-county-name": "Elyria", "twitter": "http://www.twitter.com/YourChronicle", "name": "Chronicle-Telegram", "video": "http://www.youtube.com/user/chroniclet"}, {"city-county-long": -84.30999, "open-search": [], "rss": ["http://englewoodindependent.com/comments/feed", "http://englewoodindependent.com/feed"], "media-class": "newspaper", "media-subclass": "city-county", "facebook": "https://www.facebook.com/EnglewoodIndependent", "website": "http://englewoodindependent.com/", "city-county-lat": 39.877745, "city-county-name": "Englewood", "twitter": "http://www.twitter.com/Englewood_Ind", "name": "Englewood Independent", "video": ""}, {"city-county-long": -84.01972, "open-search": [], "rss": ["http://fairborndailyherald.com/comments/feed", "http://fairborndailyherald.com/feed"], "media-class": "newspaper", "media-subclass": "city-county", "facebook": "https://www.facebook.com/FairbornDailyHerald", "website": "http://fairborndailyherald.com/", "city-county-lat": 39.808909, "city-county-name": "Fairborn", "twitter": "http://www.twitter.com/fairbornherald", "name": "Fairborn Daily Herald", "video": ""}, {"city-county-long": -84.55277, "open-search": [], "rss": [], "media-class": "newspaper", "media-subclass": "city-county", "facebook": "https://www.facebook.com/TodaysPulse", "website": "http://www.todayspulse.com/", "city-county-lat": 39.330356, "city-county-name": "Fairfield", "twitter": "http://www.twitter.com/TodaysPulse", "name": "Todays Pulse", "video": ""}, {"city-county-long": -83.650714, "open-search": [], "rss": ["http://thecourier.com/comments/feed/", "http://thecourier.com/feed/"], "media-class": "newspaper", "media-subclass": "city-county", "facebook": "https://www.facebook.com/pages/The-Courier/256312172678", "website": "http://www.thecourier.com/", "city-county-lat": 40.993263, "city-county-name": "Findlay", "twitter": "http://www.twitter.com/FindlayCourier", "name": "Courier", "video": "http://www.youtube.com/user/findlaypublishing"}, {"city-county-long": -83.41054, "open-search": [], "rss": ["http://reviewtimes.com/comments/feed/", "http://reviewtimes.com/feed/"], "media-class": "newspaper", "media-subclass": "city-county", "facebook": "https://www.facebook.com/pages/Fostoria-Review-Times/342669131635", "website": "http://www.reviewtimes.com/", "city-county-lat": 41.164209, "city-county-name": "Fostoria", "twitter": "http://www.twitter.com/Fostoria_RT", "name": "Review Times", "video": "http://www.youtube.com/channel/UCA4yd_2jZUzoQIjAnuhTP8A"}, {"city-county-long": -83.11217, "open-search": [], "rss": [], "media-class": "newspaper", "media-subclass": "city-county", "facebook": "https://www.facebook.com/TheNewsMessenger", "website": "http://www.thenews-messenger.com/", "city-county-lat": 41.35307, "city-county-name": "Fremont", "twitter": "http://www.twitter.com/fremontNM", "name": "News-Messenger", "video": ""}, {"city-county-long": -82.797, "open-search": [], "rss": ["http://galioninquirer.com/comments/feed", "http://galioninquirer.com/feed"], "media-class": "newspaper", "media-subclass": "city-county", "facebook": "https://www.facebook.com/pages/The-Galion-Inquirer/199773433448273", "website": "http://galioninquirer.com/", "city-county-lat": 40.720869, "city-county-name": "Galion", "twitter": "http://www.twitter.com/GalionNews", "name": "Galion Inquirer", "video": "https://www.youtube.com/channel/UCE5S4xTW-Dcg0kqFw9-aURw"}, {"city-county-long": -82.22755, "open-search": [], "rss": ["http://mydailytribune.com/comments/feed", "http://mydailytribune.com/feed"], "media-class": "newspaper", "media-subclass": "city-county", "facebook": "https://www.facebook.com/gallipolisdailytribune", "website": "http://www.mydailytribune.com/", "city-county-lat": 38.825478, "city-county-name": "Gallipolis", "twitter": "http://www.twitter.com/gd_trib", "name": "Gallipolis Daily Tribune", "video": "https://www.youtube.com/user/OVPNews/feed"}, {"city-county-long": -83.90215, "open-search": [], "rss": ["http://www.newsdemocrat.com/feed/", "http://www.newsdemocrat.com/comments/feed/"], "media-class": "newspaper", "media-subclass": "city-county", "facebook": "https://www.facebook.com/thenewsdemocrat", "website": "http://newsdemocrat.com/", "city-county-lat": 38.87752, "city-county-name": "Georgetown", "twitter": "http://www.twitter.com/thenewsdemocrat", "name": "News Democrat", "video": ""}, {"city-county-long": -82.52134, "open-search": [], "rss": [], "media-class": "newspaper", "media-subclass": "city-county", "facebook": "https://www.facebook.com/granvillesentinel", "website": "http://www.newarkadvocate.com/news/granville-sentinel/", "city-county-lat": 40.070985, "city-county-name": "Granville", "twitter": "http://www.twitter.com/GranvilleSent", "name": "Granville Sentinel", "video": ""}, {"city-county-long": -84.63574, "open-search": [], "rss": ["http://dailyadvocate.com/feed", "http://dailyadvocate.com/comments/feed"], "media-class": "newspaper", "media-subclass": "city-county", "facebook": "https://www.facebook.com/advocate360", "website": "http://dailyadvocate.com/", "city-county-lat": 40.094141, "city-county-name": "Greenville", "twitter": "http://www.twitter.com/advocate360", "name": "Daily Advocate", "video": ""}, {"city-county-long": -84.52271, "open-search": [], "rss": [], "media-class": "newspaper", "media-subclass": "city-county", "facebook": "https://www.facebook.com/journalnews", "website": "http://www.journal-news.com/", "city-county-lat": 39.404856, "city-county-name": "Hamilton", "twitter": "http://www.twitter.com/journalnews", "name": "Journal-News", "video": ""}, {"city-county-long": -84.52271, "open-search": [], "rss": [], "media-class": "newspaper", "media-subclass": "city-county", "facebook": "https://www.facebook.com/lindenwald.ledger", "website": "http://www.lindenwaldledger.com/", "city-county-lat": 39.404856, "city-county-name": "Hamilton", "twitter": "http://www.twitter.com/lwaldledger", "name": "Lindenwald Ledger", "video": ""}, {"city-county-long": -84.74496, "open-search": [], "rss": [], "media-class": "newspaper", "media-subclass": "city-county", "facebook": "", "website": "http://www.hicksvillenewstribune.com/", "city-county-lat": 41.30569, "city-county-name": "Hicksville", "twitter": "", "name": "News-Tribune", "video": ""}, {"city-county-long": -83.5802, "open-search": [], "rss": ["http://timesgazette.com/feed", "http://timesgazette.com/comments/feed"], "media-class": "newspaper", "media-subclass": "city-county", "facebook": "https://www.facebook.com/TheTimesGazette", "website": "http://timesgazette.com/", "city-county-lat": 39.162917, "city-county-name": "Hillsboro", "twitter": "http://www.twitter.com/TheTimesGazette", "name": "Times-Gazette", "video": "http://www.youtube.com/user/TheTimesGazette"}, {"city-county-long": -80.57733, "open-search": [], "rss": ["http://thereviewnewspapers.com/?feed=rss2", "http://thereviewnewspapers.com/?feed=comments-rss2"], "media-class": "newspaper", "media-subclass": "city-county", "facebook": "https://www.facebook.com/pages/The-Review-Newspapers/264630490242876", "website": "http://thereviewnewspapers.com/", "city-county-lat": 41.166743, "city-county-name": "Hubbard", "twitter": "", "name": "Review Newspapers", "video": ""}, {"city-county-long": -84.1247, "open-search": [], "rss": ["http://hhcourier.com/comments/feed", "http://hhcourier.com/feed"], "media-class": "newspaper", "media-subclass": "city-county", "facebook": "https://www.facebook.com/HuberHeightsCourier", "website": "http://hhcourier.com/", "city-county-lat": 39.8439, "city-county-name": "Huber Heights", "twitter": "http://www.twitter.com/hh_courier", "name": "Huber Heights Courier", "video": ""}, {"city-county-long": -82.6737, "open-search": [], "rss": [], "media-class": "newspaper", "media-subclass": "city-county", "facebook": "https://www.facebook.com/irontontribune", "website": "http://www.irontontribune.com/", "city-county-lat": 38.535109, "city-county-name": "Ironton", "twitter": "http://www.twitter.com/IrontonTribune", "name": "Ironton Tribune", "video": "http://www.youtube.com/user/irontontribune"}, {"city-county-long": -82.63678, "open-search": [], "rss": ["http://www.timesjournal.com/search/?f=rss&t=article&l=50&s=start_time&sd=desc&k[]=%23topstory"], "media-class": "newspaper", "media-subclass": "city-county", "facebook": "https://www.facebook.com/jacksoncountytimesjournal", "website": "http://www.timesjournal.com/", "city-county-lat": 39.034226, "city-county-name": "Jackson", "twitter": "http://www.twitter.com/jtimesjournal", "name": "Times-Journal", "video": "http://www.youtube.com/user/JacksonCTimesJournal"}, {"city-county-long": -83.60577, "open-search": [], "rss": ["http://www.kentontimes.com/feed/", "http://www.kentontimes.com/home/feed/", "http://www.kentontimes.com/comments/feed/"], "media-class": "newspaper", "media-subclass": "city-county", "facebook": "https://www.facebook.com/kentontimes", "website": "http://www.kentontimes.com/", "city-county-lat": 40.642266, "city-county-name": "Kenton", "twitter": "http://www.twitter.com/kentontimes", "name": "Kenton Times", "video": "https://www.youtube.com/user/KentonTimes"}, {"city-county-long": -81.80036, "open-search": [], "rss": ["/feeds/stories"], "media-class": "newspaper", "media-subclass": "city-county", "facebook": "https://www.facebook.com/pages/Lakewood-Observer/151628958184731", "website": "http://www.lakewoodobserver.com/", "city-county-lat": 41.480881, "city-county-name": "Lakewood", "twitter": "", "name": "Lakewood Observer", "video": "http://www.youtube.com/user/TheLakewoodObserver"}, {"city-county-long": -82.61216, "open-search": [], "rss": [], "media-class": "newspaper", "media-subclass": "city-county", "facebook": "https://www.facebook.com/LancasterEagleGazette", "website": "http://www.lancastereaglegazette.com/", "city-county-lat": 39.712887, "city-county-name": "Lancaster", "twitter": "http://www.twitter.com/eaglegazette", "name": "Eagle Gazette", "video": ""}, {"city-county-long": -84.08458, "open-search": [], "rss": ["http://limaohio.com/feed", "http://limaohio.com/comments/feed"], "media-class": "newspaper", "media-subclass": "city-county", "facebook": "https://www.facebook.com/limanews", "website": "http://www.limaohio.com/", "city-county-lat": 40.759451, "city-county-name": "Lima", "twitter": "http://www.twitter.com/limanews", "name": "Lima News", "video": "http://www.youtube.com/user/LimaNewsVideos"}, {"city-county-long": -84.08458, "open-search": [], "rss": ["http://the419.com/feed/", "http://the419.com/comments/feed/"], "media-class": "newspaper", "media-subclass": "city-county", "facebook": "https://www.facebook.com/the419paper", "website": "http://the419.com/", "city-county-lat": 40.759451, "city-county-name": "Lima", "twitter": "http://www.twitter.com/the419", "name": "the419", "video": "https://www.youtube.com/user/the419paper"}, {"city-county-long": -80.7642, "open-search": [], "rss": [], "media-class": "newspaper", "media-subclass": "city-county", "facebook": "https://www.facebook.com/LisbonMorningJournal", "website": "http://www.morningjournalnews.com/", "city-county-lat": 40.757793, "city-county-name": "Lisbon", "twitter": "http://www.twitter.com/Morning_Journal", "name": "Morning Journal", "video": "http://www.youtube.com/user/MorningJournalNews"}, {"city-county-long": -82.40801, "open-search": [], "rss": ["http://www.logandaily.com/search/?f=rss&t=article&l=50&s=start_time&sd=desc&k[]=%23topstory"], "media-class": "newspaper", "media-subclass": "city-county", "facebook": "https://www.facebook.com/LoganDailyNews", "website": "http://www.logandaily.com/", "city-county-lat": 39.530972, "city-county-name": "Logan", "twitter": "http://www.twitter.com/logandaily", "name": "Logan Daily News", "video": "http://www.youtube.com/user/logannews"}, {"city-county-long": -83.43643, "open-search": [], "rss": ["http://madison-press.com/comments/feed", "http://madison-press.com/feed"], "media-class": "newspaper", "media-subclass": "city-county", "facebook": "https://www.facebook.com/TheMadisonPress", "website": "http://www.madison-press.com/", "city-county-lat": 39.892676, "city-county-name": "London", "twitter": "http://www.twitter.com/TheMadisonPress", "name": "Madison Press", "video": ""}, {"city-county-long": -82.1691, "open-search": [], "rss": [], "media-class": "newspaper", "media-subclass": "city-county", "facebook": "https://www.facebook.com/MorningJournal", "website": "http://www.morningjournal.com/", "city-county-lat": 41.459218, "city-county-name": "Lorain", "twitter": "http://www.twitter.com/MorningJournal", "name": "Morning Journal", "video": "http://www.youtube.com/user/MorningJournalNews"}, {"city-county-long": -82.511369, "open-search": [], "rss": [], "media-class": "newspaper", "media-subclass": "city-county", "facebook": "https://www.facebook.com/MansfieldNewsJournal", "website": "http://www.mansfieldnewsjournal.com/", "city-county-lat": 40.850833, "city-county-name": "Mansfield", "twitter": "http://www.twitter.com/MansfieldNJ", "name": "News Journal", "video": ""}, {"city-county-long": -81.44373, "open-search": [], "rss": [], "media-class": "newspaper", "media-subclass": "city-county", "facebook": "https://www.facebook.com/MariettaTimes", "website": "http://www.mariettatimes.com/", "city-county-lat": 39.426551, "city-county-name": "Marietta", "twitter": "http://www.twitter.com/MariettaTimes", "name": "Marietta Times", "video": ""}, {"city-county-long": -83.069296, "open-search": [], "rss": [], "media-class": "newspaper", "media-subclass": "city-county", "facebook": "https://www.facebook.com/MarionStar", "website": "http://www.marionstar.com/", "city-county-lat": 40.616604, "city-county-name": "Marion", "twitter": "http://www.twitter.com/TheMarionStar", "name": "Marion Star", "video": ""}, {"city-county-long": -80.73327, "open-search": [], "rss": [], "media-class": "newspaper", "media-subclass": "city-county", "facebook": "https://www.facebook.com/TheTimesLeader", "website": "http://www.timesleaderonline.com/", "city-county-lat": 40.103877, "city-county-name": "Martins Ferry", "twitter": "http://www.twitter.com/TheTimesLeader", "name": "Times Leader", "video": ""}, {"city-county-long": -83.36391, "open-search": [], "rss": ["http://www.marysvillejt.com/wp/?feed=rss2", "http://www.marysvillejt.com/wp/?feed=comments-rss2"], "media-class": "newspaper", "media-subclass": "city-county", "facebook": "https://www.facebook.com/marysville.journaltribune", "website": "http://www.marysvillejt.com/", "city-county-lat": 40.255973, "city-county-name": "Marysville", "twitter": "", "name": "Marysville Journal-Tribune", "video": "https://www.youtube.com/channel/UCp-x1BqSzW0Z_-Xh6xiBA2A"}, {"city-county-long": -81.50101, "open-search": [], "rss": [], "media-class": "newspaper", "media-subclass": "city-county", "facebook": "https://www.facebook.com/massillonindependent", "website": "http://www.indeonline.com/", "city-county-lat": 40.805131, "city-county-name": "Massillon", "twitter": "http://www.twitter.com/indedotcom", "name": "Independent", "video": "http://www.youtube.com/user/indeonline"}, {"city-county-long": -81.79548, "open-search": [], "rss": [], "media-class": "newspaper", "media-subclass": "city-county", "facebook": "https://www.facebook.com/MorganCountyHerald", "website": "http://www.mchnews.com/", "city-county-lat": 39.675911, "city-county-name": "McConnelsville", "twitter": "http://www.twitter.com/mchnews", "name": "Morgan County Herald", "video": ""}, {"city-county-long": -81.85646, "open-search": [], "rss": [], "media-class": "newspaper", "media-subclass": "city-county", "facebook": "https://www.facebook.com/medinagazette", "website": "http://medinagazette.northcoastnow.com/", "city-county-lat": 41.139849, "city-county-name": "Medina", "twitter": "http://www.twitter.com/medinagazette", "name": "Medina Gazette", "video": "http://www.youtube.com/user/MedinaGazette"}, {"city-county-long": -84.39324, "open-search": [], "rss": [], "media-class": "newspaper", "media-subclass": "city-county", "facebook": "https://www.facebook.com/journalnews", "website": "http://www.journal-news.com/", "city-county-lat": 39.534907, "city-county-name": "Middletown", "twitter": "http://www.twitter.com/journalnews", "name": "Journal-News", "video": ""}, {"city-county-long": -83.433, "open-search": [], "rss": ["/?format=feed&type=rss", "/?format=feed&type=atom"], "media-class": "newspaper", "media-subclass": "city-county", "facebook": "https://www.facebook.com/pressnewspapers", "website": "http://www.presspublications.com/", "city-county-lat": 41.5678, "city-county-name": "Millbury", "twitter": "http://www.twitter.com/pressnewspapers", "name": "Press", "video": ""}, {"city-county-long": -82.48254, "open-search": ["/opensearch.xml"], "rss": ["http://mountvernonnews.com/story/feed/"], "media-class": "newspaper", "media-subclass": "city-county", "facebook": "https://www.facebook.com/mvnews", "website": "http://www.mountvernonnews.com/", "city-county-lat": 40.385636, "city-county-name": "Mount Vernon", "twitter": "http://www.twitter.com/mountvernonnews", "name": "Mount Vernon News", "video": "http://www.youtube.com/user/mountvernonnews"}, {"city-county-long": -84.12511, "open-search": ["http://www.northwestsignal.net/search/opensearch/generic.xml"], "rss": [], "media-class": "newspaper", "media-subclass": "city-county", "facebook": "https://www.facebook.com/pages/Northwest-Signal/91474768932", "website": "http://www.northwestsignal.net/", "city-county-lat": 41.388278, "city-county-name": "Napoleon", "twitter": "http://www.twitter.com/nwseditor", "name": "Northwest Signal", "video": "http://www.youtube.com/user/NWSignal"}, {"city-county-long": -84.01992, "open-search": [], "rss": ["/index.php?format=feed&type=rss", "/index.php?format=feed&type=atom"], "media-class": "newspaper", "media-subclass": "city-county", "facebook": "https://www.facebook.com/NewCarlisleNews", "website": "http://newcarlislenews.net/", "city-county-lat": 39.939925, "city-county-name": "New Carlisle", "twitter": "", "name": "New Carlisle News", "video": ""}, {"city-county-long": -82.40483, "open-search": [], "rss": [], "media-class": "newspaper", "media-subclass": "city-county", "facebook": "", "website": "http://www.sdgnewsgroup.com/story4.html", "city-county-lat": 41.098478, "city-county-name": "New London", "twitter": "", "name": "Firelands Farmer", "video": ""}, {"city-county-long": -82.40483, "open-search": [], "rss": [], "media-class": "newspaper", "media-subclass": "city-county", "facebook": "", "website": "http://www.sdgnewsgroup.com/story3.html", "city-county-lat": 41.098478, "city-county-name": "New London", "twitter": "", "name": "New London Record", "video": ""}, {"city-county-long": -81.44439, "open-search": [], "rss": [], "media-class": "newspaper", "media-subclass": "city-county", "facebook": "https://www.facebook.com/timesreporter", "website": "http://www.timesreporter.com/", "city-county-lat": 40.477187, "city-county-name": "New Philadelphia", "twitter": "http://www.twitter.com/TROhio", "name": "Times Reporter", "video": ""}, {"city-county-long": -82.40054, "open-search": [], "rss": [], "media-class": "newspaper", "media-subclass": "city-county", "facebook": "https://www.facebook.com/NewarkAdvocate", "website": "http://www.newarkadvocate.com/", "city-county-lat": 40.079115, "city-county-name": "Newark", "twitter": "http://www.twitter.com/NewarkAdvocate", "name": "Advocate", "video": "http://www.youtube.com/user/NewarkAdvocate"}, {"city-county-long": -81.59662, "open-search": [], "rss": [], "media-class": "newspaper", "media-subclass": "city-county", "facebook": "https://www.facebook.com/NewcomerstownNews", "website": "http://newcomerstown-news.com/", "city-county-lat": 40.277376, "city-county-name": "Newcomerstown", "twitter": "", "name": "Newcomerstown News", "video": ""}, {"city-county-long": -82.60185, "open-search": [], "rss": ["/rss/"], "media-class": "newspaper", "media-subclass": "city-county", "facebook": "https://www.facebook.com/pages/Norwalk-Reflector/69372083633", "website": "http://www.norwalkreflector.com/", "city-county-lat": 41.236357, "city-county-name": "Norwalk", "twitter": "http://www.twitter.com/nreflector", "name": "Norwalk Reflector", "video": "http://www.youtube.com/user/norwalkreflector"}, {"city-county-long": -84.04649, "open-search": [], "rss": [], "media-class": "newspaper", "media-subclass": "city-county", "facebook": "https://www.facebook.com/Putnam.County.Sentinel", "website": "http://putnamsentinel.com/", "city-county-lat": 41.020852, "city-county-name": "Ottawa", "twitter": "http://www.twitter.com/PutnamSentinel", "name": "Putnam County Sentinel", "video": "http://www.youtube.com/channel/UCMcZq8U3S3tslWSgeVECzlA"}, {"city-county-long": -83.6433, "open-search": [], "rss": [], "media-class": "newspaper", "media-subclass": "city-county", "facebook": "https://www.facebook.com/Village.Voice.of.Ottawa.Hills", "website": "http://www.vvoh.com/", "city-county-lat": 41.6642, "city-county-name": "Ottawa Hills", "twitter": "http://www.twitter.com/vvoh", "name": "Village Voice", "video": "https://www.youtube.com/user/VVOttawaHills"}, {"city-county-long": -84.7407, "open-search": [], "rss": [], "media-class": "newspaper", "media-subclass": "city-county", "facebook": "https://www.facebook.com/journalnews", "website": "http://www.journal-news.com/flist/news/local/oxfordoxford-twp-news/fSr/", "city-county-lat": 39.498751, "city-county-name": "Oxford", "twitter": "http://www.twitter.com/journalnews", "name": "Oxford Twp. News", "video": ""}, {"city-county-long": -82.67652, "open-search": [], "rss": [], "media-class": "newspaper", "media-subclass": "city-county", "facebook": "https://www.facebook.com/pataskalastandard", "website": "http://www.newarkadvocate.com/news/pataskala-standard/", "city-county-lat": 39.994001, "city-county-name": "Pataskala", "twitter": "http://www.twitter.com/PataskalaStand", "name": "Pataskala Standard", "video": ""}, {"city-county-long": -84.56377, "open-search": [], "rss": [], "media-class": "newspaper", "media-subclass": "city-county", "facebook": "https://www.facebook.com/pauldingpaper", "website": "http://www.progressnewspaper.org/", "city-county-lat": 41.137873, "city-county-name": "Paulding", "twitter": "http://www.twitter.com/pauldingpaper", "name": "Paulding County Progress", "video": "http://www.youtube.com/user/pauldingpaper"}, {"city-county-long": -83.58904, "open-search": [], "rss": [], "media-class": "newspaper", "media-subclass": "city-county", "facebook": "https://www.facebook.com/pages/Perrysburg-Messenger-Journal/87091536334", "website": "http://www.perrysburg.com/", "city-county-lat": 41.540724, "city-county-name": "Perrysburg", "twitter": "", "name": "Messenger Journal", "video": ""}, {"city-county-long": -82.756, "open-search": [], "rss": [], "media-class": "newspaper", "media-subclass": "city-county", "facebook": "https://www.facebook.com/ThisWeekNews", "website": "http://www.thisweeknews.com/content/sections/communities/pickerington.html", "city-county-lat": 39.904288, "city-county-name": "Pickerington", "twitter": "http://www.twitter.com/ThisWeekNews", "name": "Pickerington Times Sun", "video": "http://www.youtube.com/user/ThisWeekNewspapers"}, {"city-county-long": -84.24213, "open-search": [], "rss": ["http://dailycall.com/comments/feed", "http://dailycall.com/feed"], "media-class": "newspaper", "media-subclass": "city-county", "facebook": "https://www.facebook.com/PiquaDailyCall", "website": "http://dailycall.com/", "city-county-lat": 40.156514, "city-county-name": "Piqua", "twitter": "http://www.twitter.com/TheDailyCall", "name": "Piqua Daily Call", "video": "https://www.youtube.com/channel/UCkAT_q1arfNjyFTh4vhBHww"}, {"city-county-long": -82.028, "open-search": [], "rss": ["http://mydailysentinel.com/feed", "http://mydailysentinel.com/comments/feed"], "media-class": "newspaper", "media-subclass": "city-county", "facebook": "https://www.facebook.com/thedailysentinel", "website": "http://www.mydailysentinel.com/", "city-county-lat": 39.092281, "city-county-name": "Pomeroy", "twitter": "", "name": "Daily Sentinel", "video": ""}, {"city-county-long": -82.92948, "open-search": [], "rss": ["/itemlist?format=feed&type=rss", "/itemlist?format=feed&type=atom"], "media-class": "newspaper", "media-subclass": "city-county", "facebook": "https://www.facebook.com/beaconnews", "website": "http://thebeacon.net/", "city-county-lat": 41.512855, "city-county-name": "Port Clinton", "twitter": "http://www.twitter.com/thebeaconnews", "name": "Beacon", "video": "https://www.youtube.com/user/TheBeaconPortClinton"}, {"city-county-long": -82.92948, "open-search": [], "rss": [], "media-class": "newspaper", "media-subclass": "city-county", "facebook": "https://www.facebook.com/PortClintonNewsHerald", "website": "http://www.portclintonnewsherald.com/", "city-county-lat": 41.512855, "city-county-name": "Port Clinton", "twitter": "http://www.twitter.com/pcnewsherald", "name": "News Herald", "video": ""}, {"city-county-long": -82.94294, "open-search": [], "rss": ["http://portsmouth-dailytimes.com/comments/feed", "http://portsmouth-dailytimes.com/feed"], "media-class": "newspaper", "media-subclass": "city-county", "facebook": "https://www.facebook.com/pages/Portsmouth-Daily-Times/212015062154098", "website": "http://www.portsmouth-dailytimes.com/", "city-county-lat": 38.762824, "city-county-name": "Portsmouth", "twitter": "http://www.twitter.com/PDTNews", "name": "Portsmouth Times", "video": "http://www.youtube.com/user/pdtnews"}, {"city-county-long": -83.8075, "open-search": [], "rss": ["http://www.ripleybee.com/feed/", "http://www.ripleybee.com/comments/feed/"], "media-class": "newspaper", "media-subclass": "city-county", "facebook": "", "website": "http://www.ripleybee.com/", "city-county-lat": 38.763305, "city-county-name": "Ripley", "twitter": "http://www.twitter.com/TheRipleyBee", "name": "Ripley Bee", "video": ""}, {"city-county-long": -83.5619, "open-search": [], "rss": [], "media-class": "newspaper", "media-subclass": "city-county", "facebook": "https://www.facebook.com/pages/Rossford-Record-Journal/271018503475", "website": "http://www.rossford.com/", "city-county-lat": 41.603797, "city-county-name": "Rossford", "twitter": "", "name": "Rossford Record Journal", "video": ""}, {"city-county-long": -84.39308, "open-search": [], "rss": ["http://www.theeveningleader.com/rss.xml"], "media-class": "newspaper", "media-subclass": "city-county", "facebook": "https://www.facebook.com/pages/The-Evening-Leader/111666739053", "website": "http://www.theeveningleader.com/", "city-county-lat": 40.550005, "city-county-name": "Saint Marys", "twitter": "http://www.twitter.com/smeveningleader", "name": "St. Marys Evening Leader", "video": ""}, {"city-county-long": -80.86094, "open-search": [], "rss": [], "media-class": "newspaper", "media-subclass": "city-county", "facebook": "https://www.facebook.com/SalemNews", "website": "http://www.salemnews.net/", "city-county-lat": 40.898658, "city-county-name": "Salem", "twitter": "http://www.twitter.com/SalemNewsOH", "name": "Salem News", "video": ""}, {"city-county-long": -82.71083, "open-search": [], "rss": ["/rss/"], "media-class": "newspaper", "media-subclass": "city-county", "facebook": "https://www.facebook.com/sanduskyregister", "website": "http://www.sanduskyregister.com/", "city-county-lat": 41.42646, "city-county-name": "Sandusky", "twitter": "http://www.twitter.com/sanduskyregistr", "name": "Sandusky Register", "video": "http://www.youtube.com/user/SanduskyRegister"}, {"city-county-long": -82.65598, "open-search": [], "rss": [], "media-class": "newspaper", "media-subclass": "city-county", "facebook": "", "website": "http://www.sdgnewsgroup.com/story1.html", "city-county-lat": 40.888988, "city-county-name": "Shelby", "twitter": "", "name": "Daily Globe", "video": ""}, {"city-county-long": -84.15974, "open-search": [], "rss": ["http://sidneydailynews.com/comments/feed", "http://sidneydailynews.com/feed"], "media-class": "newspaper", "media-subclass": "city-county", "facebook": "https://www.facebook.com/SidneyDailyNews", "website": "http://sidneydailynews.com/", "city-county-lat": 40.284855, "city-county-name": "Sidney", "twitter": "http://www.twitter.com/sidneydailynews", "name": "Sidney Daily News", "video": ""}, {"city-county-long": -83.813228, "open-search": ["http://www.myspringfieldpaper.com/index.php/component/search/?format=opensearch"], "rss": ["/index.php?format=feed&type=rss", "/index.php?format=feed&type=atom"], "media-class": "newspaper", "media-subclass": "city-county", "facebook": "", "website": "http://www.myspringfieldpaper.com/", "city-county-lat": 39.927059, "city-county-name": "Springfield", "twitter": "", "name": "My Springfield Paper", "video": ""}, {"city-county-long": -83.813228, "open-search": [], "rss": [], "media-class": "newspaper", "media-subclass": "city-county", "facebook": "https://www.facebook.com/springfieldnewssun", "website": "http://www.springfieldnewssun.com/", "city-county-lat": 39.927059, "city-county-name": "Springfield", "twitter": "http://www.twitter.com/springfieldnews", "name": "Springfield News-Sun", "video": ""}, {"city-county-long": -80.63426, "open-search": [], "rss": [], "media-class": "newspaper", "media-subclass": "city-county", "facebook": "https://www.facebook.com/HeraldStar", "website": "http://www.heraldstaronline.com/", "city-county-lat": 40.371185, "city-county-name": "Steubenville", "twitter": "http://www.twitter.com/HeraldStar", "name": "Herald-Star", "video": "http://www.youtube.com/user/HeraldStarNewspaper"}, {"city-county-long": -81.43744, "open-search": [], "rss": [], "media-class": "newspaper", "media-subclass": "city-county", "facebook": "https://www.facebook.com/recordpub", "website": "http://www.recordpub.com/", "city-county-lat": 41.174256, "city-county-name": "Stow", "twitter": "http://www.twitter.com/recordpub", "name": "Record-Courier", "video": "http://www.youtube.com/user/TheRecordPub"}, {"city-county-long": -81.43744, "open-search": [], "rss": [], "media-class": "newspaper", "media-subclass": "city-county", "facebook": "https://www.facebook.com/StowSentry", "website": "http://www.stowsentry.com/", "city-county-lat": 41.174256, "city-county-name": "Stow", "twitter": "http://www.twitter.com/stowsentry", "name": "Stow Sentry", "video": "http://www.youtube.com/user/StowSentry"}, {"city-county-long": -80.59512, "open-search": [], "rss": ["http://hometownjournal.biz/comments/feed/", "http://hometownjournal.biz/home/feed/", "http://hometownjournal.biz/feed/"], "media-class": "newspaper", "media-subclass": "city-county", "facebook": "https://www.facebook.com/thehometownjournal", "website": "http://hometownjournal.biz/", "city-county-lat": 41.051255, "city-county-name": "Struthers", "twitter": "http://www.twitter.com/hometownjournal", "name": "Hometown Journal", "video": "http://www.youtube.com/user/HometownJournal"}, {"city-county-long": -82.84501, "open-search": [], "rss": ["http://sunburynews.com/comments/feed", "http://sunburynews.com/feed"], "media-class": "newspaper", "media-subclass": "city-county", "facebook": "https://www.facebook.com/thesunburynews", "website": "http://sunburynews.com/", "city-county-lat": 40.270926, "city-county-name": "Sunbury", "twitter": "", "name": "Sunbury News", "video": ""}, {"city-county-long": -84.395196, "open-search": [], "rss": [], "media-class": "newspaper", "media-subclass": "city-county", "facebook": "https://www.facebook.com/AdvertiserTribune", "website": "http://www.advertiser-tribune.com/", "city-county-lat": 41.425554, "city-county-name": "Tiffin", "twitter": "http://www.twitter.com/AdvertiserTrib", "name": "Advertiser-Tribune", "video": "http://www.youtube.com/user/TheAdvertiserTribune"}, {"city-county-long": -84.17685, "open-search": [], "rss": ["/index.php?format=feed&type=rss", "/index.php?format=feed&type=atom"], "media-class": "newspaper", "media-subclass": "city-county", "facebook": "https://www.facebook.com/pages/Tippecanoe-Gazette/294116627137", "website": "http://www.tippgazette.com/", "city-county-lat": 39.954239, "city-county-name": "Tipp City", "twitter": "", "name": "Tippecanoe Gazette", "video": ""}, {"city-county-long": -84.17685, "open-search": [], "rss": ["http://tippnews.com/feed/", "http://tippnews.com/comments/feed/", "http://tippnews.com/tippnews-homepage/feed/"], "media-class": "newspaper", "media-subclass": "city-county", "facebook": "https://www.facebook.com/tippnews", "website": "http://tippnews.com/", "city-county-lat": 39.954239, "city-county-name": "Tipp City", "twitter": "http://www.twitter.com/tippnews", "name": "TippNews Daily", "video": ""}, {"city-county-long": -84.17685, "open-search": [], "rss": ["http://weeklyrecordherald.com/comments/feed", "http://weeklyrecordherald.com/feed"], "media-class": "newspaper", "media-subclass": "city-county", "facebook": "https://www.facebook.com/weeklyrecordherald", "website": "http://weeklyrecordherald.com/", "city-county-lat": 39.954239, "city-county-name": "Tipp City", "twitter": "", "name": "Weekly Record Herald", "video": ""}, {"city-county-long": -83.569359, "open-search": [], "rss": [], "media-class": "newspaper", "media-subclass": "city-county", "facebook": "https://www.facebook.com/la.prensa1", "website": "http://www.laprensatoledo.com", "city-county-lat": 41.720684, "city-county-name": "Toledo", "twitter": "", "name": "La Prensa", "video": ""}, {"city-county-long": -83.569359, "open-search": [], "rss": [], "media-class": "newspaper", "media-subclass": "city-county", "facebook": "", "website": "http://www.pointandshoreland.com/", "city-county-lat": 41.720684, "city-county-name": "Toledo", "twitter": "", "name": "Point & Shoreland Journal", "video": ""}, {"city-county-long": -83.569359, "open-search": [], "rss": [], "media-class": "newspaper", "media-subclass": "city-county", "facebook": "https://www.facebook.com/thetoledoblade", "website": "http://www.toledoblade.com/", "city-county-lat": 41.720684, "city-county-name": "Toledo", "twitter": "http://www.twitter.com/toledonews", "name": "Toledo Blade", "video": "http://www.youtube.com/user/toledobladedotcom"}, {"city-county-long": -83.569359, "open-search": [], "rss": [], "media-class": "newspaper", "media-subclass": "city-county", "facebook": "https://www.facebook.com/toledocitypaper", "website": "http://www.toledocitypaper.com/", "city-county-lat": 41.720684, "city-county-name": "Toledo", "twitter": "http://www.twitter.com/TCPaper", "name": "Toledo City Paper", "video": ""}, {"city-county-long": -84.20629, "open-search": [], "rss": ["http://tdn-net.com/comments/feed", "http://tdn-net.com/feed"], "media-class": "newspaper", "media-subclass": "city-county", "facebook": "https://www.facebook.com/pages/Troy-Daily-News/372516874590", "website": "http://tdn-net.com/", "city-county-lat": 40.036525, "city-county-name": "Troy", "twitter": "http://www.twitter.com/Troydailynews", "name": "Troy Daily News", "video": "https://www.youtube.com/channel/UCP-YU7l2vhV_qMH2BagfX4w"}, {"city-county-long": -83.29921, "open-search": [], "rss": ["http://www.dailychiefunion.com/comments/feed/", "http://www.dailychiefunion.com/home-2/feed/", "http://www.dailychiefunion.com/feed/"], "media-class": "newspaper", "media-subclass": "city-county", "facebook": "https://www.facebook.com/dailychiefunion", "website": "http://www.dailychiefunion.com/", "city-county-lat": 40.82732, "city-county-name": "Upper Sandusky", "twitter": "http://www.twitter.com/DailyChiefUnion", "name": "Daily Chief-Union", "video": "https://www.youtube.com/channel/UCAhm6OjXykipGIytuqt8_TA"}, {"city-county-long": -83.76633, "open-search": [], "rss": ["http://urbanacitizen.com/comments/feed", "http://urbanacitizen.com/feed"], "media-class": "newspaper", "media-subclass": "city-county", "facebook": "https://www.facebook.com/UrbanaDailyCitizen", "website": "http://urbanacitizen.com/", "city-county-lat": 40.112531, "city-county-name": "Urbana", "twitter": "http://www.twitter.com/UrbanaCitizen", "name": "Urbana Daily Citizen", "video": ""}, {"city-county-long": -84.57871, "open-search": [], "rss": [], "media-class": "newspaper", "media-subclass": "city-county", "facebook": "https://www.facebook.com/pages/Times-Bulletin-Media/357868161759", "website": "http://timesbulletin.com/", "city-county-lat": 40.874092, "city-county-name": "Van Wert", "twitter": "http://www.twitter.com/ivanwert", "name": "Times-Bulletin", "video": ""}, {"city-county-long": -84.57871, "open-search": [], "rss": ["http://www.thevwindependent.com/news/feed/", "http://www.thevwindependent.com/news/feed/atom/"], "media-class": "newspaper", "media-subclass": "city-county", "facebook": "", "website": "http://thevwindependent.com/", "city-county-lat": 40.874092, "city-county-name": "Van Wert", "twitter": "", "name": "Van Wert Independent", "video": "https://www.youtube.com/user/thevwindependent"}, {"city-county-long": -84.2051, "open-search": [], "rss": ["http://vandaliadrummernews.com/comments/feed", "http://vandaliadrummernews.com/feed"], "media-class": "newspaper", "media-subclass": "city-county", "facebook": "https://www.facebook.com/VandaliaDrummer", "website": "http://vandaliadrummernews.com/", "city-county-lat": 39.889356, "city-county-name": "Vandalia", "twitter": "http://www.twitter.com/VandaliaDrummer", "name": "Vandalia Drummer News", "video": "https://www.youtube.com/channel/UCTE58n0PVe6vp3TH5vaTuNw"}, {"city-county-long": -84.17288, "open-search": [], "rss": ["http://www.wapakdailynews.com/rss.xml"], "media-class": "newspaper", "media-subclass": "city-county", "facebook": "https://www.facebook.com/WapakonetaDaily", "website": "http://www.wapakdailynews.com/", "city-county-lat": 40.56914, "city-county-name": "Wapakoneta", "twitter": "http://www.twitter.com/wapakdaily", "name": "Wapakoneta Daily News", "video": "https://www.youtube.com/channel/UCvTFbV4tOgWmiuBHX5u789Q"}, {"city-county-long": -80.85756, "open-search": [], "rss": [], "media-class": "newspaper", "media-subclass": "city-county", "facebook": "https://www.facebook.com/TribuneChronicle", "website": "http://www.tribtoday.com/", "city-county-lat": 41.205342, "city-county-name": "Warren", "twitter": "http://www.twitter.com/TribToday", "name": "Tribune Chronicle", "video": "https://www.youtube.com/user/tribunechronicle/featured"}, {"city-county-long": -83.4391, "open-search": [], "rss": ["http://recordherald.com/comments/feed", "http://recordherald.com/feed"], "media-class": "newspaper", "media-subclass": "city-county", "facebook": "https://www.facebook.com/therecordherald", "website": "http://www.recordherald.com/", "city-county-lat": 39.5365, "city-county-name": "Washington CH", "twitter": "http://www.twitter.com/recordherald", "name": "Record Herald", "video": "http://www.youtube.com/user/recordherald"}, {"city-county-long": -83.0009, "open-search": ["http://www.newswatchman.com/search/opensearch/generic.xml"], "rss": [], "media-class": "newspaper", "media-subclass": "city-county", "facebook": "https://www.facebook.com/newswatchman", "website": "http://www.newswatchman.com/", "city-county-lat": 39.123071, "city-county-name": "Waverly", "twitter": "http://www.twitter.com/newswatchman", "name": "Pike County News Watchman", "video": "http://www.youtube.com/user/watchman8653"}, {"city-county-long": -82.24031, "open-search": [], "rss": ["http://www.northfortynews.com/feed/", "http://www.northfortynews.com/comments/feed/"], "media-class": "newspaper", "media-subclass": "city-county", "facebook": "https://www.facebook.com/northfortynews", "website": "http://www.northfortynews.com/", "city-county-lat": 41.147116, "city-county-name": "Wellington", "twitter": "http://www.twitter.com/northfortynews", "name": "North Forty News", "video": ""}, {"city-county-long": -82.24031, "open-search": [], "rss": ["http://thewellingtonenterprise.com/comments/feed", "http://thewellingtonenterprise.com/feed"], "media-class": "newspaper", "media-subclass": "city-county", "facebook": "https://www.facebook.com/wellington.enterprise", "website": "http://www.thewellingtonenterprise.com/", "city-county-lat": 41.147116, "city-county-name": "Wellington", "twitter": "http://www.twitter.com/WelEnterprise", "name": "Wellington Enterprise", "video": ""}, {"city-county-long": -83.558044, "open-search": [], "rss": ["http://www.peoplesdefender.com/feed/", "http://www.peoplesdefender.com/comments/feed/"], "media-class": "newspaper", "media-subclass": "city-county", "facebook": "https://www.facebook.com/thepeoplesdefender", "website": "http://www.peoplesdefender.com/", "city-county-lat": 38.782131, "city-county-name": "West Union", "twitter": "http://www.twitter.com/peoplesdefender", "name": "People's Defender", "video": ""}, {"city-county-long": -84.43574, "open-search": [], "rss": ["http://www.thevillagereporter.com/feed/", "http://www.thevillagereporter.com/comments/feed/", "http://www.thevillagereporter.com/home-page/feed/"], "media-class": "newspaper", "media-subclass": "city-county", "facebook": "https://www.facebook.com/villagereporter", "website": "http://www.thevillagereporter.com/", "city-county-lat": 41.586794, "city-county-name": "West Unity", "twitter": "http://www.twitter.com/Village_Report", "name": "Village Reporter", "video": ""}, {"city-county-long": -81.92865, "open-search": [], "rss": ["http://westlife.northcoastnow.com/feed/atom/", "http://westlife.northcoastnow.com/feed/"], "media-class": "newspaper", "media-subclass": "city-county", "facebook": "https://www.facebook.com/WestLifeNews", "website": "http://westlife.northcoastnow.com/", "city-county-lat": 41.454439, "city-county-name": "Westlake", "twitter": "http://www.twitter.com/WestLifePaper", "name": "Westlife", "video": ""}, {"city-county-long": -82.588928, "open-search": [], "rss": [], "media-class": "newspaper", "media-subclass": "city-county", "facebook": "", "website": "http://www.sdgnewsgroup.com/story2.html", "city-county-lat": 41.141541, "city-county-name": "Willard", "twitter": "", "name": "Times-Junction", "video": ""}, {"city-county-long": -81.39929, "open-search": [], "rss": [], "media-class": "newspaper", "media-subclass": "city-county", "facebook": "https://www.facebook.com/newsheraldinoh", "website": "http://www.news-herald.com/", "city-county-lat": 41.625886, "city-county-name": "Willoughby", "twitter": "http://www.twitter.com/newsheraldinoh", "name": "News-Herald", "video": "https://www.youtube.com/user/newsheraldinoh"}, {"city-county-long": -83.84446, "open-search": [], "rss": ["http://wnewsj.com/comments/feed", "http://wnewsj.com/feed"], "media-class": "newspaper", "media-subclass": "city-county", "facebook": "https://www.facebook.com/wnewsj", "website": "http://wnewsj.com/", "city-county-lat": 39.463476, "city-county-name": "Wilmington", "twitter": "http://www.twitter.com/WilmingtonNews", "name": "News-Journal", "video": "http://www.youtube.com/user/wnewsj"}, {"city-county-long": -81.95726, "open-search": [], "rss": [], "media-class": "newspaper", "media-subclass": "city-county", "facebook": "https://www.facebook.com/TheDROnline", "website": "http://www.the-daily-record.com/", "city-county-lat": 40.800086, "city-county-name": "Wooster", "twitter": "http://www.twitter.com/thedailyrecord", "name": "Daily Record", "video": "http://www.youtube.com/user/TheDRecord"}, {"city-county-long": -83.92144, "open-search": [], "rss": ["http://xeniagazette.com/comments/feed", "http://xeniagazette.com/feed"], "media-class": "newspaper", "media-subclass": "city-county", "facebook": "https://www.facebook.com/XeniaDailyGazette", "website": "http://xeniagazette.com/", "city-county-lat": 39.682836, "city-county-name": "Xenia", "twitter": "http://www.twitter.com/xeniagazette", "name": "Xenia Gazette", "video": ""}, {"city-county-long": -83.89239, "open-search": [], "rss": ["http://ysnews.com/feed", "http://ysnews.com/comments/feed"], "media-class": "newspaper", "media-subclass": "city-county", "facebook": "https://www.facebook.com/ysnews", "website": "http://ysnews.com/", "city-county-lat": 39.797227, "city-county-name": "Yellow Springs", "twitter": "http://www.twitter.com/ysnews", "name": "Yellow Springs News", "video": "http://www.youtube.com/user/yellowspringsnews"}, {"city-county-long": -80.802854, "open-search": [], "rss": ["http://businessjournaldaily.com/feed/", "http://businessjournaldaily.com/comments/feed/"], "media-class": "newspaper", "media-subclass": "city-county", "facebook": "https://www.facebook.com/thebusinessjournal", "website": "http://businessjournaldaily.com/", "city-county-lat": 41.017082, "city-county-name": "Youngstown", "twitter": "http://www.twitter.com/thebizjournal", "name": "Business Journal", "video": "http://www.youtube.com/user/TheBusinessJournal1"}, {"city-county-long": -80.802854, "open-search": [], "rss": [], "media-class": "newspaper", "media-subclass": "city-county", "facebook": "https://www.facebook.com/pages/Metro-Monthly/132006473481400", "website": "http://www.metromonthly.net/", "city-county-lat": 41.017082, "city-county-name": "Youngstown", "twitter": "http://www.twitter.com/metromonthly", "name": "Metro Monthly", "video": "https://www.youtube.com/channel/UCqE44hV8xGLcx0iSL7KfSkQ"}, {"city-county-long": -80.802854, "open-search": [], "rss": ["http://www.vindy.com/rss/headlines/newswatch/"], "media-class": "newspaper", "media-subclass": "city-county", "facebook": "https://www.facebook.com/thevindicator", "website": "http://www.vindy.com/", "city-county-lat": 41.017082, "city-county-name": "Youngstown", "twitter": "http://www.twitter.com/vindicator", "name": "Vindicator Online", "video": ""}, {"city-county-long": -82.00492, "open-search": [], "rss": [], "media-class": "newspaper", "media-subclass": "city-county", "facebook": "https://www.facebook.com/ZanesvilleTimesRecorder", "website": "http://www.zanesvilletimesrecorder.com/", "city-county-lat": 39.949377, "city-county-name": "Zanesville", "twitter": "http://www.twitter.com/TimesRecorder", "name": "Times Recorder", "video": ""}, {"city-county-long": -83.8989, "open-search": [], "rss": ["http://www.blufftonconnection.com/comments/feed/", "http://www.blufftonconnection.com/feed/"], "media-class": "newspaper", "media-subclass": "college", "facebook": "http://www.facebook.com/wbwhfm", "website": "http://www.blufftonconnection.com/", "city-county-lat": 40.8965, "city-county-name": "Bluffton College", "twitter": "http://www.twitter.com/wbwhfm", "name": "Bluffton Connection", "video": "http://www.youtube.com/user/BlufftonConnection"}, {"city-county-long": -83.6301, "open-search": ["http://www.bgnews.com/search/opensearch/generic.xml"], "rss": ["http://www.bgfalconmedia.com/search/?f=rss&t=article&l=50&s=start_time&sd=desc&k[]=%23topstory"], "media-class": "newspaper", "media-subclass": "college", "facebook": "http://www.facebook.com/bgviews", "website": "http://www.bgnews.com/", "city-county-lat": 41.3798, "city-county-name": "Bowling Green", "twitter": "http://www.twitter.com/The_BG_News", "name": "BG News", "video": "http://www.youtube.com/user/TheBGNews"}, {"city-county-long": -82.9374, "open-search": [], "rss": ["http://cuchimes.com/comments/feed/", "http://cuchimes.com/feed/"], "media-class": "newspaper", "media-subclass": "college", "facebook": "http://www.facebook.com/pages/The-Chimes/138810764734", "website": "http://cuchimes.com/", "city-county-lat": 39.9553, "city-county-name": "Capital Univ", "twitter": "http://www.twitter.com/TheChimesNews", "name": "The Chimes", "video": ""}, {"city-county-long": -81.6084, "open-search": [], "rss": ["http://observer.case.edu/feed/", "http://observer.case.edu/feed/atom/"], "media-class": "newspaper", "media-subclass": "college", "facebook": "http://www.facebook.com/cwruobserver", "website": "http://observer.case.edu/", "city-county-lat": 41.5043, "city-county-name": "Case Western Reserve", "twitter": "http://www.twitter.com/cwruobserver", "name": "The Observer", "video": ""}, {"city-county-long": -81.6753, "open-search": [], "rss": [], "media-class": "newspaper", "media-subclass": "college", "facebook": "http://www.facebook.com/ClevelandStater", "website": "http://www.csuohio.edu/class/com/clevelandstater/", "city-county-lat": 41.5022, "city-county-name": "Cleveland St Univ", "twitter": "http://www.twitter.com/clevelandstater", "name": "The Cleveland Stater", "video": "http://www.youtube.com/user/ClevelandStater"}, {"city-county-long": -81.9336, "open-search": [], "rss": ["http://thewoostervoice.spaces.wooster.edu//?feed=rss"], "media-class": "newspaper", "media-subclass": "college", "facebook": "http://www.facebook.com/groups/181567929860/", "website": "http://thewoostervoice.spaces.wooster.edu/", "city-county-lat": 40.8111, "city-county-name": "College of Wooster", "twitter": "http://www.twitter.com/TheWoosterVoice", "name": "The Wooster Voice", "video": ""}, {"city-county-long": -81.3415, "open-search": [], "rss": ["http://www.kentwired.com/search/?f=rss&t=article&l=50&s=start_time&sd=desc&k[]=%23topstory"], "media-class": "newspaper", "media-subclass": "college", "facebook": "http://www.facebook.com/KentWired", "website": "http://kentwired.com/", "city-county-lat": 41.1491, "city-county-name": "Kent State", "twitter": "http://www.twitter.com/kentwired", "name": "Kent Wired", "video": ""}, {"city-county-long": -84.7309, "open-search": [], "rss": ["http://miamistudent.net/?feed=rss2", "http://miamistudent.net/?feed=rss2&page_id=270", "http://miamistudent.net/?feed=comments-rss2"], "media-class": "newspaper", "media-subclass": "college", "facebook": "http://www.facebook.com/pages/The-Miami-Student/192066689809", "website": "http://www.miamistudent.net/", "city-county-lat": 39.5105, "city-county-name": "Miami Univ-Oxford", "twitter": "http://www.twitter.com/miamistudent", "name": "The Miami Student", "video": "http://www.youtube.com/user/themiamistudent"}, {"city-county-long": -82.2236, "open-search": [], "rss": ["http://oberlinreview.org/feed/", "http://oberlinreview.org/feed/atom/"], "media-class": "newspaper", "media-subclass": "college", "facebook": "", "website": "http://www.oberlinreview.org", "city-county-lat": 41.2938, "city-county-name": "Oberlin College", "twitter": "http://www.twitter.com/oberlinreview", "name": "The Oberlin Review", "video": "http://www.youtube.com/user/TheOberlinReview"}, {"city-county-long": -83.0309, "open-search": [], "rss": ["http://thelantern.com/feed/", "http://thelantern.com/comments/feed/"], "media-class": "newspaper", "media-subclass": "college", "facebook": "http://www.facebook.com/TheLanternOSU", "website": "http://www.thelantern.com/", "city-county-lat": 40.0142, "city-county-name": "Ohio State", "twitter": "http://www.twitter.com/TheLantern", "name": "The Lantern", "video": "http://www.youtube.com/user/TheLanternOSU"}, {"city-county-long": -82.1014, "open-search": [], "rss": [], "media-class": "newspaper", "media-subclass": "college", "facebook": "http://www.facebook.com/ThePostAthens", "website": "http://thepost.ohiou.edu/", "city-county-lat": 39.3244, "city-county-name": "Ohio Univ", "twitter": "http://www.twitter.com/ThePost", "name": "The Post On The Web", "video": ""}, {"city-county-long": -81.5112, "open-search": [], "rss": ["http://buchtelite.com/feed/", "http://buchtelite.com/feed/atom/"], "media-class": "newspaper", "media-subclass": "college", "facebook": "http://www.facebook.com/buchtelite", "website": "http://www.buchtelite.com/", "city-county-lat": 41.0759, "city-county-name": "Univ of Akron", "twitter": "http://www.twitter.com/buchtelite", "name": "The Buchtelite", "video": ""}, {"city-county-long": -84.515, "open-search": ["http://www.newsrecord.org/search/opensearch/generic.xml"], "rss": [], "media-class": "newspaper", "media-subclass": "college", "facebook": "http://www.facebook.com/TheNewsRecord", "website": "http://www.newsrecord.org/", "city-county-lat": 39.1329, "city-county-name": "Univ of Cincinnati", "twitter": "http://www.twitter.com/NewsRecord_UC", "name": "The News Record", "video": "http://www.youtube.com/user/TheNewsRecordOnline"}, {"city-county-long": -84.179, "open-search": [], "rss": ["https://flyernews.com/feed/", "https://flyernews.com/comments/feed/"], "media-class": "newspaper", "media-subclass": "college", "facebook": "http://www.facebook.com/FlyerNews", "website": "http://www.flyernews.com/", "city-county-lat": 39.7396, "city-county-name": "Univ of Dayton", "twitter": "http://www.twitter.com/FlyerNews", "name": "Flyer News", "video": "http://www.youtube.com/user/UDaytonFlyerNews"}, {"city-county-long": -83.6126, "open-search": [], "rss": ["http://independentcollegian.com/feed/atom/", "http://independentcollegian.com/feed/"], "media-class": "newspaper", "media-subclass": "college", "facebook": "http://www.facebook.com/ICollegian", "website": "http://www.independentcollegian.com/", "city-county-lat": 41.6622, "city-county-name": "Univ of Toledo", "twitter": "http://www.twitter.com/TheICToledo", "name": "The Collegian", "video": "http://www.youtube.com/user/IndependentCollegian"}, {"city-county-long": -83.0677, "open-search": [], "rss": [], "media-class": "newspaper", "media-subclass": "college", "facebook": "http://www.facebook.com/OWU.Transcript", "website": "http://www.owutranscript.com/", "city-county-lat": 40.2987, "city-county-name": "Wesleyan Univ", "twitter": "", "name": "The Transcript", "video": ""}, {"city-county-long": -84.0636, "open-search": [], "rss": ["http://www.theguardianonline.com/feed/atom/", "http://www.theguardianonline.com/feed/", "http://www.theguardianonline.com/wp-content/plugins/leaflet-maps-marker/leaflet-georss.php?layer=all"], "media-class": "newspaper", "media-subclass": "college", "facebook": "http://www.facebook.com/theguardianonline", "website": "http://www.theguardianonline.com/", "city-county-lat": 39.7815, "city-county-name": "Wright State", "twitter": "http://www.twitter.com/wsuguardian", "name": "The Guardian", "video": "http://www.youtube.com/user/guardiannews"}, {"city-county-long": -84.474, "open-search": [], "rss": [], "media-class": "newspaper", "media-subclass": "college", "facebook": "http://www.facebook.com/pages/Xavier-Newswire/353989162499", "website": "http://www.thexunewswire.com/", "city-county-lat": 39.1491, "city-county-name": "Xavier Univ", "twitter": "http://www.twitter.com/xaviernewswire", "name": "Xavier Newswire", "video": ""}, {"city-county-long": -80.6477, "open-search": [], "rss": ["http://www.thejambar.com/feed/", "http://www.thejambar.com/comments/feed/"], "media-class": "newspaper", "media-subclass": "college", "facebook": "http://www.facebook.com/pages/The-Jambar/62157119082", "website": "http://www.thejambar.com/", "city-county-lat": 41.1063, "city-county-name": "Youngstown", "twitter": "http://www.twitter.com/thejambar", "name": "The Jambar", "video": "http://www.youtube.com/user/JambarVideo"}], "radio": [{"city-county-long": -81.51919, "open-search": [], "rss": [], "media-class": "radio", "media-subclass": "  Sports/News Radio", "facebook": "https://www.facebook.com/WAKRAkronNewsNow", "website": "http://www.akronnewsnow.com/", "city-county-lat": 41.043955, "city-county-name": "Akron", "twitter": "http://www.twitter.com/AkronNewsNow", "name": "WAKR 1590 AM", "video": ""}, {"city-county-long": -81.51919, "open-search": [], "rss": [], "media-class": "radio", "media-subclass": "  Sports/News Radio", "facebook": "https://www.facebook.com/thesummitfm", "website": "http://913thesummit.com/", "city-county-lat": 41.043955, "city-county-name": "Akron", "twitter": "http://www.twitter.com/TheSummitFM", "name": "WAPS 1590 AM", "video": ""}, {"city-county-long": -81.51919, "open-search": [], "rss": [], "media-class": "radio", "media-subclass": "  Sports/News Radio", "facebook": "https://www.facebook.com/981WKDD", "website": "http://www.wkdd.com/", "city-county-lat": 41.043955, "city-county-name": "Akron", "twitter": "http://www.twitter.com/981WKDD", "name": "WKDD 1590 AM", "video": "http://www.youtube.com/user/981WKDD"}, {"city-county-long": -81.51919, "open-search": [], "rss": [], "media-class": "radio", "media-subclass": "  Sports/News Radio", "facebook": "https://www.facebook.com/wzipfm", "website": "http://www.wzip88.com/", "city-county-lat": 41.043955, "city-county-name": "Akron", "twitter": "http://www.twitter.com/wzip", "name": "WZIP 1590 AM", "video": ""}, {"city-county-long": -81.11641, "open-search": [], "rss": [], "media-class": "radio", "media-subclass": "Jazz", "facebook": "https://www.facebook.com/UniversityofMountUnion", "website": "http://www.mountunion.edu/WRMU", "city-county-lat": 40.917908, "city-county-name": "Alliance", "twitter": "http://www.twitter.com/mountunion", "name": "WRMU 91.1 FM", "video": "http://www.youtube.com/user/WRMU"}, {"city-county-long": -80.79178, "open-search": [], "rss": ["http://www.espn970wfun.com/feed/", "http://www.espn970wfun.com/comments/feed/"], "media-class": "radio", "media-subclass": "  News Talk Sports", "facebook": "https://www.facebook.com/espn970wfun", "website": "http://www.espn970wfun.com/", "city-county-lat": 41.871212, "city-county-name": "Ashtabula", "twitter": "http://www.twitter.com/ESPN970WFUN", "name": "WFUN 970 AM", "video": ""}, {"city-county-long": -80.79178, "open-search": [], "rss": [], "media-class": "radio", "media-subclass": "  News Talk Sports", "facebook": "https://www.facebook.com/wkkyfm", "website": "http://www.wkky.com/", "city-county-lat": 41.871212, "city-county-name": "Ashtabula", "twitter": "", "name": "WKKY 970 AM", "video": ""}, {"city-county-long": -82.09728, "open-search": [], "rss": [], "media-class": "radio", "media-subclass": "  Classic Hits", "facebook": "https://www.facebook.com/WATHWXTQNews", "website": "http://www.970wath.com/", "city-county-lat": 39.322847, "city-county-name": "Athens", "twitter": "http://www.twitter.com/WATHWXTQNews", "name": "WATH 970 AM", "video": ""}, {"city-county-long": -82.09728, "open-search": [], "rss": [], "media-class": "radio", "media-subclass": "  Classic Hits", "facebook": "https://www.facebook.com/pages/WOUB-Public-Media/376137337431", "website": "http://woub.org/", "city-county-lat": 39.322847, "city-county-name": "Athens", "twitter": "http://www.twitter.com/woub", "name": "WOUB 970 AM", "video": "http://www.youtube.com/woubpbs"}, {"city-county-long": -81.17197, "open-search": [], "rss": ["http://yourradioplace.com/feed/", "http://yourradioplace.com/comments/feed/"], "media-class": "radio", "media-subclass": "Soft Hits", "facebook": "", "website": "http://www.yourradioplace.com/component/k2/itemlist/category/20", "city-county-lat": 39.989191, "city-county-name": "Barnesville", "twitter": "", "name": "WBNV 93.5 FM", "video": ""}, {"city-county-long": -84.15319, "open-search": [], "rss": [], "media-class": "radio", "media-subclass": "Variety", "facebook": "https://www.facebook.com/pages/WOBO-887-FM/205993092806654", "website": "http://www.wobofm.com/", "city-county-lat": 39.082894, "city-county-name": "Batavia", "twitter": "", "name": "WOBO 88.7 FM", "video": ""}, {"city-county-long": -83.75816, "open-search": [], "rss": [], "media-class": "radio", "media-subclass": "  Local News", "facebook": "https://www.facebook.com/pages/WPKO-WBLL-Radio/203415120504", "website": "http://www.peakofohio.com/", "city-county-lat": 40.365923, "city-county-name": "Bellefontaine", "twitter": "http://www.twitter.com/WPKO", "name": "WBLL 1390 AM", "video": ""}, {"city-county-long": -83.75816, "open-search": [], "rss": [], "media-class": "radio", "media-subclass": "  Local News", "facebook": "https://www.facebook.com/pages/WPKO-WBLL-Radio/203415120504", "website": "http://www.peakofohio.com/", "city-county-lat": 40.365923, "city-county-name": "Bellefontaine", "twitter": "http://www.twitter.com/WPKO", "name": "WPKO 1390 AM", "video": ""}, {"city-county-long": -84.55459, "open-search": [], "rss": [], "media-class": "radio", "media-subclass": "  Religion", "facebook": "", "website": "http://www.wkjh.org/", "city-county-lat": 41.471569, "city-county-name": "Bryan", "twitter": "", "name": "WKJH 103.5 FM", "video": ""}, {"city-county-long": -81.59243, "open-search": [], "rss": ["http://yourradioplace.com/feed/", "http://yourradioplace.com/comments/feed/"], "media-class": "radio", "media-subclass": "  Classic Rock", "facebook": "", "website": "http://www.yourradioplace.com/component/k2/itemlist/category/19", "city-county-lat": 40.025859, "city-county-name": "Cambridge", "twitter": "", "name": "WBIK 92.1 FM", "video": ""}, {"city-county-long": -81.59243, "open-search": [], "rss": ["http://yourradioplace.com/feed/", "http://yourradioplace.com/comments/feed/"], "media-class": "radio", "media-subclass": "  Classic Rock", "facebook": "", "website": "http://www.yourradioplace.com/component/k2/itemlist/category/21", "city-county-lat": 40.025859, "city-county-name": "Cambridge", "twitter": "", "name": "WCMJ 92.1 FM", "video": ""}, {"city-county-long": -81.59243, "open-search": [], "rss": ["http://yourradioplace.com/feed/", "http://yourradioplace.com/comments/feed/"], "media-class": "radio", "media-subclass": "  Classic Rock", "facebook": "", "website": "http://www.yourradioplace.com/component/k2/itemlist/category/22", "city-county-lat": 40.025859, "city-county-name": "Cambridge", "twitter": "", "name": "WILE 92.1 FM", "video": ""}, {"city-county-long": -81.59243, "open-search": [], "rss": ["http://yourradioplace.com/feed/", "http://yourradioplace.com/comments/feed/"], "media-class": "radio", "media-subclass": "  Classic Rock", "facebook": "", "website": "http://www.yourradioplace.com/component/k2/itemlist/category/23", "city-county-lat": 40.025859, "city-county-name": "Cambridge", "twitter": "", "name": "WWKC 92.1 FM", "video": ""}, {"city-county-long": -81.371185, "open-search": [], "rss": ["http://www.mix941.com/feed/", "http://www.mix941.com/comments/feed/"], "media-class": "radio", "media-subclass": "  Adult Contemp", "facebook": "https://www.facebook.com/MIX941Canton", "website": "http://www.mix941.com/", "city-county-lat": 40.782408, "city-county-name": "Canton", "twitter": "http://www.twitter.com/mix941canton", "name": "WHBC 94.1 FM", "video": "http://www.youtube.com/user/whbcradio"}, {"city-county-long": -81.371185, "open-search": [], "rss": ["http://www.whbc.com/comments/feed/", "http://www.whbc.com/feed/"], "media-class": "radio", "media-subclass": "  Adult Contemp", "facebook": "https://www.facebook.com/1480whbc", "website": "http://www.whbc.com/", "city-county-lat": 40.782408, "city-county-name": "Canton", "twitter": "http://www.twitter.com/1480whbc", "name": "WHBC 94.1 FM", "video": ""}, {"city-county-long": -81.371185, "open-search": [], "rss": ["http://www.whbc.com/comments/feed/", "http://www.whbc.com/feed/"], "media-class": "radio", "media-subclass": "  Adult Contemp", "facebook": "http://www.facebook.com/1480whbc", "website": "http://www.whbc.com/", "city-county-lat": 40.782408, "city-county-name": "Canton", "twitter": "http://www.twitter.com/1480whbc", "name": "WHBC 94.1 FM", "video": ""}, {"city-county-long": -81.371185, "open-search": [], "rss": [], "media-class": "radio", "media-subclass": "  Adult Contemp", "facebook": "https://www.facebook.com/Rock1069", "website": "http://www.wrqk.com/", "city-county-lat": 40.782408, "city-county-name": "Canton", "twitter": "http://www.twitter.com/WRQK1069", "name": "WRQK 94.1 FM", "video": "http://www.youtube.com/user/WRQK1069"}, {"city-county-long": -82.97228, "open-search": [], "rss": [], "media-class": "radio", "media-subclass": "News Sports", "facebook": "https://www.facebook.com/1490wbex", "website": "http://www.wbex.com/", "city-county-lat": 39.33046, "city-county-name": "Chillicothe", "twitter": "http://www.twitter.com/1490wbex", "name": "WBEX 1490 AM", "video": ""}, {"city-county-long": -82.97228, "open-search": [], "rss": [], "media-class": "radio", "media-subclass": "News Sports", "facebook": "https://www.facebook.com/wchiradio", "website": "http://www.easy1350.com/", "city-county-lat": 39.33046, "city-county-name": "Chillicothe", "twitter": "", "name": "WCHI 1490 AM", "video": ""}, {"city-county-long": -82.97228, "open-search": [], "rss": [], "media-class": "radio", "media-subclass": "News Sports", "facebook": "https://www.facebook.com/94Country", "website": "http://www.wkkj.com/", "city-county-lat": 39.33046, "city-county-name": "Chillicothe", "twitter": "http://www.twitter.com/94CountryWKKJ", "name": "WKKJ 1490 AM", "video": ""}, {"city-county-long": -84.53822, "open-search": [], "rss": ["https://mystar933.com/feed/", "https://mystar933.com/comments/feed/"], "media-class": "radio", "media-subclass": "Christian", "facebook": "https://www.facebook.com/mystar933", "website": "http://www.mystar933.com/", "city-county-lat": 39.166759, "city-county-name": "Cincinnati", "twitter": "http://www.twitter.com/mystar933", "name": "WAKW 93.3 FM", "video": ""}, {"city-county-long": -84.53822, "open-search": ["http://oldschoolcincy.com/osd.xml", "https://s1.wp.com/opensearch.xml"], "rss": [], "media-class": "radio", "media-subclass": "Christian", "facebook": "https://www.facebook.com/OldSchoolCincy", "website": "http://oldschoolcincy.com/", "city-county-lat": 39.166759, "city-county-name": "Cincinnati", "twitter": "http://www.twitter.com/OldSchoolCincy", "name": "WCFN 93.3 FM", "video": ""}, {"city-county-long": -84.53822, "open-search": [], "rss": [], "media-class": "radio", "media-subclass": "Christian", "facebook": "https://www.facebook.com/ESPN1530", "website": "http://www.espn1530.com/", "city-county-lat": 39.166759, "city-county-name": "Cincinnati", "twitter": "http://www.twitter.com/espn1530", "name": "WCKY 93.3 FM", "video": "http://www.youtube.com/user/ESPN1530"}, {"city-county-long": -84.53822, "open-search": [], "rss": [], "media-class": "radio", "media-subclass": "Christian", "facebook": "https://www.facebook.com/webn1027", "website": "http://www.webn.com/", "city-county-lat": 39.166759, "city-county-name": "Cincinnati", "twitter": "http://www.twitter.com/webn", "name": "WEBN 93.3 FM", "video": "http://www.youtube.com/user/webnvideo"}, {"city-county-long": -84.53822, "open-search": [], "rss": ["http://www.wvxu.org/podcasts/wguc_dailylog.xml"], "media-class": "radio", "media-subclass": "Christian", "facebook": "https://www.facebook.com/909wguc", "website": "http://www.wguc.org/", "city-county-lat": 39.166759, "city-county-name": "Cincinnati", "twitter": "http://www.twitter.com/909WGUC", "name": "WGUC 93.3 FM", "video": "http://www.youtube.com/user/ClassicalWGUC"}, {"city-county-long": -84.53822, "open-search": [], "rss": [], "media-class": "radio", "media-subclass": "Christian", "facebook": "https://www.facebook.com/Kiss107", "website": "http://www.kiss107.com/", "city-county-lat": 39.166759, "city-county-name": "Cincinnati", "twitter": "http://www.twitter.com/KISS107", "name": "WKFS 93.3 FM", "video": "http://www.youtube.com/user/Kiss107video"}, {"city-county-long": -84.53822, "open-search": [], "rss": [], "media-class": "radio", "media-subclass": "Christian", "facebook": "https://www.facebook.com/55krc", "website": "http://www.55krc.com/", "city-county-lat": 39.166759, "city-county-name": "Cincinnati", "twitter": "http://www.twitter.com/55KRC", "name": "WKRC 93.3 FM", "video": ""}, {"city-county-long": -84.53822, "open-search": [], "rss": [], "media-class": "radio", "media-subclass": "Christian", "facebook": "https://www.facebook.com/700wlw", "website": "http://www.700wlw.com/", "city-county-lat": 39.166759, "city-county-name": "Cincinnati", "twitter": "http://www.twitter.com/700wlw", "name": "WLW 93.3 FM", "video": ""}, {"city-county-long": -84.53822, "open-search": [], "rss": [], "media-class": "radio", "media-subclass": "Christian", "facebook": "https://www.facebook.com/pages/WMKV-893-FM/58660391325", "website": "http://www.wmkvfm.org/", "city-county-lat": 39.166759, "city-county-name": "Cincinnati", "twitter": "http://www.twitter.com/893WMKV", "name": "WMKV 93.3 FM", "video": ""}, {"city-county-long": -84.53822, "open-search": [], "rss": [], "media-class": "radio", "media-subclass": "Christian", "facebook": "https://www.facebook.com/ClassXRadio", "website": "http://classxradio.com/", "city-county-lat": 39.166759, "city-county-name": "Cincinnati", "twitter": "http://www.twitter.com/ClassXradio", "name": "WMWX 93.3 FM", "video": ""}, {"city-county-long": -84.53822, "open-search": [], "rss": ["http://www.foxcincinnati.com/comments/feed/", "http://www.foxcincinnati.com/home/feed/", "http://www.foxcincinnati.com/feed/"], "media-class": "radio", "media-subclass": "Christian", "facebook": "https://www.facebook.com/thefox925", "website": "http://www.foxcincinnati.com/", "city-county-lat": 39.166759, "city-county-name": "Cincinnati", "twitter": "http://www.twitter.com/thefoxradio925", "name": "WOFX 93.3 FM", "video": ""}, {"city-county-long": -84.53822, "open-search": [], "rss": ["http://www.949cincinnati.com/comments/feed/", "http://www.949cincinnati.com/feed/"], "media-class": "radio", "media-subclass": "Christian", "facebook": "https://www.facebook.com/949Cincinnati", "website": "http://www.949cincinnati.com/", "city-county-lat": 39.166759, "city-county-name": "Cincinnati", "twitter": "http://www.twitter.com/949cincinnati", "name": "WREW 93.3 FM", "video": ""}, {"city-county-long": -84.53822, "open-search": [], "rss": ["http://www.warm98.com/comments/feed/", "http://www.warm98.com/home/feed/", "http://www.warm98.com/feed/"], "media-class": "radio", "media-subclass": "Christian", "facebook": "https://www.facebook.com/warm98", "website": "http://www.warm98.com/", "city-county-lat": 39.166759, "city-county-name": "Cincinnati", "twitter": "http://www.twitter.com/TodaysWarm98", "name": "WRRM 93.3 FM", "video": ""}, {"city-county-long": -84.53822, "open-search": [], "rss": [], "media-class": "radio", "media-subclass": "Christian", "facebook": "https://www.facebook.com/foxsports1360", "website": "http://www.foxsports1360.com/", "city-county-lat": 39.166759, "city-county-name": "Cincinnati", "twitter": "http://www.twitter.com/FoxSports1360", "name": "WSAI 93.3 FM", "video": ""}, {"city-county-long": -84.53822, "open-search": [], "rss": ["http://theworldwidewolf.com/comments/feed/", "http://theworldwidewolf.com/feed/"], "media-class": "radio", "media-subclass": "Christian", "facebook": "https://www.facebook.com/973TheWolf", "website": "http://theworldwidewolf.com/", "city-county-lat": 39.166759, "city-county-name": "Cincinnati", "twitter": "http://www.twitter.com/973TheWolf", "name": "WYGY 93.3 FM", "video": ""}, {"city-county-long": -81.599648, "open-search": [], "rss": [], "media-class": "radio", "media-subclass": "Top 40", "facebook": "https://www.facebook.com/965KissFM", "website": "http://www.kisscleveland.com/", "city-county-lat": 41.523401, "city-county-name": "Cleveland", "twitter": "http://www.twitter.com/965KissFM", "name": "WAKS 96.5 FM", "video": "http://www.youtube.com/user/965kissvideos"}, {"city-county-long": -81.599648, "open-search": [], "rss": [], "media-class": "radio", "media-subclass": "Top 40", "facebook": "https://www.facebook.com/WCLV1049", "website": "http://wclv.org/", "city-county-lat": 41.523401, "city-county-name": "Cleveland", "twitter": "", "name": "WCLV 96.5 FM", "video": ""}, {"city-county-long": -81.599648, "open-search": [], "rss": [], "media-class": "radio", "media-subclass": "Top 40", "facebook": "https://www.facebook.com/WCLV1049", "website": "http://wclv.org/", "city-county-lat": 41.523401, "city-county-name": "Cleveland", "twitter": "http://www.twitter.com/Queenofthemorn", "name": "WCLV 96.5 FM", "video": ""}, {"city-county-long": -81.599648, "open-search": [], "rss": [], "media-class": "radio", "media-subclass": "Top 40", "facebook": "https://www.facebook.com/903wcpn", "website": "http://wcpn.org/", "city-county-lat": 41.523401, "city-county-name": "Cleveland", "twitter": "http://www.twitter.com/WCPN", "name": "WCPN 96.5 FM", "video": "http://www.youtube.com/user/903WCPN"}, {"city-county-long": -81.599648, "open-search": [], "rss": [], "media-class": "radio", "media-subclass": "Top 40", "facebook": "https://www.facebook.com/WCSB89.3fm", "website": "http://wcsb.org/", "city-county-lat": 41.523401, "city-county-name": "Cleveland", "twitter": "", "name": "WCSB 96.5 FM", "video": ""}, {"city-county-long": -81.599648, "open-search": ["http://star102cleveland.cbslocal.com/osd.xml", "https://s1.wp.com/opensearch.xml"], "rss": ["http://star102cleveland.cbslocal.com/home-section/feed/", "http://star102cleveland.cbslocal.com/comments/feed/", "http://star102cleveland.cbslocal.com/feed/"], "media-class": "radio", "media-subclass": "Top 40", "facebook": "https://www.facebook.com/new102", "website": "http://new102.cbslocal.com/", "city-county-lat": 41.523401, "city-county-name": "Cleveland", "twitter": "http://www.twitter.com/New102Cleveland", "name": "WDOK 96.5 FM", "video": ""}, {"city-county-long": -81.599648, "open-search": [], "rss": [], "media-class": "radio", "media-subclass": "Top 40", "facebook": "https://www.facebook.com/955thefish", "website": "http://www.955thefish.com/", "city-county-lat": 41.523401, "city-county-name": "Cleveland", "twitter": "http://www.twitter.com/fishcleveland", "name": "WFHM 96.5 FM", "video": ""}, {"city-county-long": -81.599648, "open-search": [], "rss": [], "media-class": "radio", "media-subclass": "Top 40", "facebook": "https://www.facebook.com/995wgar", "website": "http://www.wgar.com/", "city-county-lat": 41.523401, "city-county-name": "Cleveland", "twitter": "http://www.twitter.com/995wgar", "name": "WGAR 96.5 FM", "video": "http://www.youtube.com/user/wgarvideos"},