{"newspaper": [{"city-county-long": -158.07448, "open-search": [], "rss": [], "media-class": "newspaper", "media-subclass": "city-county", "facebook": "", "website": "http://www.northshorenews.com/", "city-county-lat": 21.630633, "city-county-name": "Haleiwa", "twitter": "", "name": "North Shore News", "video": ""}, {"city-county-long": -155.09842, "open-search": [], "rss": ["http://hawaiitribune-herald.com/rss.xml"], "media-class": "newspaper", "media-subclass": "city-county", "facebook": "https://www.facebook.com/hawaiitribuneherald", "website": "http://hawaiitribune-herald.com/", "city-county-lat": 19.713562, "city-county-name": "Hilo", "twitter": "http://www.twitter.com/HITribuneHerald", "name": "Hawaii Tribune-Herald", "video": ""}, {"city-county-long": -168.021815, "open-search": [], "rss": ["http://thehawaiiherald.com/feed/", "http://thehawaiiherald.com/comments/feed/", "http://thehawaiiherald.com/td_d_slug_1/feed/"], "media-class": "newspaper", "media-subclass": "city-county", "facebook": "", "website": "http://thehawaiiherald.com/", "city-county-lat": 24.859832, "city-county-name": "Honolulu", "twitter": "http://www.twitter.com/thehawaiiherald", "name": "Hawaii Herald", "video": ""}, {"city-county-long": -168.021815, "open-search": [], "rss": ["http://www.hawaiireporter.com/home/feed", "http://www.hawaiireporter.com/comments/feed", "http://www.hawaiireporter.com/feed"], "media-class": "newspaper", "media-subclass": "city-county", "facebook": "https://www.facebook.com/hawaiireporter", "website": "http://www.hawaiireporter.com", "city-county-lat": 24.859832, "city-county-name": "Honolulu", "twitter": "http://www.twitter.com/hawaiireporter", "name": "Hawaii Reporter.com", "video": "http://www.youtube.com/user/HawaiiReporter"}, {"city-county-long": -168.021815, "open-search": [], "rss": ["http://www.hawaiistar.com/feed/"], "media-class": "newspaper", "media-subclass": "city-county", "facebook": "https://www.facebook.com/hawaiinews", "website": "http://www.hawaiistar.com/", "city-county-lat": 24.859832, "city-county-name": "Honolulu", "twitter": "http://www.twitter.com/hawaiistar", "name": "HawaiiStar.com", "video": ""}, {"city-county-long": -168.021815, "open-search": [], "rss": [], "media-class": "newspaper", "media-subclass": "city-county", "facebook": "https://www.facebook.com/civilbeat", "website": "http://www.civilbeat.com/", "city-county-lat": 24.859832, "city-county-name": "Honolulu", "twitter": "http://www.twitter.com/civilbeat", "name": "Honolulu Civil Beat", "video": "http://www.youtube.com/user/civilbeat"}, {"city-county-long": -168.021815, "open-search": [], "rss": ["http://www.staradvertiser.com/feed/", "http://www.staradvertiser.com/comments/feed/"], "media-class": "newspaper", "media-subclass": "city-county", "facebook": "https://www.facebook.com/staradvertiser", "website": "http://www.staradvertiser.com/", "city-county-lat": 24.859832, "city-county-name": "Honolulu", "twitter": "http://www.twitter.com/staradvertiser", "name": "Honolulu Star Advertiser", "video": "http://www.youtube.com/user/StarAdvertiser"}, {"city-county-long": -168.021815, "open-search": [], "rss": ["http://www.midweek.com/comments/feed/", "http://www.midweek.com/feed/"], "media-class": "newspaper", "media-subclass": "city-county", "facebook": "https://www.facebook.com/MidWeekHawaii", "website": "http://www.midweek.com/", "city-county-lat": 24.859832, "city-county-name": "Honolulu", "twitter": "http://www.twitter.com/midweekhawaii", "name": "MidWeek", "video": ""}, {"city-county-long": -168.021815, "open-search": [], "rss": [], "media-class": "newspaper", "media-subclass": "city-county", "facebook": "https://www.facebook.com/pages/Pacific-Business-News/392905870630", "website": "http://www.bizjournals.com/pacific/", "city-county-lat": 24.859832, "city-county-name": "Honolulu", "twitter": "http://www.twitter.com/pacificbiznews", "name": "Pacific Business News", "video": ""}, {"city-county-long": -157.74529, "open-search": [], "rss": ["http://westhawaiitoday.com/rss.xml"], "media-class": "newspaper", "media-subclass": "city-county", "facebook": "https://www.facebook.com/westhawaiitoday", "website": "http://westhawaiitoday.com/", "city-county-lat": 21.3949, "city-county-name": "Kailua", "twitter": "http://www.twitter.com/westhawaiitoday", "name": "West Hawaii Today", "video": "https://www.youtube.com/user/westhawaiitoday"}, {"city-county-long": -155.69999, "open-search": [], "rss": ["http://www.northhawaiinews.com/comments/feed/", "http://www.northhawaiinews.com/feed/"], "media-class": "newspaper", "media-subclass": "city-county", "facebook": "", "website": "http://northhawaiinews.com/", "city-county-lat": 20.040191, "city-county-name": "Kamuela", "twitter": "", "name": "North Hawaii News", "video": ""}, {"city-county-long": -158.08587, "open-search": [], "rss": ["http://thevoiceofkapolei.com/comments/feed/", "http://thevoiceofkapolei.com/news/feed/", "http://thevoiceofkapolei.com/feed/"], "media-class": "newspaper", "media-subclass": "city-county", "facebook": "", "website": "http://thevoiceofkapolei.com/", "city-county-lat": 21.345535, "city-county-name": "Kapolei", "twitter": "", "name": "Voice of Kapolei", "video": ""}, {"city-county-long": -156.9741, "open-search": [], "rss": [], "media-class": "newspaper", "media-subclass": "city-county", "facebook": "https://www.facebook.com/molokai.advertisernews", "website": "http://www.molokaiadvertiser-news.com/", "city-county-lat": 21.111246, "city-county-name": "Kaunakakai", "twitter": "", "name": "Molokai Advertiser-News", "video": ""}, {"city-county-long": -156.65765, "open-search": [], "rss": [], "media-class": "newspaper", "media-subclass": "city-county", "facebook": "", "website": "http://www.lahainanews.com/", "city-county-lat": 20.913335, "city-county-name": "Lahaina", "twitter": "", "name": "Lahaina News", "video": ""}, {"city-county-long": -159.37746, "open-search": ["http://thegardenisland.com/search/opensearch/generic.xml"], "rss": [], "media-class": "newspaper", "media-subclass": "city-county", "facebook": "https://www.facebook.com/TheGardenIsland", "website": "http://thegardenisland.com/", "city-county-lat": 21.98081, "city-county-name": "Lihue", "twitter": "http://www.twitter.com/thegardenisland", "name": "Garden Island", "video": "http://www.youtube.com/user/TheGardenIslandNews"}, {"city-county-long": -156.50497, "open-search": [], "rss": [], "media-class": "newspaper", "media-subclass": "city-county", "facebook": "https://www.facebook.com/MauiNews", "website": "http://www.mauinews.com/", "city-county-lat": 20.889294, "city-county-name": "Wailuku", "twitter": "http://www.twitter.com/TheMauiNewsHI", "name": "Maui News", "video": "http://www.youtube.com/user/TheMauiNews"}, {"city-county-long": -157.9254, "open-search": [], "rss": [], "media-class": "newspaper", "media-subclass": "college", "facebook": "https://www.facebook.com/people/Ke-Alakai/538770768", "website": "http://kealakai.byuh.edu/", "city-county-lat": 21.6418, "city-county-name": "Brigham Young Hawaii", "twitter": "http://www.twitter.com/kealakainews", "name": "Ke Alakai", "video": "https://www.youtube.com/user/KeAlakaiNews/videos"}, {"city-county-long": -157.819, "open-search": ["http://www.kaleo.org/search/opensearch/generic.xml"], "rss": [], "media-class": "newspaper", "media-subclass": "college", "facebook": "https://www.facebook.com/KaLeoOHawaii", "website": "http://www.kaleo.org/", "city-county-lat": 21.3, "city-county-name": "Hawaii-Manona", "twitter": "http://www.twitter.com/KaLeoOHawaii", "name": "Ka Leo O Hawaii", "video": "https://www.youtube.com/user/KaLeoOHawaii/videos"}], "radio": [{"city-county-long": -159.4896, "open-search": [], "rss": [], "media-class": "radio", "media-subclass": "Community Radio", "facebook": "https://www.facebook.com/KKCRKauaiCommunityRadio", "website": "http://www.kkcr.org/", "city-county-lat": 22.208401, "city-county-name": "Hanalei", "twitter": "", "name": "KKCR 90.9 FM", "video": ""}, {"city-county-long": -155.09842, "open-search": [], "rss": ["http://kaparadio.com/feed/", "http://kaparadio.com/comments/feed/"], "media-class": "radio", "media-subclass": "Hawaiian Music", "facebook": "https://www.facebook.com/pages/Kapa-Radio/129803473938", "website": "http://www.kaparadio.com/", "city-county-lat": 19.713562, "city-county-name": "Hilo", "twitter": "", "name": "KAPA 100.3 FM", "video": ""}, {"city-county-long": -155.09842, "open-search": [], "rss": [], "media-class": "radio", "media-subclass": "Hawaiian Music", "facebook": "https://www.facebook.com/KBIGfm", "website": "http://www.kbigfm.com/", "city-county-lat": 19.713562, "city-county-name": "Hilo", "twitter": "", "name": "KKBG 100.3 FM", "video": "http://www.youtube.com/user/kbigfm"}, {"city-county-long": -168.021815, "open-search": [], "rss": [], "media-class": "radio", "media-subclass": "Christian", "facebook": "https://www.facebook.com/TheFishHawaii", "website": "http://www.thefishhawaii.com/", "city-county-lat": 24.859832, "city-county-name": "Honolulu", "twitter": "http://www.twitter.com/thefishhawaii", "name": "KAIM 95.5 FM", "video": ""}, {"city-county-long": -168.021815, "open-search": [], "rss": ["http://www.kccnfm100.com/feed/", "http://www.kccnfm100.com/comments/feed/"], "media-class": "radio", "media-subclass": "Christian", "facebook": "https://www.facebook.com/kccnfm100", "website": "http://www.kccnfm100.com/", "city-county-lat": 24.859832, "city-county-name": "Honolulu", "twitter": "http://www.twitter.com/kccnfm100", "name": "KCCN 95.5 FM", "video": ""}, {"city-county-long": -168.021815, "open-search": [], "rss": [], "media-class": "radio", "media-subclass": "Christian", "facebook": "https://www.facebook.com/island985hawaii", "website": "http://www.island985.com/", "city-county-lat": 24.859832, "city-county-name": "Honolulu", "twitter": "http://www.twitter.com/island985fm", "name": "KDNN 95.5 FM", "video": ""}, {"city-county-long": -168.021815, "open-search": [], "rss": [], "media-class": "radio", "media-subclass": "Christian", "facebook": "https://www.facebook.com/939jamz", "website": "http://www.939jamz.com/", "city-county-lat": 24.859832, "city-county-name": "Honolulu", "twitter": "http://www.twitter.com/939jamz", "name": "KHJZ 95.5 FM", "video": ""}, {"city-county-long": -168.021815, "open-search": [], "rss": ["http://www.hawaiian105.com/feed/", "http://www.hawaiian105.com/comments/feed/"], "media-class": "radio", "media-subclass": "Christian", "facebook": "https://www.facebook.com/hawaiian105kine", "website": "http://www.hawaiian105.com/", "city-county-lat": 24.859832, "city-county-name": "Honolulu", "twitter": "http://www.twitter.com/hawaiian105kine", "name": "KINE 95.5 FM", "video": ""}, {"city-county-long": -168.021815, "open-search": [], "rss": ["http://hawaiipublicradio.org/rss.xml"], "media-class": "radio", "media-subclass": "Christian", "facebook": "https://www.facebook.com/hawaiipublicradio", "website": "http://www.hawaiipublicradio.org/", "city-county-lat": 24.859832, "city-county-name": "Honolulu", "twitter": "http://www.twitter.com/hipubradio", "name": "KIPO 95.5 FM", "video": ""}, {"city-county-long": -168.021815, "open-search": [], "rss": [], "media-class": "radio", "media-subclass": "Christian", "facebook": "https://www.facebook.com/1079KOOLGOLD", "website": "http://www.1079koolgold.com/", "city-county-lat": 24.859832, "city-county-name": "Honolulu", "twitter": "", "name": "KKOL 95.5 FM", "video": ""}, {"city-county-long": -168.021815, "open-search": [], "rss": ["http://www.power1043.com/comments/feed/", "http://www.power1043.com/feed/"], "media-class": "radio", "media-subclass": "Christian", "facebook": "https://www.facebook.com/power1043", "website": "http://www.power1043.com/", "city-county-lat": 24.859832, "city-county-name": "Honolulu", "twitter": "http://www.twitter.com/power1043", "name": "KPHW 95.5 FM", "video": ""}, {"city-county-long": -168.021815, "open-search": [], "rss": ["http://www.krater963.com/feed/", "http://www.krater963.com/comments/feed/"], "media-class": "radio", "media-subclass": "Christian", "facebook": "https://www.facebook.com/krater96", "website": "http://www.krater963.com/", "city-county-lat": 24.859832, "city-county-name": "Honolulu", "twitter": "", "name": "KRTR 95.5 FM", "video": ""}, {"city-county-long": -168.021815, "open-search": [], "rss": [], "media-class": "radio", "media-subclass": "Christian", "facebook": "https://www.facebook.com/ksskradio", "website": "http://www.ksskradio.com/", "city-county-lat": 24.859832, "city-county-name": "Honolulu", "twitter": "http://www.twitter.com/KSSKhawaii", "name": "KSSK 95.5 FM", "video": ""}, {"city-county-long": -168.021815, "open-search": [], "rss": ["http://ktuh.org/feed/", "http://ktuh.org/comments/feed/"], "media-class": "radio", "media-subclass": "Christian", "facebook": "http://www.facebook.com/ktuh.honolulu", "website": "http://ktuh.org/", "city-county-lat": 24.859832, "city-county-name": "Honolulu", "twitter": "http://www.twitter.com/KTUH", "name": "KTUH 95.5 FM", "video": ""}, {"city-county-long": -168.021815, "open-search": [], "rss": [], "media-class": "radio", "media-subclass": "Christian", "facebook": "http://www.facebook.com/star1019", "website": "http://www.star1019.com/", "city-county-lat": 24.859832, "city-county-name": "Honolulu", "twitter": "http://www.twitter.com/Star1019Hawaii", "name": "KUCD 95.5 FM", "video": ""}, {"city-county-long": -168.021815, "open-search": [], "rss": [], "media-class": "radio", "media-subclass": "Christian", "facebook": "https://www.facebook.com/star1019", "website": "http://www.star1019.com/", "city-county-lat": 24.859832, "city-county-name": "Honolulu", "twitter": "http://www.twitter.com/Star1019Hawaii", "name": "KUCD 95.5 FM", "video": ""}, {"city-county-long": -156.46579, "open-search": [], "rss": ["http://kpoa.com/feed/", "http://kpoa.com/comments/feed/"], "media-class": "radio", "media-subclass": "  Contemp Hawaiian", "facebook": "http://www.facebook.com/KPOA93.5FM", "website": "http://www.kpoa.com/", "city-county-lat": 20.883951, "city-county-name": "Kahului", "twitter": "", "name": "KPOA 93.5 FM", "video": ""}, {"city-county-long": -159.37746, "open-search": [], "rss": ["http://kongradio.com/feed/", "http://kongradio.com/comments/feed/"], "media-class": "radio", "media-subclass": "  Top40", "facebook": "http://www.facebook.com/pages/Kauais-Kong-Radio-FM-935/289139641284", "website": "http://www.kongradio.com/", "city-county-lat": 21.98081, "city-county-name": "Lihue", "twitter": "http://www.twitter.com/KongRadio935", "name": "KQNG 93.5 FM", "video": ""}], "state-name": "Hawaii_HI", "tv": [{"city-county-long": -155.09842, "open-search": [], "rss": [], "media-class": "tv", "media-subclass": "", "facebook": "https://www.facebook.com/HawaiiNewsNow", "website": "http://www.hawaiinewsnow.com/", "city-county-lat": 19.713562, "city-county-name": "Hilo", "twitter": "http://www.twitter.com/hawaiinewsnow", "name": "KGMB", "video": "http://www.youtube.com/user/HawaiiNewsNow"}, {"city-county-long": -168.021815, "open-search": [], "rss": ["http://www.klife.tv/index.php?module=rss&act=rss", "http://www.klife.tv/index.php?module=rss&act=atom"], "media-class": "tv", "media-subclass": "", "facebook": "", "website": "http://www.kbfd.com/", "city-county-lat": 24.859832, "city-county-name": "Honolulu", "twitter": "", "name": "KBFD", "video": "https://www.youtube.com/channel/UCrHU0Q6fd9UkEVN0MeAe5yw"}, {"city-county-long": -168.021815, "open-search": [], "rss": [], "media-class": "tv", "media-subclass": "", "facebook": "https://www.facebook.com/HawaiiNewsNow", "website": "http://www.hawaiinewsnow.com/", "city-county-lat": 24.859832, "city-county-name": "Honolulu", "twitter": "http://www.twitter.com/hawaiinewsnow", "name": "KGMB", "video": "http://www.youtube.com/user/HawaiiNewsNow"}, {"city-county-long": -168.021815, "open-search": [], "rss": [], "media-class": "tv", "media-subclass": "", "facebook": "https://www.facebook.com/HawaiiNewsNow", "website": "http://www.hawaiinewsnow.com/", "city-county-lat": 24.859832, "city-county-name": "Honolulu", "twitter": "http://www.twitter.com/hawaiinewsnow", "name": "KHNL", "video": "http://www.youtube.com/user/HawaiiNewsNow"}, {"city-county-long": -168.021815, "open-search": ["http://khon2.com/osd.xml", "https://s1.wp.com/opensearch.xml"], "rss": ["http://khon2.com/feed/", "http://khon2.com/comments/feed/"], "media-class": "tv", "media-subclass": "", "facebook": "https://www.facebook.com/khon2news", "website": "http://khon2.com/", "city-county-lat": 24.859832, "city-county-name": "Honolulu", "twitter": "http://www.twitter.com/khonnews", "name": "KHON", "video": "http://www.youtube.com/user/KHONNewsHawaii"}, {"city-county-long": -168.021815, "open-search": [], "rss": ["http://kikutv.com/feed/", "http://kikutv.com/comments/feed/"], "media-class": "tv", "media-subclass": "", "facebook": "https://www.facebook.com/kikutv", "website": "http://kikutv.com/", "city-county-lat": 24.859832, "city-county-name": "Honolulu", "twitter": "", "name": "KIKU", "video": ""}, {"city-county-long": -168.021815, "open-search": [], "rss": [], "media-class": "tv", "media-subclass": "", "facebook": "https://www.facebook.com/KITV4", "website": "http://www.kitv.com/", "city-county-lat": 24.859832, "city-county-name": "Honolulu", "twitter": "http://www.twitter.com/kitv4", "name": "KITV", "video": "http://www.youtube.com/user/kitvtv"}]}