{"newspaper": [{"city-county-long": -82.48872, "open-search": ["http://www.alachuatoday.com/component/search/?format=opensearch"], "rss": ["/?format=feed&type=rss", "/?format=feed&type=atom"], "media-class": "newspaper", "media-subclass": "city-county", "facebook": "https://www.facebook.com/ACTNEWS", "website": "http://www.alachuatoday.com", "city-county-lat": 29.801949, "city-county-name": "Alachua", "twitter": "", "name": "Alachua Today", "video": "http://www.youtube.com/user/AlachuaCountyToday"}, {"city-county-long": -82.73594, "open-search": [], "rss": [], "media-class": "newspaper", "media-subclass": "city-county", "facebook": "https://www.facebook.com/AnnaMariaIslandSun", "website": "http://www.amisun.com/", "city-county-lat": 27.530644, "city-county-name": "Anna Maria", "twitter": "", "name": "Anna Maria Island Sun", "video": "https://www.youtube.com/user/amisunnewspaper"}, {"city-county-long": -85.02704, "open-search": [], "rss": [], "media-class": "newspaper", "media-subclass": "city-county", "facebook": "https://www.facebook.com/Apalachtimes", "website": "http://www.apalachtimes.com/", "city-county-lat": 29.71877, "city-county-name": "Apalachicola", "twitter": "http://www.twitter.com/ApalachTimes", "name": "Apalachicola Times", "video": ""}, {"city-county-long": -81.50319, "open-search": [], "rss": ["http://theapopkachief.com/feed/", "http://theapopkachief.com/comments/feed/"], "media-class": "newspaper", "media-subclass": "city-county", "facebook": "https://www.facebook.com/pages/The-Apopka-Chief/107245672666452", "website": "http://www.theapopkachief.com/", "city-county-lat": 28.658395, "city-county-name": "Apopka", "twitter": "", "name": "Apopka Chief", "video": ""}, {"city-county-long": -80.1392, "open-search": [], "rss": ["http://communitynewspapers.com/feed/", "http://communitynewspapers.com/comments/feed/", "http://communitynewspapers.com/category/aventura/feed/"], "media-class": "newspaper", "media-subclass": "city-county", "facebook": "https://www.facebook.com/Communitynewspapers", "website": "http://www.communitynewspapers.com/aventura/", "city-county-lat": 25.9565, "city-county-name": "Aventura", "twitter": "http://www.twitter.com/communitypapers", "name": "Aventura News", "video": "https://www.youtube.com/user/communitynewspapers"}, {"city-county-long": -80.1392, "open-search": [], "rss": [], "media-class": "newspaper", "media-subclass": "city-county", "facebook": "https://www.facebook.com/pages/Tidbits-of-Greater-Fort-Lauderdale/110207265672205", "website": "http://www.tidbitsflorida.com/", "city-county-lat": 25.9565, "city-county-name": "Aventura", "twitter": "", "name": "Tidbits", "video": ""}, {"city-county-long": -81.82638, "open-search": [], "rss": [], "media-class": "newspaper", "media-subclass": "city-county", "facebook": "", "website": "http://www.polkcountydemocrat.com/", "city-county-lat": 27.894991, "city-county-name": "Bartow", "twitter": "", "name": "Polk County Democrat", "video": ""}, {"city-county-long": -82.8062, "open-search": [], "rss": [], "media-class": "newspaper", "media-subclass": "city-county", "facebook": "https://www.facebook.com/pages/wwwTBNweeklycom/143549281933", "website": "http://www.tbnweekly.com/pubs/belleair_bee/", "city-county-lat": 27.9359, "city-county-name": "Belleair", "twitter": "http://www.twitter.com/tbnwebmaster", "name": "Belleair Bee", "video": ""}, {"city-county-long": -82.04255, "open-search": [], "rss": [], "media-class": "newspaper", "media-subclass": "city-county", "facebook": "", "website": "http://www.smcitizen.com/", "city-county-lat": 29.054976, "city-county-name": "Belleview", "twitter": "", "name": "South Marion Citizen", "video": ""}, {"city-county-long": -82.04255, "open-search": [], "rss": [], "media-class": "newspaper", "media-subclass": "city-county", "facebook": "https://www.facebook.com/pages/Voice-of-South-Marion/100495080011030", "website": "http://www.thevosm.net/", "city-county-lat": 29.054976, "city-county-name": "Belleview", "twitter": "", "name": "Voice of South Marion", "video": ""}, {"city-county-long": -85.07299, "open-search": [], "rss": ["http://www.thecountyrecord.net/feeds/index.rss2"], "media-class": "newspaper", "media-subclass": "city-county", "facebook": "https://www.facebook.com/pages/The-County-Record/10150140462135506", "website": "http://www.thecountyrecord.net", "city-county-lat": 30.42007, "city-county-name": "Blountstown", "twitter": "", "name": "County Record", "video": ""}, {"city-county-long": -82.26351, "open-search": [], "rss": ["http://bocabeacon.com/feed/", "http://bocabeacon.com/comments/feed/"], "media-class": "newspaper", "media-subclass": "city-county", "facebook": "https://www.facebook.com/bocabeacon", "website": "http://www.bocabeacon.com/", "city-county-lat": 26.759514, "city-county-name": "Boca Grande", "twitter": "http://www.twitter.com/BocaBeacon", "name": "Boca Beacon", "video": ""}, {"city-county-long": -80.10717, "open-search": [], "rss": ["http://delraynewspaper.com/feed"], "media-class": "newspaper", "media-subclass": "city-county", "facebook": "https://www.facebook.com/delraypineapple", "website": "http://pineapplenewspaper.com/", "city-county-lat": 26.375954, "city-county-name": "Boca Raton", "twitter": "", "name": "Boca Raton Pineapple", "video": ""}, {"city-county-long": -80.10717, "open-search": [], "rss": [], "media-class": "newspaper", "media-subclass": "city-county", "facebook": "https://www.facebook.com/HappyHerald", "website": "http://www.happyherald.com/", "city-county-lat": 26.375954, "city-county-name": "Boca Raton", "twitter": "http://www.twitter.com/HappyHeraldNews", "name": "Happy Herald", "video": "http://www.youtube.com/user/happyheraldnews"}, {"city-county-long": -80.10717, "open-search": [], "rss": ["http://www.bocaratontribune.com/feed/"], "media-class": "newspaper", "media-subclass": "city-county", "facebook": "https://www.facebook.com/BocaRatonTribune", "website": "http://www.bocaratontribune.com/", "city-county-lat": 26.375954, "city-county-name": "Boca Raton", "twitter": "http://www.twitter.com/bocatribune", "name": "Tribune", "video": "http://www.youtube.com/bocaratontribunetv"}, {"city-county-long": -82.14112, "open-search": [], "rss": [], "media-class": "newspaper", "media-subclass": "city-county", "facebook": "https://www.facebook.com/pages/Pine-Island-Eagle-Bokeelia-FL/120751671276913", "website": "http://www.pineisland-eagle.com/", "city-county-lat": 26.6636, "city-county-name": "Bokeelia", "twitter": "", "name": "Pine Island Eagle", "video": ""}, {"city-county-long": -85.67495, "open-search": [], "rss": [], "media-class": "newspaper", "media-subclass": "city-county", "facebook": "https://www.facebook.com/pages/Washington-County-NewsHolmes-County-Advertiser/109405362449641", "website": "http://www.chipleypaper.com/", "city-county-lat": 30.838337, "city-county-name": "Bonifay", "twitter": "http://www.twitter.com/wcn_hct", "name": "Holmes County Times Advertiser", "video": ""}, {"city-county-long": -81.94861, "open-search": [], "rss": [], "media-class": "newspaper", "media-subclass": "city-county", "facebook": "https://www.facebook.com/bannernews", "website": "http://www.naplesnews.com/community/banner/", "city-county-lat": 26.552895, "city-county-name": "Bonita Springs", "twitter": "", "name": "Banner", "video": ""}, {"city-county-long": -81.4718, "open-search": [], "rss": ["http://caloosabelle.com/feed/", "http://caloosabelle.com/feed/atom/"], "media-class": "newspaper", "media-subclass": "city-county", "facebook": "https://www.facebook.com/Caloosa-Belle-191025554246346/", "website": "http://caloosabelle.com/", "city-county-lat": 26.7753, "city-county-name": "LaBelle", "twitter": "https://twitter.com/CaloosaBelle1", "name": "Caloosa Belle", "video": ""}, {"city-county-long": -81.94861, "open-search": [], "rss": [], "media-class": "newspaper", "media-subclass": "city-county", "facebook": "https://www.facebook.com/naplesnews", "website": "http://www.naplesnews.com/news/local", "city-county-lat": 26.552895, "city-county-name": "Bonita Springs", "twitter": "http://www.twitter.com/ndn", "name": "Bonita Daily News", "video": "http://www.youtube.com/user/NaplesDailyNews"}, {"city-county-long": -82.47104, "open-search": [], "rss": ["http://www.bradenton.com/?widgetName=rssfeed&widgetContentId=31725402&getXmlFeed=true"], "media-class": "newspaper", "media-subclass": "city-county", "facebook": "https://www.facebook.com/BradentonHeraldNews", "website": "http://www.bradenton.com/", "city-county-lat": 27.400627, "city-county-name": "Bradenton", "twitter": "http://www.twitter.com/bradentonherald", "name": "Bradenton Herald", "video": "http://www.youtube.com/user/bradentonHerald"}, {"city-county-long": -82.315058, "open-search": [], "rss": [], "media-class": "newspaper", "media-subclass": "city-county", "facebook": "https://www.facebook.com/tbocom", "website": "http://tbo.com/brandon/", "city-county-lat": 27.929731, "city-county-name": "Brandon", "twitter": "http://www.twitter.com/TBOcom", "name": "Brandon News", "video": "http://www.youtube.com/channel/UC1iOXwOqVa9n7bEuWveVlXw"}, {"city-county-long": -82.315058, "open-search": [], "rss": ["http://www.ospreyobserver.com/feed/", "http://www.ospreyobserver.com/comments/feed/"], "media-class": "newspaper", "media-subclass": "city-county", "facebook": "https://www.facebook.com/OspreyObserverFans", "website": "http://www.ospreyobserver.com/", "city-county-lat": 27.929731, "city-county-name": "Brandon", "twitter": "http://www.twitter.com/OspreyObserver", "name": "Osprey Observer", "video": "http://www.youtube.com/channel/UCb0QdT_0kRbllttDQ8-De5Q"}, {"city-county-long": -84.97668, "open-search": [], "rss": ["http://www.cljnews.com/feed"], "media-class": "newspaper", "media-subclass": "city-county", "facebook": "https://www.facebook.com/CLJNews", "website": "http://www.cljnews.com/", "city-county-lat": 30.36007, "city-county-name": "Bristol", "twitter": "", "name": "Calhoun-Liberty Journal", "video": ""}, {"city-county-long": -82.60452, "open-search": [], "rss": [], "media-class": "newspaper", "media-subclass": "city-county", "facebook": "https://www.facebook.com/pages/The-Levy-County-Journal/170585672992448", "website": "http://levyjournalonline.com/", "city-county-lat": 29.447069, "city-county-name": "Bronson", "twitter": "", "name": "Levy County Journal", "video": ""}, {"city-county-long": -82.38002, "open-search": [], "rss": [], "media-class": "newspaper", "media-subclass": "city-county", "facebook": "https://www.facebook.com/tbocom", "website": "http://tbo.com/hernando/", "city-county-lat": 28.566183, "city-county-name": "Brooksville", "twitter": "http://www.twitter.com/tbocom", "name": "Hernando News", "video": ""}, {"city-county-long": -82.14042, "open-search": [], "rss": [], "media-class": "newspaper", "media-subclass": "city-county", "facebook": "https://www.facebook.com/sumtercountytimes", "website": "http://www.sumtercountytimes.com/", "city-county-lat": 28.663132, "city-county-name": "Bushnell", "twitter": "", "name": "Sumter County Times", "video": ""}, {"city-county-long": -81.84051, "open-search": [], "rss": ["http://www.nassaucountyrecord.com/rss.xml"], "media-class": "newspaper", "media-subclass": "city-county", "facebook": "https://www.facebook.com/NassauCountyRecord", "website": "http://www.nassaucountyrecord.com/", "city-county-lat": 30.567684, "city-county-name": "Callahan", "twitter": "", "name": "Nassau County Record", "video": ""}, {"city-county-long": -81.95528, "open-search": [], "rss": [], "media-class": "newspaper", "media-subclass": "city-county", "facebook": "https://www.facebook.com/CapeCoralDailyBreeze", "website": "http://www.cape-coral-daily-breeze.com/", "city-county-lat": 26.582185, "city-county-name": "Cape Coral", "twitter": "http://www.twitter.com/CapeCoralDaily", "name": "Cape Coral Daily Breeze", "video": ""}, {"city-county-long": -82.19101, "open-search": [], "rss": [], "media-class": "newspaper", "media-subclass": "city-county", "facebook": "https://www.facebook.com/pages/Sanibel-Captiva-Islander-Island-Reporter-Captiva-Current/120011138022698", "website": "http://www.captivacurrent.com/", "city-county-lat": 26.519415, "city-county-name": "Captiva", "twitter": "", "name": "Captiva Current", "video": ""}, {"city-county-long": -82.5132, "open-search": [], "rss": [], "media-class": "newspaper", "media-subclass": "city-county", "facebook": "https://www.facebook.com/tbocom", "website": "http://tbo.com/carrollwood/", "city-county-lat": 28.0544, "city-county-name": "Carrollwood", "twitter": "http://www.twitter.com/TBOcom", "name": "Carrollwood News", "video": "http://www.youtube.com/channel/UC1iOXwOqVa9n7bEuWveVlXw"}, {"city-county-long": -82.5132, "open-search": [], "rss": [], "media-class": "newspaper", "media-subclass": "city-county", "facebook": "https://www.facebook.com/tbocom", "website": "http://tbo.com/northwest-tampa/", "city-county-lat": 28.0544, "city-county-name": "Carrollwood", "twitter": "http://www.twitter.com/TBOcom", "name": "Northwest News & Tribune", "video": "http://www.youtube.com/channel/UC1iOXwOqVa9n7bEuWveVlXw"}, {"city-county-long": -83.02243, "open-search": [], "rss": [], "media-class": "newspaper", "media-subclass": "city-county", "facebook": "https://www.facebook.com/pages/Cedar-Key-Beacon/114778808614034", "website": "http://www.cedarkeybeacon.com/", "city-county-lat": 29.178171, "city-county-name": "Cedar Key", "twitter": "http://www.twitter.com/cedarkeybeacon", "name": "Cedar Key Beacon", "video": ""}, {"city-county-long": -82.86837, "open-search": [], "rss": [], "media-class": "newspaper", "media-subclass": "city-county", "facebook": "https://www.facebook.com/pages/Chiefland-Citizen/183043538415558", "website": "http://www.chieflandcitizen.com/", "city-county-lat": 29.453178, "city-county-name": "Chiefland", "twitter": "http://www.twitter.com/News4Levy", "name": "Chiefland Citizen", "video": ""}, {"city-county-long": -85.5775, "open-search": [], "rss": ["http://chipleybugle.com/feed/", "http://chipleybugle.com/comments/feed/"], "media-class": "newspaper", "media-subclass": "city-county", "facebook": "https://www.facebook.com/chipleybugle", "website": "http://chipleybugle.com/", "city-county-lat": 30.636228, "city-county-name": "Chipley", "twitter": "http://www.twitter.com/chipleybugle", "name": "Chipley Bugle Newspaper", "video": ""}, {"city-county-long": -82.78166, "open-search": [], "rss": [], "media-class": "newspaper", "media-subclass": "city-county", "facebook": "https://www.facebook.com/pages/wwwTBNweeklycom/143549281933", "website": "http://www.tbnweekly.com/pubs/clearwater_beacon/", "city-county-lat": 27.979114, "city-county-name": "Clearwater", "twitter": "http://www.twitter.com/tbnwebmaster", "name": "Clearwater Beacon", "video": ""}, {"city-county-long": -82.78166, "open-search": [], "rss": [], "media-class": "newspaper", "media-subclass": "city-county", "facebook": "https://www.facebook.com/tbocom", "website": "http://clearwatergazette.com/", "city-county-lat": 27.979114, "city-county-name": "Clearwater", "twitter": "http://www.twitter.com/TBOcom", "name": "Clearwater Gazette", "video": "http://www.youtube.com/channel/UC1iOXwOqVa9n7bEuWveVlXw"}, {"city-county-long": -82.78166, "open-search": [], "rss": ["/news.xml"], "media-class": "newspaper", "media-subclass": "city-county", "facebook": "", "website": "http://www.jewishpresspinellas.com/", "city-county-lat": 27.979114, "city-county-name": "Clearwater", "twitter": "", "name": "Jewish Press Group", "video": ""}, {"city-county-long": -81.74805, "open-search": [], "rss": [], "media-class": "newspaper", "media-subclass": "city-county", "facebook": "https://www.facebook.com/ClermontNewsLeader", "website": "http://www.clermontnewsleader.com/", "city-county-lat": 28.545742, "city-county-name": "Clermont", "twitter": "", "name": "Clermont News Leader", "video": ""}, {"city-county-long": -81.74805, "open-search": ["http://www.southlakepress.com/search/opensearch/generic.xml"], "rss": [], "media-class": "newspaper", "media-subclass": "city-county", "facebook": "https://www.facebook.com/southlakepress", "website": "http://www.southlakepress.com/", "city-county-lat": 28.545742, "city-county-name": "Clermont", "twitter": "", "name": "South Lake Press", "video": ""}, {"city-county-long": -80.9973, "open-search": [], "rss": ["http://swflorida.blogspot.com/feeds/posts/default", "https://www.blogger.com/feeds/6999078/posts/default", "http://swflorida.blogspot.com/feeds/posts/default?alt=rss"], "media-class": "newspaper", "media-subclass": "city-county", "facebook": "", "website": "http://swflorida.blogspot.com/", "city-county-lat": 26.714088, "city-county-name": "Clewiston", "twitter": "", "name": "Southwest Florida Online", "video": ""}, {"city-county-long": -80.2706, "open-search": [], "rss": ["http://www.sun-sentinel.com/local/broward/coral-springs/rss2.0.xml"], "media-class": "newspaper", "media-subclass": "city-county", "facebook": "https://www.facebook.com/sunsentinel", "website": "http://www.sun-sentinel.com/news/broward/coral-springs/", "city-county-lat": 26.2712, "city-county-name": "Coral Springs", "twitter": "http://www.twitter.com/sunsentinel", "name": "Coral Springs News", "video": "http://www.youtube.com/channel/UCzp5eveEqKFfZZDh762Lifg"}, {"city-county-long": -84.34906, "open-search": [], "rss": [], "media-class": "newspaper", "media-subclass": "city-county", "facebook": "https://www.facebook.com/pages/The-Wakulla-News/121821147834984", "website": "http://www.thewakullanews.com/", "city-county-lat": 30.183372, "city-county-name": "Crawfordville", "twitter": "http://www.twitter.com/TheWakullaNews", "name": "Wakulla News", "video": ""}, {"city-county-long": -86.58533, "open-search": [], "rss": [], "media-class": "newspaper", "media-subclass": "city-county", "facebook": "https://www.facebook.com/crestview.bulletin", "website": "http://www.crestviewbulletin.com/", "city-county-lat": 30.760184, "city-county-name": "Crestview", "twitter": "http://www.twitter.com/cnbulletin", "name": "Crestview News Bulletin", "video": "http://www.youtube.com/user/cnbulletin/videos"}, {"city-county-long": -82.572703, "open-search": [], "rss": [], "media-class": "newspaper", "media-subclass": "city-county", "facebook": "https://www.facebook.com/citruscountychronicle", "website": "http://www.chronicleonline.com/", "city-county-lat": 28.867027, "city-county-name": "Crystal River", "twitter": "http://www.twitter.com/CitrusChronicle", "name": "Citrus County Chronicle", "video": "http://www.youtube.com/user/chronicleonline"}, {"city-county-long": -80.2521, "open-search": [], "rss": [], "media-class": "newspaper", "media-subclass": "city-county", "facebook": "https://www.facebook.com/elcolombianonewspaper", "website": "http://elcolombiano.net/", "city-county-lat": 26.0765, "city-county-name": "Davie", "twitter": "", "name": "El Colombiano Newspaper", "video": ""}, {"city-county-long": -81.03602, "open-search": [], "rss": [], "media-class": "newspaper", "media-subclass": "city-county", "facebook": "https://www.facebook.com/daytonabeachnewsjournal", "website": "http://www.news-journalonline.com/", "city-county-lat": 29.204009, "city-county-name": "Daytona Beach", "twitter": "http://www.twitter.com/dbnewsjournal", "name": "News-Journal", "video": "http://www.youtube.com/user/DBNewsJournal"}, {"city-county-long": -81.3031, "open-search": [], "rss": [], "media-class": "newspaper", "media-subclass": "city-county", "facebook": "https://www.facebook.com/pages/The-West-Volusia-Beacon/155316614481816", "website": "http://www.beacononlinenews.com/", "city-county-lat": 29.0283, "city-county-name": "DeLand", "twitter": "http://www.twitter.com/beacononline", "name": "West Volusia Beacon", "video": ""}, {"city-county-long": -80.07891, "open-search": [], "rss": ["http://delraynewspaper.com/feed"], "media-class": "newspaper", "media-subclass": "city-county", "facebook": "https://www.facebook.com/delraypineapple", "website": "http://pineapplenewspaper.com/", "city-county-lat": 26.460951, "city-county-name": "Delray Beach", "twitter": "http://www.twitter.com/DelrayPineapple", "name": "Delray Beach Pineapple", "video": ""}, {"city-county-long": -86.594479, "open-search": [], "rss": [], "media-class": "newspaper", "media-subclass": "city-county", "facebook": "https://www.facebook.com/TheDestinLog", "website": "http://www.thedestinlog.com/", "city-county-lat": 30.661155, "city-county-name": "Destin", "twitter": "http://www.twitter.com/destinlog", "name": "Destin Log", "video": "http://www.youtube.com/user/DestinLog"}, {"city-county-long": -82.3665, "open-search": [], "rss": [], "media-class": "newspaper", "media-subclass": "city-county", "facebook": "https://www.facebook.com/pages/Sun-Herald-of-Englewood/159540204121930", "website": "http://www.yoursun.com/csp/mediapool/sites/SunNews/Englewood/index.csp", "city-county-lat": 26.974858, "city-county-name": "Englewood", "twitter": "", "name": "Englewood Sun Herald", "video": ""}, {"city-county-long": -81.46092, "open-search": [], "rss": ["http://www.fbnewsleader.com/rss.xml"], "media-class": "newspaper", "media-subclass": "city-county", "facebook": "https://www.facebook.com/pages/News-Leader/159142284119200", "website": "http://www.fbnewsleader.com/", "city-county-lat": 30.641487, "city-county-name": "Fernandina Beach", "twitter": "", "name": "News-Leader", "video": ""}, {"city-county-long": -80.13187, "open-search": [], "rss": [], "media-class": "newspaper", "media-subclass": "city-county", "facebook": "https://www.facebook.com/SFlaBizJournal", "website": "http://www.bizjournals.com/southflorida/", "city-county-lat": 26.121114, "city-county-name": "Fort Lauderdale", "twitter": "http://www.twitter.com/SFBJNews", "name": "Business Journal", "video": ""}, {"city-county-long": -80.13187, "open-search": [], "rss": ["http://www.sun-sentinel.com/rss2.0.xml"], "media-class": "newspaper", "media-subclass": "city-county", "facebook": "https://www.facebook.com/sunsentinel", "website": "http://www.sun-sentinel.com/", "city-county-lat": 26.121114, "city-county-name": "Fort Lauderdale", "twitter": "http://www.twitter.com/sunsentinel", "name": "Sun-Sentinel", "video": "http://www.youtube.com/user/sunsentinel"}, {"city-county-long": -80.13187, "open-search": [], "rss": ["http://waterfronttimes.com/rss.xml"], "media-class": "newspaper", "media-subclass": "city-county", "facebook": "https://www.facebook.com/pages/Waterfront-Times/119864491389555", "website": "http://waterfronttimes.com/", "city-county-lat": 26.121114, "city-county-name": "Fort Lauderdale", "twitter": "", "name": "Waterfront Times", "video": ""}, {"city-county-long": -81.79405, "open-search": [], "rss": [], "media-class": "newspaper", "media-subclass": "city-county", "facebook": "", "website": "http://www.fortmeadeleader.com/", "city-county-lat": 27.7437, "city-county-name": "Fort Meade", "twitter": "", "name": "Fort Meade Leader", "video": ""}, {"city-county-long": -81.8727, "open-search": [], "rss": ["/news.xml"], "media-class": "newspaper", "media-subclass": "city-county", "facebook": "https://www.facebook.com/FloridaWeeklyNewspapers", "website": "http://fortmyers.floridaweekly.com/", "city-county-lat": 26.62365, "city-county-name": "Fort Myers", "twitter": "http://www.twitter.com/FloridaWeekly", "name": "Florida Weekly", "video": "https://www.youtube.com/channel/UCD6sbgh8kEmmTx2dHMYeI4A"}, {"city-county-long": -81.8727, "open-search": [], "rss": [], "media-class": "newspaper", "media-subclass": "city-county", "facebook": "https://www.facebook.com/pages/The-News-Press-Fort-Myers-Fla/7850621533", "website": "http://www.news-press.com/", "city-county-lat": 26.62365, "city-county-name": "Fort Myers", "twitter": "http://www.twitter.com/thenewspress", "name": "News-Press", "video": "http://www.youtube.com/channel/UC4HkxN3-j-bQVd_1ZZKOqSA"}, {"city-county-long": -81.93269, "open-search": [], "rss": [], "media-class": "newspaper", "media-subclass": "city-county", "facebook": "https://www.facebook.com/FortMyersBeachBulletinAndObserver", "website": "http://www.fortmyersbeachtalk.com/", "city-county-lat": 26.446463, "city-county-name": "Fort Myers Beach", "twitter": "", "name": "Beach Talk", "video": ""}, {"city-county-long": -81.93269, "open-search": [], "rss": ["https://fortmyersbeach.news/feed/", "https://fortmyersbeach.news/comments/feed/"], "media-class": "newspaper", "media-subclass": "city-county", "facebook": "https://www.facebook.com/islandsandpaperfmb", "website": "http://fortmyersbeach.news/", "city-county-lat": 26.446463, "city-county-name": "Fort Myers Beach", "twitter": "http://www.twitter.com/island_paper", "name": "Island Sand Paper", "video": ""}, {"city-county-long": -80.4915, "open-search": [], "rss": [], "media-class": "newspaper", "media-subclass": "city-county", "facebook": "https://www.facebook.com/tcpalm", "website": "http://www.tcpalm.com/news/local/st-lucie-county/", "city-county-lat": 27.431607, "city-county-name": "Fort Pierce", "twitter": "http://www.twitter.com/tcpalm", "name": "TCPalm.com", "video": "http://www.youtube.com/user/TCPalm"}, {"city-county-long": -86.62113, "open-search": [], "rss": [], "media-class": "newspaper", "media-subclass": "city-county", "facebook": "https://www.facebook.com/pages/Northwest-Florida-Daily-News/105672366142451", "website": "http://www.nwfdailynews.com/", "city-county-lat": 30.447248, "city-county-name": "Fort Walton Beach", "twitter": "http://www.twitter.com/nwfdailynews", "name": "Daily News", "video": "http://www.youtube.com/user/nwfdn"}, {"city-county-long": -82.71425, "open-search": [], "rss": [], "media-class": "newspaper", "media-subclass": "city-county", "facebook": "", "website": "http://columbiacountyobserver.com/", "city-county-lat": 29.922221, "city-county-name": "Fort White", "twitter": "", "name": "Columbia County Observer", "video": "http://www.youtube.com/channel/UCd1UXLYmP2xEx-jKi06lY2g"}, {"city-county-long": -82.3244, "open-search": [], "rss": ["http://www.alligator.org/search/?f=rss&t=article&l=50&s=start_time&sd=desc&k[]=%23topstory"], "media-class": "newspaper", "media-subclass": "city-county", "facebook": "https://www.facebook.com/floridaalligator", "website": "http://www.alligator.org/", "city-county-lat": 29.653195, "city-county-name": "Gainesville", "twitter": "http://www.twitter.com/TheAlligator", "name": "Florida Alligator", "video": ""}, {"city-county-long": -82.3244, "open-search": [], "rss": [], "media-class": "newspaper", "media-subclass": "city-county", "facebook": "https://www.facebook.com/GainesvilleSun", "website": "http://www.gainesville.com/", "city-county-lat": 29.653195, "city-county-name": "Gainesville", "twitter": "http://www.twitter.com/gainesvillesun", "name": "Gainesville Sun", "video": "http://www.youtube.com/user/GainesvilleSun"}, {"city-county-long": -87.09013, "open-search": [], "rss": ["/news.xml"], "media-class": "newspaper", "media-subclass": "city-county", "facebook": "", "website": "http://news.gulfbreezenews.com/", "city-county-lat": 30.375469, "city-county-name": "Gulf Breeze", "twitter": "http://www.twitter.com/gulfbreezenews", "name": "Gulf Breeze News", "video": ""}, {"city-county-long": -82.7034, "open-search": [], "rss": [], "media-class": "newspaper", "media-subclass": "city-county", "facebook": "https://www.facebook.com/pages/wwwTBNweeklycom/143549281933", "website": "http://www.tbnweekly.com/pubs/beach_beacon", "city-county-lat": 27.7484, "city-county-name": "Gulfport", "twitter": "http://www.twitter.com/tbnwebmaster", "name": "Beach Beacon", "video": ""}, {"city-county-long": -80.12231, "open-search": ["http://lesoleildelafloride.com/index.php/fr/component/search/?Itemid=545&format=opensearch"], "rss": ["/index.php/fr/?format=feed&type=rss", "/index.php/fr/?format=feed&type=atom"], "media-class": "newspaper", "media-subclass": "city-county", "facebook": "https://www.facebook.com/SoleilFloride", "website": "http://lesoleildelafloride.com/", "city-county-lat": 26.018967, "city-county-name": "Hollywood", "twitter": "", "name": "Le Soleil de la Floride", "video": "http://www.youtube.com/user/LeSoleildelaFloride"}, {"city-county-long": -82.709871, "open-search": [], "rss": ["http://www.islander.org/feed/", "http://www.islander.org/comments/feed/"], "media-class": "newspaper", "media-subclass": "city-county", "facebook": "https://www.facebook.com/Islandernewspaper", "website": "http://www.islander.org/", "city-county-lat": 27.499515, "city-county-name": "Holmes Beach", "twitter": "", "name": "Islander", "video": ""}, {"city-county-long": -81.768622, "open-search": [], "rss": [], "media-class": "newspaper", "media-subclass": "city-county", "facebook": "https://www.facebook.com/JBJNews", "website": "http://www.bizjournals.com/jacksonville/", "city-county-lat": 30.337538, "city-county-name": "Jacksonville", "twitter": "http://www.twitter.com/JaxBizJournal", "name": "Business Journal", "video": ""}, {"city-county-long": -81.768622, "open-search": [], "rss": ["http://www.thefloridastar.com/comments/feed/", "http://www.thefloridastar.com/feed/"], "media-class": "newspaper", "media-subclass": "city-county", "facebook": "https://www.facebook.com/TheFloridaStarNewspaper", "website": "http://www.thefloridastar.com/", "city-county-lat": 30.337538, "city-county-name": "Jacksonville", "twitter": "", "name": "Florida Star", "video": ""}, {"city-county-long": -81.768622, "open-search": [], "rss": [], "media-class": "newspaper", "media-subclass": "city-county", "facebook": "https://www.facebook.com/FLTimesUnion", "website": "http://jacksonville.com/", "city-county-lat": 30.337538, "city-county-name": "Jacksonville", "twitter": "http://www.twitter.com/jaxdotcom ", "name": "Florida Times-Union", "video": "http://www.youtube.com/user/jaxdotcom"}, {"city-county-long": -81.768622, "open-search": [], "rss": [], "media-class": "newspaper", "media-subclass": "city-county", "facebook": "https://www.facebook.com/thefolioweekly", "website": "http://www.folioweekly.com/", "city-county-lat": 30.337538, "city-county-name": "Jacksonville", "twitter": "http://www.twitter.com/folioweekly", "name": "Folio Weekly", "video": "http://www.youtube.com/user/thefolioweekly"}, {"city-county-long": -81.768622, "open-search": [], "rss": [], "media-class": "newspaper", "media-subclass": "city-county", "facebook": "https://www.facebook.com/JaxDailyRecord", "website": "http://www.jaxdailyrecord.com/", "city-county-lat": 30.337538, "city-county-name": "Jacksonville", "twitter": "http://www.twitter.com/JaxDailyRecord", "name": "Jacksonville Daily Record", "video": ""}, {"city-county-long": -81.683107, "open-search": [], "rss": ["http://www.beachesleader.com/rss.xml"], "media-class": "newspaper", "media-subclass": "city-county", "facebook": "https://www.facebook.com/TheBeachesLeader", "website": "http://www.beachesleader.com/", "city-county-lat": 30.34494, "city-county-name": "Jacksonville Beach", "twitter": "", "name": "Beaches Leader", "video": ""}, {"city-county-long": -80.11803, "open-search": [], "rss": [], "media-class": "newspaper", "media-subclass": "city-county", "facebook": "https://www.facebook.com/jupitercouriernewsweekly", "website": "http://www.tcpalm.com/jupiter-courier-newsweekly", "city-county-lat": 26.928035, "city-county-name": "Jupiter", "twitter": "http://www.twitter.com/tcpalm", "name": "Jupiter Courier", "video": "http://www.youtube.com/user/TCPalm"}, {"city-county-long": -81.7566, "open-search": [], "rss": [], "media-class": "newspaper", "media-subclass": "city-county", "facebook": "", "website": "http://keysnews.com/", "city-county-lat": 24.567593, "city-county-name": "Key West", "twitter": "", "name": "KeysNews.com", "video": "https://www.youtube.com/channel/UCyvRmuiHwjMpMTN2ozLhmaw"}, {"city-county-long": -81.42159, "open-search": [], "rss": [], "media-class": "newspaper", "media-subclass": "city-county", "facebook": "https://www.facebook.com/pages/Osceola-News-Gazette/112184688806668", "website": "http://www.aroundosceola.com/", "city-county-lat": 28.301788, "city-county-name": "Kissimmee", "twitter": "http://www.twitter.com/OsceolaNews", "name": "Around Osceola", "video": "http://www.youtube.com/user/OsceolaNewsGazette"}, {"city-county-long": -82.72529, "open-search": [], "rss": ["http://www.lakecityreporter.com/rss.xml"], "media-class": "newspaper", "media-subclass": "city-county", "facebook": "https://www.facebook.com/pages/Lake-City-Reporter/135337236719", "website": "http://www.lakecityreporter.com/", "city-county-lat": 30.108128, "city-county-name": "Lake City", "twitter": "", "name": "Lake City Reporter", "video": ""}, {"city-county-long": -81.92392, "open-search": [], "rss": ["http://www.theledger.com/rss/articles/NEWS/1008/30", "http://www.theledger.com/rss/articles/NEWS/1410/30", "http://www.theledger.com/rss/articles/NEWS/1001/30", "http://www.theledger.com/rss/articles/NEWS/1338/30", "http://www.theledger.com/rss/articles/NEWS/1002/30", "http://www.theledger.com/rss/articles/NEWS/1358/30", "http://www.legacy.com/services/obitrss.asp?Source=theledger"], "media-class": "newspaper", "media-subclass": "city-county", "facebook": "https://www.facebook.com/theledger", "website": "http://www.theledger.com/", "city-county-lat": 28.041198, "city-county-name": "Lakeland", "twitter": "http://www.twitter.com/theledger", "name": "Ledger", "video": "http://www.youtube.com/user/TheLakelandLedger"}, {"city-county-long": -82.80122, "open-search": [], "rss": [], "media-class": "newspaper", "media-subclass": "city-county", "facebook": "https://www.facebook.com/pages/wwwTBNweeklycom/143549281933", "website": "http://www.tbnweekly.com/pubs/largo_leader/", "city-county-lat": 27.916149, "city-county-name": "Largo", "twitter": "http://www.twitter.com/tbnwebmaster", "name": "Largo Leader", "video": ""}, {"city-county-long": -81.88466, "open-search": ["http://www.dailycommercial.com/search/opensearch/generic.xml"], "rss": [], "media-class": "newspaper", "media-subclass": "city-county", "facebook": "https://www.facebook.com/daily.commercial", "website": "http://www.dailycommercial.com/", "city-county-lat": 28.797245, "city-county-name": "Leesburg", "twitter": "", "name": "Daily Commercial", "video": "http://www.youtube.com/user/dailycommercial"}, {"city-county-long": -81.61163, "open-search": [], "rss": [], "media-class": "newspaper", "media-subclass": "city-county", "facebook": "https://www.facebook.com/LehighAcresCitizen", "website": "http://www.lehighacrescitizen.com/", "city-county-lat": 26.588982, "city-county-name": "Lehigh Acres", "twitter": "http://www.twitter.com/LehighAcresCit", "name": "Lehigh Acres Citizen", "video": ""}, {"city-county-long": -81.61163, "open-search": [], "rss": [], "media-class": "newspaper", "media-subclass": "city-county", "facebook": "https://www.facebook.com/LehighAcresGazette", "website": "http://lehighacresgazette.us/", "city-county-lat": 26.588982, "city-county-name": "Lehigh Acres", "twitter": "http://www.twitter.com/LehighAcresGaze", "name": "Lehigh Acres Gazette", "video": "http://www.youtube.com/user/TheLAGazette"}, {"city-county-long": -81.61163, "open-search": [], "rss": [], "media-class": "newspaper", "media-subclass": "city-county", "facebook": "https://www.facebook.com/pages/The-News-Press-Fort-Myers-Fla/7850621533", "website": "http://www.news-press.com/news/", "city-county-lat": 26.588982, "city-county-name": "Lehigh Acres", "twitter": "http://www.twitter.com/thenewspress", "name": "Lehigh Acres News Press", "video": ""}, {"city-county-long": -83.04106, "open-search": [], "rss": ["http://www.suwanneedemocrat.com/search/?f=rss&t=article&l=50&s=start_time&sd=desc&k[]=%23topstory"], "media-class": "newspaper", "media-subclass": "city-county", "facebook": "https://www.facebook.com/SuwanneeDemocrat", "website": "http://suwanneedemocrat.com/", "city-county-lat": 30.285127, "city-county-name": "Live Oak", "twitter": "http://www.twitter.com/suwanneedemocra", "name": "Suwannee Democrat", "video": ""}, {"city-county-long": -82.12457, "open-search": [], "rss": ["http://bakercountypress.com/feed/", "http://bakercountypress.com/comments/feed/"], "media-class": "newspaper", "media-subclass": "city-county", "facebook": "https://www.facebook.com/pages/The-Baker-County-Press/356521567781", "website": "http://www.bakercountypress.com/", "city-county-lat": 30.267664, "city-county-name": "Macclenny", "twitter": "http://www.twitter.com/BakerCoPress", "name": "Baker County Press", "video": "http://www.youtube.com/user/bakercopress"}, {"city-county-long": -82.12457, "open-search": [], "rss": [], "media-class": "newspaper", "media-subclass": "city-county", "facebook": "https://www.facebook.com/HomeTownJournal", "website": "http://www.hometownjournal.org/", "city-county-lat": 30.267664, "city-county-name": "Macclenny", "twitter": "http://www.twitter.com/hometownjournal", "name": "Home Town Journal", "video": ""}, {"city-county-long": -83.40303, "open-search": [], "rss": ["http://www.greenepublishing.com/feed/", "http://www.greenepublishing.com/comments/feed/"], "media-class": "newspaper", "media-subclass": "city-county", "facebook": "https://www.facebook.com/GreenePublishing", "website": "http://www.greenepublishing.com/", "city-county-lat": 30.476181, "city-county-name": "Madison", "twitter": "http://www.twitter.com/greenepublish", "name": "Madison Enterprise Recorder", "video": ""}, {"city-county-long": -81.0278, "open-search": [], "rss": ["http://www.flkeysnews.com/?widgetName=rssfeed&widgetContentId=77002187&getXmlFeed=true"], "media-class": "newspaper", "media-subclass": "city-county", "facebook": "https://www.facebook.com/pages/KeysNetcom-Website-for-The-Reporter-and-The-Keynoter-newspapers/120937634650195", "website": "http://www.keysnet.com/", "city-county-lat": 24.731758, "city-county-name": "Marathon", "twitter": "", "name": "Florida Keys Keynoter", "video": ""}, {"city-county-long": -81.71329, "open-search": [], "rss": [], "media-class": "newspaper", "media-subclass": "city-county", "facebook": "https://www.facebook.com/themarcoeagle", "website": "http://www.naplesnews.com/community/marco-eagle", "city-county-lat": 25.940112, "city-county-name": "Marco Island", "twitter": "http://www.twitter.com/marconews", "name": "Marco Island Eagle", "video": ""}, {"city-county-long": -81.71329, "open-search": [], "rss": [], "media-class": "newspaper", "media-subclass": "city-county", "facebook": "https://www.facebook.com/pages/The-News-Press-Fort-Myers-Fla/7850621533", "website": "http://www.marcoislandflorida.com/", "city-county-lat": 25.940112, "city-county-name": "Marco Island", "twitter": "http://www.twitter.com/thenewspress", "name": "Marco Island Sun-Times", "video": ""}, {"city-county-long": -80.2064, "open-search": [], "rss": [], "media-class": "newspaper", "media-subclass": "city-county", "facebook": "https://www.facebook.com/MargateNews.net", "website": "http://margatenews.net/", "city-county-lat": 26.2445, "city-county-name": "Margate", "twitter": "http://www.twitter.com/margatenews", "name": "Margate News", "video": ""}, {"city-county-long": -85.2206, "open-search": ["http://www.jcfloridan.com/search/opensearch/generic.xml"], "rss": [], "media-class": "newspaper", "media-subclass": "city-county", "facebook": "https://www.facebook.com/JCFLoridan", "website": "http://www.jcfloridan.com/", "city-county-lat": 30.804698, "city-county-name": "Marianna", "twitter": "http://www.twitter.com/jcfloridannews", "name": "Jackson County Floridan", "video": ""}, {"city-county-long": -85.2206, "open-search": ["http://www.jacksoncountytimes.net/component/search/?Itemid=101&format=opensearch"], "rss": ["/?format=feed&type=rss", "/?format=feed&type=atom"], "media-class": "newspaper", "media-subclass": "city-county", "facebook": "https://www.facebook.com/JacksonCountyTimes", "website": "http://www.jacksoncountytimes.net/", "city-county-lat": 30.804698, "city-county-name": "Marianna", "twitter": "http://www.twitter.com/JCTIMES", "name": "Jackson County Times", "video": ""}, {"city-county-long": -82.0709, "open-search": [], "rss": ["http://pineislandnews.com/Pine_Island_News_Blog/rss.xml"], "media-class": "newspaper", "media-subclass": "city-county", "facebook": "https://www.facebook.com/PineIslandNews", "website": "http://www.pineislandnews.com/", "city-county-lat": 26.6298, "city-county-name": "Matlacha", "twitter": "", "name": "Pine Island News", "video": "https://www.youtube.com/user/PineIslandNews"}, {"city-county-long": -83.21849, "open-search": [], "rss": ["http://www.suwanneedemocrat.com/search/?f=rss&t=article&c=news/mayo_free_press&l=50&s=start_time&sd=desc"], "media-class": "newspaper", "media-subclass": "city-county", "facebook": "", "website": "http://www.suwanneedemocrat.com/news/mayo_free_press/", "city-county-lat": 30.084849, "city-county-name": "Mayo", "twitter": "", "name": "Mayo Free Press", "video": ""}, {"city-county-long": -80.61987, "open-search": [], "rss": [], "media-class": "newspaper", "media-subclass": "city-county", "facebook": "https://www.facebook.com/Floridatoday", "website": "http://www.floridatoday.com/", "city-county-lat": 28.077494, "city-county-name": "Melbourne", "twitter": "http://www.twitter.com/florida_today", "name": "Florida Today", "video": ""}, {"city-county-long": -80.19782, "open-search": [], "rss": ["http://communitynewspapers.com/feed/", "http://communitynewspapers.com/comments/feed/"], "media-class": "newspaper", "media-subclass": "city-county", "facebook": "https://www.facebook.com/Communitynewspapers", "website": "http://www.communitynewspapers.com/", "city-county-lat": 25.779076, "city-county-name": "Miami", "twitter": "http://www.twitter.com/communitypapers", "name": "Community News of Miami", "video": "http://www.youtube.com/user/communitynewspapers"}, {"city-county-long": -80.19782, "open-search": [], "rss": ["http://www.elnuevoherald.com/?widgetName=rssfeed&widgetContentId=710494&getXmlFeed=true"], "media-class": "newspaper", "media-subclass": "city-county", "facebook": "https://www.facebook.com/pages/El-Nuevo-Herald/126339201288", "website": "http://www.elnuevoherald.com/", "city-county-lat": 25.779076, "city-county-name": "Miami", "twitter": "http://www.twitter.com/elnuevoherald", "name": "El Nuevo Herald", "video": "http://www.youtube.com/user/NuevoHerald"}, {"city-county-long": -80.19782, "open-search": [], "rss": ["http://www.miamiherald.com/?widgetName=rssfeed&widgetContentId=712015&getXmlFeed=true"], "media-class": "newspaper", "media-subclass": "city-county", "facebook": "https://www.facebook.com/miamiherald", "website": "http://www.miamiherald.com/", "city-county-lat": 25.779076, "city-county-name": "Miami", "twitter": "http://www.twitter.com/miamiherald", "name": "Miami Herald", "video": "http://www.youtube.com/user/MiamiHerald"}, {"city-county-long": -80.19782, "open-search": [], "rss": ["http://www.miaminewtimes.com/index.rss"], "media-class": "newspaper", "media-subclass": "city-county", "facebook": "https://www.facebook.com/miaminewtimes", "website": "http://www.miaminewtimes.com/", "city-county-lat": 25.779076, "city-county-name": "Miami", "twitter": "http://www.twitter.com/MiamiNewTimes", "name": "Miami New Times", "video": "http://www.youtube.com/user/MiamiNewTimesLLC"}, {"city-county-long": -80.19782, "open-search": [], "rss": [], "media-class": "newspaper", "media-subclass": "city-county", "facebook": "https://www.facebook.com/themiamitimes", "website": "http://miamitimesonline.com/", "city-county-lat": 25.779076, "city-county-name": "Miami", "twitter": "http://www.twitter.com/TheMiamiTimes", "name": "Miami Times", "video": ""}, {"city-county-long": -80.19782, "open-search": [], "rss": ["http://www.miamitodaynews.com/feed/", "http://www.miamitodaynews.com/comments/feed/"], "media-class": "newspaper", "media-subclass": "city-county", "facebook": "https://www.facebook.com/MiamiTodayNews", "website": "http://www.miamitodaynews.com/", "city-county-lat": 25.779076, "city-county-name": "Miami", "twitter": "http://www.twitter.com/MiamiTodayNews", "name": "Miami Today", "video": ""}, {"city-county-long": -80.19782, "open-search": [], "rss": [], "media-class": "newspaper", "media-subclass": "city-county", "facebook": "https://www.facebook.com/Miamicom", "website": "http://www.miami.com/", "city-county-lat": 25.779076, "city-county-name": "Miami", "twitter": "http://www.twitter.com/Miamicom", "name": "Miami.com", "video": ""}, {"city-county-long": -87.01098, "open-search": [], "rss": [], "media-class": "newspaper", "media-subclass": "city-county", "facebook": "https://www.facebook.com/pages/Santa-Rosa-Press-Gazette/284030690309", "website": "http://www.srpressgazette.com/", "city-county-lat": 30.70969, "city-county-name": "Milton", "twitter": "http://www.twitter.com/srpressgazette", "name": "Santa Rosa Press Gazette", "video": ""}, {"city-county-long": -81.38719, "open-search": [], "rss": [], "media-class": "newspaper", "media-subclass": "city-county", "facebook": "https://www.facebook.com/naplesnews", "website": "http://www.naplesnews.com/", "city-county-lat": 25.855534, "city-county-name": "Naples", "twitter": "http://www.twitter.com/ndn", "name": "Naples Daily News", "video": "http://www.youtube.com/user/NaplesDailyNews"}, {"city-county-long": -86.9123, "open-search": [], "rss": ["http://navarrepress.com/wp-content/plugins/leaflet-maps-marker/leaflet-georss.php?layer=all", "http://navarrepress.com/comments/feed/", "http://navarrepress.com/feed/"], "media-class": "newspaper", "media-subclass": "city-county", "facebook": "https://www.facebook.com/navarrepress", "website": "http://www.navarrepress.com/", "city-county-lat": 30.4109, "city-county-name": "Navarre", "twitter": "http://www.twitter.com/navarrepress", "name": "Navarre Press", "video": "http://www.youtube.com/user/npwebadmin"}, {"city-county-long": -82.1606, "open-search": [], "rss": [], "media-class": "newspaper", "media-subclass": "city-county", "facebook": "https://www.facebook.com/pages/North-Port-Sun/119103994807909", "website": "http://www.yoursun.com/csp/mediapool/sites/SunNews/NorthPort/index.csp", "city-county-lat": 27.072445, "city-county-name": "North Port", "twitter": "", "name": "North Port Sun", "video": ""}, {"city-county-long": -82.10556, "open-search": [], "rss": [], "media-class": "newspaper", "media-subclass": "city-county", "facebook": "https://www.facebook.com/ocala.starbanner", "website": "http://www.ocala.com/", "city-county-lat": 29.198704, "city-county-name": "Ocala", "twitter": "http://www.twitter.com/OcalaStarBanner", "name": "Star-Banner", "video": ""}, {"city-county-long": -81.77904, "open-search": [], "rss": [], "media-class": "newspaper", "media-subclass": "city-county", "facebook": "https://www.facebook.com/ClayTodayFL", "website": "http://www.claytodayonline.com/", "city-county-lat": 30.133007, "city-county-name": "Orange Park", "twitter": "http://www.twitter.com/claytoday", "name": "Clay Today", "video": ""}, {"city-county-long": -81.37446, "open-search": [], "rss": [], "media-class": "newspaper", "media-subclass": "city-county", "facebook": "https://www.facebook.com/objupdate", "website": "http://www.bizjournals.com/orlando/", "city-county-lat": 28.541879, "city-county-name": "Orlando", "twitter": "http://www.twitter.com/objupdate", "name": "Business Journal", "video": ""}, {"city-county-long": -81.37446, "open-search": [], "rss": ["http://www.orlandosentinel.com/rss2.0.xml"], "media-class": "newspaper", "media-subclass": "city-county", "facebook": "https://www.facebook.com/orlandosentinel", "website": "http://www.orlandosentinel.com/", "city-county-lat": 28.541879, "city-county-name": "Orlando", "twitter": "http://www.twitter.com/orlandosentinel", "name": "Sentinel", "video": "http://www.youtube.com/user/OrlandoSentinel"}, {"city-county-long": -81.37446, "open-search": [], "rss": [], "media-class": "newspaper", "media-subclass": "city-county", "facebook": "https://www.facebook.com/orlando.times", "website": "http://www.orlando-times.com/", "city-county-lat": 28.541879, "city-county-name": "Orlando", "twitter": "", "name": "Times", "video": ""}, {"city-county-long": -81.37446, "open-search": [], "rss": ["http://www.orlandoweekly.com/orlando/Rss.xml", "http://www.orlandoweekly.com/orlando/Rss.xml?id=comments"], "media-class": "newspaper", "media-subclass": "city-county", "facebook": "https://www.facebook.com/orlandoweekly", "website": "http://orlandoweekly.com/", "city-county-lat": 28.541879, "city-county-name": "Orlando", "twitter": "http://www.twitter.com/ORLANDOWEEKLY", "name": "Weekly", "video": "http://www.youtube.com/user/OrlandoWeekly"}, {"city-county-long": -81.67401, "open-search": [], "rss": ["http://www.palatkadailynews.com/rss.xml"], "media-class": "newspaper", "media-subclass": "city-county", "facebook": "https://www.facebook.com/pages/Palatka-Daily-News/105722549480219", "website": "http://www.palatkadailynews.com/", "city-county-lat": 29.666218, "city-county-name": "Palatka", "twitter": "", "name": "Palatka Daily News", "video": "https://www.youtube.com/user/palatkadailynews"}, {"city-county-long": -80.03937, "open-search": [], "rss": [], "media-class": "newspaper", "media-subclass": "city-county", "facebook": "https://www.facebook.com/shinysheet", "website": "http://www.palmbeachdailynews.com/", "city-county-lat": 26.715067, "city-county-name": "Palm Beach", "twitter": "http://www.twitter.com/ShinySheet", "name": "Daily News", "video": ""}, {"city-county-long": -80.03937, "open-search": [], "rss": ["http://www.browardpalmbeach.com/index.rss"], "media-class": "newspaper", "media-subclass": "city-county", "facebook": "https://www.facebook.com/newtimesbpb", "website": "http://www.browardpalmbeach.com/", "city-county-lat": 26.715067, "city-county-name": "Palm Beach", "twitter": "http://www.twitter.com/NewTimesBroward", "name": "New Times Broward", "video": "http://www.youtube.com/channel/UCiolkgvnTf0RaHCPDprFf6Q"}, {"city-county-long": -80.03937, "open-search": [], "rss": [], "media-class": "newspaper", "media-subclass": "city-county", "facebook": "https://www.facebook.com/palmbeachpost", "website": "http://www.palmbeachpost.com/", "city-county-lat": 26.715067, "city-county-name": "Palm Beach", "twitter": "http://www.twitter.com/pbpost", "name": "Post", "video": "http://www.youtube.com/user/PalmBeachPost"}, {"city-county-long": -85.65297, "open-search": [], "rss": [], "media-class": "newspaper", "media-subclass": "city-county", "facebook": "https://www.facebook.com/PanamaCityNewsHerald", "website": "http://www.newsherald.com/", "city-county-lat": 30.161901, "city-county-name": "Panama City", "twitter": "http://www.twitter.com/The_News_Herald", "name": "News Herald", "video": ""}, {"city-county-long": -87.22305, "open-search": [], "rss": ["http://inweekly.net/wordpress/?feed=rss2"], "media-class": "newspaper", "media-subclass": "city-county", "facebook": "https://www.facebook.com/pages/Independent-News/116407138232", "website": "http://inweekly.net/", "city-county-lat": 30.420997, "city-county-name": "Pensacola", "twitter": "", "name": "Independent News", "video": ""}, {"city-county-long": -87.22305, "open-search": [], "rss": [], "media-class": "newspaper", "media-subclass": "city-county", "facebook": "https://www.facebook.com/pnjnews", "website": "http://www.pnj.com/", "city-county-lat": 30.420997, "city-county-name": "Pensacola", "twitter": "http://www.twitter.com/pnj", "name": "News Journal", "video": "http://www.youtube.com/user/PNJVideo"}, {"city-county-long": -81.420603, "open-search": [], "rss": [], "media-class": "newspaper", "media-subclass": "city-county", "facebook": "https://www.facebook.com/ThePVRecorder", "website": "http://www.pontevedrarecorder.com/", "city-county-lat": 29.937673, "city-county-name": "Ponte Vedra Beach", "twitter": "http://www.twitter.com/TheRecorderPV", "name": "Recorder", "video": ""}, {"city-county-long": -82.14859, "open-search": [], "rss": [], "media-class": "newspaper", "media-subclass": "city-county", "facebook": "https://www.facebook.com/TheCharlotteSun", "website": "http://www.charlotte-sun.com/", "city-county-lat": 26.984486, "city-county-name": "Port Charlotte", "twitter": "http://www.twitter.com/CharlotteSunFla", "name": "Charlotte Sun Herald", "video": ""}, {"city-county-long": -85.32792, "open-search": [], "rss": [], "media-class": "newspaper", "media-subclass": "city-county", "facebook": "https://www.facebook.com/psjstar", "website": "http://www.starfl.com/", "city-county-lat": 29.846517, "city-county-name": "Port Saint Joe", "twitter": "http://www.twitter.com/PSJ_Star", "name": "Star", "video": ""}, {"city-county-long": -80.29691, "open-search": [], "rss": [], "media-class": "newspaper", "media-subclass": "city-county", "facebook": "https://www.facebook.com/stlucienewstribune", "website": "http://www.tcpalm.com/", "city-county-lat": 27.291694, "city-county-name": "Port Saint Lucie", "twitter": "http://www.twitter.com/TCPalm", "name": "Port Saint Lucie News", "video": "http://www.youtube.com/user/TCPalm"}, {"city-county-long": -82.007115, "open-search": [], "rss": ["/news.xml"], "media-class": "newspaper", "media-subclass": "city-county", "facebook": "https://www.facebook.com/FloridaWeeklyNewspapers", "website": "http://charlotte.floridaweekly.com/", "city-county-lat": 26.871443, "city-county-name": "Punta Gorda", "twitter": "http://www.twitter.com/FloridaWeekly", "name": "Florida Weekly", "video": "https://www.youtube.com/channel/UCD6sbgh8kEmmTx2dHMYeI4A"}, {"city-county-long": -84.6147, "open-search": [], "rss": [], "media-class": "newspaper", "media-subclass": "city-county", "facebook": "https://www.facebook.com/GadsdenTimes", "website": "http://www.gadcotimes.com/", "city-county-lat": 30.573563, "city-county-name": "Quincy", "twitter": "", "name": "Gadsden County Times", "video": ""}, {"city-county-long": -81.29464, "open-search": [], "rss": [], "media-class": "newspaper", "media-subclass": "city-county", "facebook": "https://www.facebook.com/StAugustineRecord", "website": "http://staugustine.com/", "city-county-lat": 29.87131, "city-county-name": "Saint Augustine", "twitter": "http://www.twitter.com/staugrecord", "name": "St. Augustine Record", "video": "http://www.youtube.com/user/StAugustineRecord"}, {"city-county-long": -82.63931, "open-search": [], "rss": [], "media-class": "newspaper", "media-subclass": "city-county", "facebook": "https://www.facebook.com/tampabaycom", "website": "http://www.tampabay.com/", "city-county-lat": 27.770955, "city-county-name": "Saint Petersburg", "twitter": "http://www.twitter.com/tb_times", "name": "Tampa Bay Times", "video": "http://www.youtube.com/user/wwwtampabaycom"}, {"city-county-long": -81.28761, "open-search": [], "rss": [], "media-class": "newspaper", "media-subclass": "city-county", "facebook": "https://www.facebook.com/TheSanfordHerald", "website": "http://mysanfordherald.com/", "city-county-lat": 28.803979, "city-county-name": "Sanford", "twitter": "http://www.twitter.com/SanfordHerald", "name": "Sanford Herald", "video": "http://www.youtube.com/user/thesanfordherald"}, {"city-county-long": -82.08045, "open-search": [], "rss": [], "media-class": "newspaper", "media-subclass": "city-county", "facebook": "https://www.facebook.com/pages/Sanibel-Captiva-Islander-Island-Reporter-Captiva-Current/120011138022698", "website": "http://www.island-reporter.com/", "city-county-lat": 26.439608, "city-county-name": "Sanibel", "twitter": "http://www.twitter.com/CaptivaSanibel", "name": "Island Reporter", "video": ""}, {"city-county-long": -82.08045, "open-search": [], "rss": [], "media-class": "newspaper", "media-subclass": "city-county", "facebook": "https://www.facebook.com/pages/Sanibel-Captiva-Islander-Island-Reporter-Captiva-Current/120011138022698", "website": "http://www.sanibel-captiva-islander.com/", "city-county-lat": 26.439608, "city-county-name": "Sanibel", "twitter": "http://www.twitter.com/CaptivaSanibel", "name": "Sanibel-Captiva Islander", "video": ""}, {"city-county-long": -86.18759, "open-search": [], "rss": [], "media-class": "newspaper", "media-subclass": "city-county", "facebook": "https://www.facebook.com/waltonsun", "website": "http://www.waltonsun.com/", "city-county-lat": 30.361248, "city-county-name": "Santa Rosa Beach", "twitter": "http://www.twitter.com/WaltonSun", "name": "Walton Sun", "video": ""}, {"city-county-long": -82.537169, "open-search": [], "rss": [], "media-class": "newspaper", "media-subclass": "city-county", "facebook": "https://www.facebook.com/BusinessObserverFL", "website": "http://www.businessobserverfl.com/", "city-county-lat": 27.335023, "city-county-name": "Sarasota", "twitter": "http://www.twitter.com/BizObserverFL", "name": "Business Observer", "video": "https://www.youtube.com/user/GCBizReview"}, {"city-county-long": -82.537169, "open-search": [], "rss": ["http://www.heraldtribune.com/rss/articles/article/2107/10", "http://www.heraldtribune.com/rss/articles/article/2406/10", "http://www.heraldtribune.com/rss/articles/article/2127/10", "http://www.heraldtribune.com/rss/articles/article/2056/10", "http://www.heraldtribune.com/rss/articles/article/2110/10", "http://www.heraldtribune.com/rss/articles/article/2055/10", "http://www.heraldtribune.com/rss/articles/article/1547/10", "http://www.heraldtribune.com/rss/articles/article/2084/10"], "media-class": "newspaper", "media-subclass": "city-county", "facebook": "https://www.facebook.com/heraldtribune", "website": "http://www.heraldtribune.com/", "city-county-lat": 27.335023, "city-county-name": "Sarasota", "twitter": "http://www.twitter.com/heraldtribune", "name": "Sarasota Herald Tribune", "video": "http://www.youtube.com/channel/UCGCfl9zPVNB8TIdqB3VpiHQ"}, {"city-county-long": -82.537169, "open-search": [], "rss": [], "media-class": "newspaper", "media-subclass": "city-county", "facebook": "", "website": "http://sunstatepost.com/", "city-county-lat": 27.335023, "city-county-name": "Sarasota", "twitter": "", "name": "SunState Post", "video": ""}, {"city-county-long": -82.537169, "open-search": [], "rss": ["http://www.yourobserver.com/article/rss/sarasota/all"], "media-class": "newspaper", "media-subclass": "city-county", "facebook": "https://www.facebook.com/ObserverGroup", "website": "http://www.yourobserver.com/sarasota", "city-county-lat": 27.335023, "city-county-name": "Sarasota", "twitter": "http://www.twitter.com/ObserverGroup", "name": "YourObserver.com", "video": "http://www.youtube.com/user/YourObserverVideo"}, {"city-county-long": -81.42131, "open-search": [], "rss": [], "media-class": "newspaper", "media-subclass": "city-county", "facebook": "https://www.facebook.com/newssun", "website": "http://www.newssun.com/", "city-county-lat": 27.483817, "city-county-name": "Sebring", "twitter": "http://www.twitter.com/TheNewsSun", "name": "News-Sun", "video": ""}, {"city-county-long": -82.79307, "open-search": [], "rss": [], "media-class": "newspaper", "media-subclass": "city-county", "facebook": "https://www.facebook.com/pages/wwwTBNweeklycom/143549281933", "website": "http://www.tbnweekly.com/pubs/seminole_beacon/", "city-county-lat": 27.843349, "city-county-name": "Seminole", "twitter": "http://www.twitter.com/tbnwebmaster", "name": "Seminole Beacon", "video": ""}, {"city-county-long": -82.11706, "open-search": [], "rss": [], "media-class": "newspaper", "media-subclass": "city-county", "facebook": "https://www.facebook.com/BradfordTelegraph", "website": "http://www.bctelegraph.com/", "city-county-lat": 29.937512, "city-county-name": "Starke", "twitter": "", "name": "Bradford County Telegraph", "video": ""}, {"city-county-long": -82.11706, "open-search": [], "rss": ["http://starkejournal.com/feed/"], "media-class": "newspaper", "media-subclass": "city-county", "facebook": "https://www.facebook.com/pages/StarkeJournalcom/205367006182345", "website": "http://starkejournal.com/", "city-county-lat": 29.937512, "city-county-name": "Starke", "twitter": "", "name": "Starke Journal", "video": ""}, {"city-county-long": -80.25225, "open-search": [], "rss": [], "media-class": "newspaper", "media-subclass": "city-county", "facebook": "https://www.facebook.com/tcpalm", "website": "http://www.tcpalm.com/", "city-county-lat": 27.195291, "city-county-name": "Stuart", "twitter": "http://www.twitter.com/tcpalm", "name": "Stuart News", "video": "https://www.youtube.com/user/TCPalm"}, {"city-county-long": -84.26903, "open-search": [], "rss": [], "media-class": "newspaper", "media-subclass": "city-county", "facebook": "https://www.facebook.com/tallahasseedemocrat", "website": "http://www.tallahassee.com/", "city-county-lat": 30.431283, "city-county-name": "Tallahassee", "twitter": "http://www.twitter.com/TDOnline", "name": "Tallahassee Democrat", "video": "http://www.youtube.com/user/TDOdotCom"}, {"city-county-long": -84.26903, "open-search": [], "rss": [], "media-class": "newspaper", "media-subclass": "city-county", "facebook": "", "website": "http://www.thetallahasseenews.com/", "city-county-lat": 30.431283, "city-county-name": "Tallahassee", "twitter": "", "name": "Tallahassee News", "video": ""}, {"city-county-long": -82.582035, "open-search": [], "rss": ["http://daytonatimes.com/feed/", "http://daytonatimes.com/comments/feed/"], "media-class": "newspaper", "media-subclass": "city-county", "facebook": "https://www.facebook.com/daytonatimes", "website": "http://daytonatimes.com/", "city-county-lat": 27.996097, "city-county-name": "Tampa", "twitter": "http://www.twitter.com/daytonatimes", "name": "Daytona Times", "video": ""}, {"city-county-long": -82.582035, "open-search": [], "rss": ["http://flcourier.com/feed/", "http://flcourier.com/comments/feed/"], "media-class": "newspaper", "media-subclass": "city-county", "facebook": "https://www.facebook.com/flcourier", "website": "http://flcourier.com/", "city-county-lat": 27.996097, "city-county-name": "Tampa", "twitter": "http://www.twitter.com/flcourier", "name": "Florida Courier", "video": "http://www.youtube.com/user/FloridaCourier"}, {"city-county-long": -82.582035, "open-search": [], "rss": ["/news.xml"], "media-class": "newspaper", "media-subclass": "city-county", "facebook": "", "website": "http://jewishpressoftampa.our-hometown.com/", "city-county-lat": 27.996097, "city-county-name": "Tampa", "twitter": "", "name": "Jewish Press of Tampa", "video": ""}, {"city-county-long": -82.582035, "open-search": [], "rss": [], "media-class": "newspaper", "media-subclass": "city-county", "facebook": "https://www.facebook.com/TampaBusinessJournal", "website": "http://www.bizjournals.com/tampabay/", "city-county-lat": 27.996097, "city-county-name": "Tampa", "twitter": "http://www.twitter.com/TBBJnewsroom", "name": "Tampa Bay Business Journal", "video": ""}, {"city-county-long": -82.582035, "open-search": [], "rss": [], "media-class": "newspaper", "media-subclass": "city-county", "facebook": "https://www.facebook.com/tbocom", "website": "http://tbo.com/", "city-county-lat": 27.996097, "city-county-name": "Tampa", "twitter": "http://www.twitter.com/tbocom", "name": "Tampa Tribune", "video": "http://www.youtube.com/user/tbocom"}, {"city-county-long": -80.53139, "open-search": [], "rss": ["http://www.flkeysnews.com/?widgetName=rssfeed&widgetContentId=77002187&getXmlFeed=true"], "media-class": "newspaper", "media-subclass": "city-county", "facebook": "", "website": "http://www.keysnet.com/", "city-county-lat": 25.006349, "city-county-name": "Tavernier", "twitter": "", "name": "Reporter", "video": ""}, {"city-county-long": -81.987609, "open-search": [], "rss": ["http://www.villages-news.com/feed/", "http://www.villages-news.com/comments/feed/"], "media-class": "newspaper", "media-subclass": "city-county", "facebook": "https://www.facebook.com/TheVillagesNews", "website": "http://www.villages-news.com/", "city-county-lat": 28.945246, "city-county-name": "The Villages", "twitter": "http://www.twitter.com/Villages_News", "name": "Villages-News.com", "video": "https://www.youtube.com/user/VillagesNews/videos"}, {"city-county-long": -82.380967, "open-search": [], "rss": [], "media-class": "newspaper", "media-subclass": "city-county", "facebook": "https://www.facebook.com/VeniceGondolierSun", "website": "http://www.venicegondolier.com/", "city-county-lat": 27.167521, "city-county-name": "Venice", "twitter": "http://www.twitter.com/VeniceGondolier", "name": "Venice Gondolier", "video": "https://www.youtube.com/channel/UCc31oSdOSYPjusZU21-F7Fg"}, {"city-county-long": -80.2684, "open-search": [], "rss": ["http://palmswestmonthly.com/feed/", "http://palmswestmonthly.com/comments/feed/"], "media-class": "newspaper", "media-subclass": "city-county", "facebook": "https://www.facebook.com/PalmsWestMonthly", "website": "http://www.palmswestmonthly.com/", "city-county-lat": 26.6618, "city-county-name": "Wellington", "twitter": "http://www.twitter.com/PWMonthly", "name": "Palms West Monthly", "video": ""}, {"city-county-long": -80.2684, "open-search": [], "rss": ["http://gotowncrier.com/feed/"], "media-class": "newspaper", "media-subclass": "city-county", "facebook": "https://www.facebook.com/towncriernewspaper", "website": "http://gotowncrier.com/", "city-county-lat": 26.6618, "city-county-name": "Wellington", "twitter": "http://www.twitter.com/towncrieronline", "name": "Town-Crier", "video": "http://www.youtube.com/user/TownCrierNews"}, {"city-county-long": -80.06043, "open-search": [], "rss": [], "media-class": "newspaper", "media-subclass": "city-county", "facebook": "https://www.facebook.com/DiarioPalmBeach", "website": "http://www.diariopalmbeach.com/", "city-county-lat": 26.711192, "city-county-name": "West Palm Beach", "twitter": "http://www.twitter.com/DiarioPalmBeach", "name": "Diario Palm Beach", "video": "https://www.youtube.com/channel/UCfhzRY6IRJNAnh_R0zOiS8A"}, {"city-county-long": -80.06043, "open-search": [], "rss": [], "media-class": "newspaper", "media-subclass": "city-county", "facebook": "https://www.facebook.com/palmbeachpost", "website": "http://www.palmbeachpost.com/", "city-county-lat": 26.711192, "city-county-name": "West Palm Beach", "twitter": "http://www.twitter.com/pbpost", "name": "Palm Beach Post", "video": "http://www.youtube.com/user/PalmBeachPost"}, {"city-county-long": -82.49831, "open-search": [], "rss": [], "media-class": "newspaper", "media-subclass": "city-county", "facebook": "", "website": "http://www.willistonpioneer.com", "city-county-lat": 29.369207, "city-county-name": "Williston", "twitter": "", "name": "Williston Pioneer Sun News", "video": "https://www.youtube.com/channel/UCKlm8DGdY2UQFbnz9cIJZxw"}, {"city-county-long": -81.5362, "open-search": [], "rss": ["http://windermeresun.com/feed/", "http://windermeresun.com/comments/feed/"], "media-class": "newspaper", "media-subclass": "city-county", "facebook": "https://www.facebook.com/WindermereSun", "website": "http://windermeresun.com/", "city-county-lat": 28.495982, "city-county-name": "Windermere", "twitter": "http://www.twitter.com/WindermereSun", "name": "Windermere Sun", "video": "WindermereSun"}, {"city-county-long": -81.5362, "open-search": [], "rss": ["http://windermeresun.com/feed/", "http://windermeresun.com/comments/feed/"], "media-class": "newspaper", "media-subclass": "city-county", "facebook": "https://www.facebook.com/WindermereSun", "website": "http://windermeresun.com/", "city-county-lat": 28.495982, "city-county-name": "Windermere", "twitter": "http://www.twitter.com/WindermereSun", "name": "Windermere Sun", "video": "https://www.youtube.com/channel/UCPjQQEL6O1BmEQtFC2UG7Ww"}, {"city-county-long": -81.754949, "open-search": [], "rss": ["http://www.newschief.com/rss/articles/NEWS/1021/30"], "media-class": "newspaper", "media-subclass": "city-county", "facebook": "https://www.facebook.com/newschief", "website": "http://www.newschief.com/", "city-county-lat": 28.017179, "city-county-name": "Winter Haven", "twitter": "http://www.twitter.com/newschiefweb", "name": "News Chief", "video": "http://www.youtube.com/user/TheNewsChief"}, {"city-county-long": -82.16568, "open-search": [], "rss": ["http://www.zephyrhillsnewsonline.com/welcome/feed/", "http://www.zephyrhillsnewsonline.com/comments/feed/", "http://www.zephyrhillsnewsonline.com/feed/"], "media-class": "newspaper", "media-subclass": "city-county", "facebook": "", "website": "http://zephyrhillsnewsonline.com/", "city-county-lat": 28.21305, "city-county-name": "Zephyrhills", "twitter": "", "name": "Zephyrhills News", "video": ""}, {"city-county-long": -81.0482, "open-search": [], "rss": [], "media-class": "newspaper", "media-subclass": "college", "facebook": "https://www.facebook.com/TheAvion", "website": "http://theavion.com/", "city-county-lat": 29.1899, "city-county-name": "Embry-Riddle", "twitter": "", "name": "Avion", "video": ""}, {"city-county-long": -84.2872, "open-search": [], "rss": [], "media-class": "newspaper", "media-subclass": "college", "facebook": "https://www.facebook.com/pages/The-FAMUan-Student-Newspaper/139571212873861", "website": "http://www.thefamuanonline.com/", "city-county-lat": 30.4256, "city-county-name": "Florida A&M; Univ", "twitter": "http://www.twitter.com/TFamuan", "name": "The Famuan Online", "video": "http://www.youtube.com/user/thefamuanonline"}, {"city-county-long": -80.1029, "open-search": [], "rss": ["http://www.upressonline.com/feed/", "http://www.upressonline.com/feed/atom/"], "media-class": "newspaper", "media-subclass": "college", "facebook": "https://www.facebook.com/universitypress", "website": "http://upressonline.com/", "city-county-lat": 26.3724, "city-county-name": "Florida Atlantic Univ", "twitter": "http://www.twitter.com/upressonline", "name": "University Press", "video": "http://www.youtube.com/user/UPTV4FAU"}, {"city-county-long": -80.1029, "open-search": [], "rss": ["http://www.betweenclasses.org/feed/", "http://www.betweenclasses.org/comments/feed/", "http://www.betweenclasses.org/home/feed/"], "media-class": "newspaper", "media-subclass": "college", "facebook": "https://www.facebook.com/pages/Between-Classes/288070971337974", "website": "http://www.betweenclasses.org/", "city-county-lat": 26.3724, "city-county-name": "Florida Colleges", "twitter": "http://www.twitter.com/betweentampa", "name": "Between Classes Magazine", "video": "https://www.youtube.com/user/betweenclassestampa"}, {"city-county-long": -84.2985, "open-search": [], "rss": [], "media-class": "newspaper", "media-subclass": "college", "facebook": "https://www.facebook.com/fsview", "website": "http://www.fsunews.com/", "city-county-lat": 30.4419, "city-county-name": "Florida State Univ", "twitter": "http://www.twitter.com/FSView", "name": "FSView", "video": "http://www.youtube.com/user/fsview"}, {"city-county-long": -80.6232, "open-search": [], "rss": [], "media-class": "newspaper", "media-subclass": "college", "facebook": "https://www.facebook.com/FTCrimson", "website": "http://crimson.fit.edu/", "city-county-lat": 28.0646, "city-county-name": "Florida Tech", "twitter": "http://www.twitter.com/FTCrimson", "name": "The Crimson", "video": ""}, {"city-county-long": -81.2001, "open-search": [], "rss": [], "media-class": "newspaper", "media-subclass": "college", "facebook": "https://www.facebook.com/UCFNews", "website": "http://www.centralfloridafuture.com/", "city-county-lat": 28.6024, "city-county-name": "Univ of Central Florida", "twitter": "http://www.twitter.com/UCFnews", "name": "Central Florida Future", "video": ""}, {"city-county-long": -82.3549, "open-search": [], "rss": ["http://www.alligator.org/search/?f=rss&t=article&l=50&s=start_time&sd=desc&k[]=%23topstory"], "media-class": "newspaper", "media-subclass": "college", "facebook": "https://www.facebook.com/floridaalligator", "website": "http://www.alligator.org/", "city-county-lat": 29.6436, "city-county-name": "Univ of FL - Gainsville", "twitter": "http://www.twitter.com/thealligator", "name": "Independent Alligator", "video": ""}, {"city-county-long": -80.2779, "open-search": [], "rss": ["http://www.themiamihurricane.com/comments/feed/", "http://www.themiamihurricane.com/home/feed/", "http://www.themiamihurricane.com/feed/"], "media-class": "newspaper", "media-subclass": "college", "facebook": "https://www.facebook.com/themiamihurricane", "website": "http://www.themiamihurricane.com/", "city-county-lat": 25.7209, "city-county-name": "Univ of Miami", "twitter": "http://www.twitter.com/MiamiHurricane", "name": "Miami Hurricane", "video": ""}, {"city-county-long": -82.4139, "open-search": [], "rss": [], "media-class": "newspaper", "media-subclass": "college", "facebook": "https://www.facebook.com/usforacle", "website": "http://www.usforacle.com/", "city-county-lat": 28.0587, "city-county-name": "Univ of South Florida", "twitter": "http://www.twitter.com/USFOracle", "name": "The Oracle", "video": "http://www.youtube.com/user/USForacle"}, {"city-county-long": -82.4672, "open-search": ["https://theminaretonline.com/osd.xml", "https://s1.wp.com/opensearch.xml"], "rss": ["https://theminaretonline.com/feed/", "https://theminaretonline.com/comments/feed/"], "media-class": "newspaper", "media-subclass": "college", "facebook": "https://www.facebook.com/pages/The-Minaret/9157028961", "website": "http://theminaretonline.com/", "city-county-lat": 27.9475, "city-county-name": "Univ of Tampa", "twitter": "http://www.twitter.com/Minaret", "name": "The Minaret", "video": ""}, {"city-county-long": -81.5084, "open-search": [], "rss": ["http://forecast.weather.gov/MapClick.php?CityName=Jacksonville&state=FL&site=JAX&lat=30.331&lon=-81.656#.V1V0DKMrKi5", "http://unfspinnaker.com/comments/feed/"], "media-class": "newspaper", "media-subclass": "college", "facebook": "https://www.facebook.com/UNFSpinnaker", "website": "http://unfspinnaker.com/", "city-county-lat": 30.2701, "city-county-name": "University of North Florida", "twitter": "http://www.twitter.com/UNFspinnaker", "name": "Spinnaker", "video": "http://www.youtube.com/UNFspinnaker"}], "radio": [{"city-county-long": -85.02704, "open-search": [], "rss": [], "media-class": "radio", "media-subclass": "Classic Hits", "facebook": "http://www.facebook.com/OysterRadio", "website": "http://www.oysterradio.com/", "city-county-lat": 29.71877, "city-county-name": "Apalachicola", "twitter": "http://www.twitter.com/oysterradioFM", "name": "WOYS 100.5 FM", "video": ""}, {"city-county-long": -81.82638, "open-search": [], "rss": [], "media-class": "radio", "media-subclass": "Oldies", "facebook": "https://www.facebook.com/1029WBF", "website": "http://wwbf.com/", "city-county-lat": 27.894991, "city-county-name": "Bartow", "twitter": "http://www.twitter.com/1029wbf", "name": "WWBF 102.9 FM", "video": ""}, {"city-county-long": -81.34359, "open-search": [], "rss": ["http://us1radio.com/comments/feed/", "http://us1radio.com/feed/", "http://us1radio.com/sample-page/feed/"], "media-class": "radio", "media-subclass": "News", "facebook": "https://www.facebook.com/pages/US1Radio/348398905432", "website": "http://www.us1radio.com/", "city-county-lat": 24.675731, "city-county-name": "Big Pine Key", "twitter": "", "name": "WWUS 104.1 FM", "video": ""}, {"city-county-long": -80.10717, "open-search": [], "rss": ["http://fauowlradio.com/feed/", "http://fauowlradio.com/comments/feed/"], "media-class": "radio", "media-subclass": "", "facebook": "http://www.facebook.com/fauowlradio", "website": "http://www.fauowlradio.com/", "city-county-lat": 26.375954, "city-county-name": "Boca Raton", "twitter": "http://www.twitter.com/fauowlradio", "name": "OWL Radio", "video": ""}, {"city-county-long": -82.47104, "open-search": [], "rss": ["http://1490wwpr.com/home/feed/", "http://1490wwpr.com/feed/", "http://1490wwpr.com/comments/feed/"], "media-class": "radio", "media-subclass": "News/Talk", "facebook": "https://www.facebook.com/pages/WWPR-1490-AM-Bradenton-Sarasota-Tampa/97098912126", "website": "http://1490wwpr.com/", "city-county-lat": 27.400627, "city-county-name": "Bradenton", "twitter": "", "name": "WWPR 1490 AM", "video": ""}, {"city-county-long": -82.38002, "open-search": [], "rss": ["http://www.wxjbfm.com/feed/", "http://www.wxjbfm.com/comments/feed/"], "media-class": "radio", "media-subclass": "Talk", "facebook": "", "website": "http://jbnewsradio.com/", "city-county-lat": 28.566183, "city-county-name": "Brooksville", "twitter": "", "name": "WWJB 1450 AM", "video": ""}, {"city-county-long": -80.9973, "open-search": [], "rss": [], "media-class": "radio", "media-subclass": "Spanish", "facebook": "https://www.facebook.com/pages/1061-Radio-Fiesta/186835528085535", "website": "http://www.wafcfm.com/ ", "city-county-lat": 26.714088, "city-county-name": "Clewiston", "twitter": "", "name": "WAFC 106.1 FM", "video": ""}, {"city-county-long": -80.2521, "open-search": [], "rss": [], "media-class": "radio", "media-subclass": "Tropical", "facebook": "https://www.facebook.com/wavs1170amradio", "website": "http://www.wavs1170.com/", "city-county-lat": 26.0765, "city-county-name": "Davie", "twitter": "http://www.twitter.com/wavs1170amradio", "name": "WAVS 1170 AM", "video": "https://www.youtube.com/user/wavs1170/videos"}, {"city-county-long": -81.03602, "open-search": [], "rss": ["http://www.wjlu.org/feed.xml"], "media-class": "radio", "media-subclass": "Christian", "facebook": "https://www.facebook.com/pages/Cornerstone-Broadcasting/286056441483589", "website": "http://www.wjlu.org/", "city-county-lat": 29.204009, "city-county-name": "Daytona Beach", "twitter": "", "name": "WJLU 89.7 FM", "video": ""}, {"city-county-long": -81.03602, "open-search": [], "rss": [], "media-class": "radio", "media-subclass": "Christian", "facebook": "https://www.facebook.com/pages/Cornerstone-Broadcasting/286056441483589", "website": "http://www.cornerstoneministry.org/", "city-county-lat": 29.204009, "city-county-name": "Daytona Beach", "twitter": "", "name": "WMFJ 89.7 FM", "video": ""}, {"city-county-long": -80.07891, "open-search": [], "rss": ["http://universo1420.com/homepage/feed", "http://universo1420.com/feed", "http://universo1420.com/comments/feed"], "media-class": "radio", "media-subclass": "Spanish Christian", "facebook": "http://www.facebook.com/pages/UNIVERSO-1420/312453302098514", "website": "http://www.universo1420.com/", "city-county-lat": 26.460951, "city-county-name": "Delray Beach", "twitter": "", "name": "WDJA 1420 AM", "video": ""}, {"city-county-long": -82.3665, "open-search": [], "rss": ["http://www.wengradio.com/comments/feed/", "http://www.wengradio.com/from-the-weng-newsroom/feed/", "http://www.wengradio.com/feed/"], "media-class": "radio", "media-subclass": "News/Talk", "facebook": "https://www.facebook.com/wengradio", "website": "http://www.wengradio.com/", "city-county-lat": 26.974858, "city-county-name": "Englewood", "twitter": "", "name": "WENG 1530 AM", "video": ""}, {"city-county-long": -80.13187, "open-search": [], "rss": ["http://www.GraceNetRadio.com/?feed=rss2", "http://www.GraceNetRadio.com/?feed=atom"], "media-class": "radio", "media-subclass": "Religious", "facebook": "http://www.facebook.com/GraceNetRadio", "website": "http://www.gracefmradio.com/", "city-county-lat": 26.121114, "city-county-name": "Fort Lauderdale", "twitter": "http://www.twitter.com/GraceNetRadio", "name": "WYBP 90.3 FM", "video": ""}, {"city-county-long": -81.8727, "open-search": [], "rss": ["http://945thearrow.com/?feed=rss2", "http://945thearrow.com/?feed=comments-rss2"], "media-class": "radio", "media-subclass": "Classic Rock", "facebook": "https://www.facebook.com/945thearrow", "website": "http://www.classicrock945.com/", "city-county-lat": 26.62365, "city-county-name": "Fort Myers", "twitter": "", "name": "WARO 94.5 FM", "video": ""}, {"city-county-long": -81.8727, "open-search": [], "rss": [], "media-class": "radio", "media-subclass": "Classic Rock", "facebook": "", "website": "http://www.wavv101.com/", "city-county-lat": 26.62365, "city-county-name": "Fort Myers", "twitter": "", "name": "WAVV 94.5 FM", "video": ""}, {"city-county-long": -81.8727, "open-search": [], "rss": [], "media-class": "radio", "media-subclass": "Classic Rock", "facebook": "https://www.facebook.com/1055thebeat", "website": "http://www.1055thebeat.com/", "city-county-lat": 26.62365, "city-county-name": "Fort Myers", "twitter": "http://www.twitter.com/1055thebeat", "name": "WBTT 94.5 FM", "video": ""}, {"city-county-long": -81.8727, "open-search": [], "rss": [], "media-class": "radio", "media-subclass": "Classic Rock", "facebook": "https://www.facebook.com/catcountry1071", "website": "http://www.catcountry1071.com/", "city-county-lat": 26.62365, "city-county-name": "Fort Myers", "twitter": "http://www.twitter.com/catcountry1071", "name": "WCKT 94.5 FM", "video": ""}, {"city-county-long": -81.8727, "open-search": [], "rss": [], "media-class": "radio", "media-subclass": "Classic Rock", "facebook": "https://www.facebook.com/wgcupublicmedia", "website": "http://www.wgcu.org/ ", "city-county-lat": 26.62365, "city-county-name": "Fort Myers", "twitter": "http://www.twitter.com/WGCU", "name": "WGCU 94.5 FM", "video": "https://www.youtube.com/user/wgcu/videos"}, {"city-county-long": -81.8727, "open-search": [], "rss": ["http://winkfm.com/?feed=rss2", "http://winkfm.com/?feed=rss2&page_id=203", "http://winkfm.com/?feed=comments-rss2"], "media-class": "radio", "media-subclass": "Classic Rock", "facebook": "https://www.facebook.com/969morefm", "website": "http://www.969morefm.com/", "city-county-lat": 26.62365, "city-county-name": "Fort Myers", "twitter": "http://www.twitter.com/969MoreFM", "name": "WINK 94.5 FM", "video": ""}, {"city-county-long": -81.8727, "open-search": [], "rss": ["http://sunny1063.com/home/feed/"], "media-class": "radio", "media-subclass": "Classic Rock", "facebook": "https://www.facebook.com/sunny106fl", "website": "http://sunny1063.com/", "city-county-lat": 26.62365, "city-county-name": "Fort Myers", "twitter": "http://www.twitter.com/sunny106fl", "name": "WJPT 94.5 FM", "video": "https://www.youtube.com/user/Sunny1063fl/videos"}, {"city-county-long": -81.8727, "open-search": [], "rss": [], "media-class": "radio", "media-subclass": "Classic Rock", "facebook": "", "website": "http://www.953theriver.com/", "city-county-lat": 26.62365, "city-county-name": "Fort Myers", "twitter": "http://www.twitter.com/953TheRiver", "name": "WOLZ 94.5 FM", "video": ""}, {"city-county-long": -81.8727, "open-search": [], "rss": ["http://96krock.com/home/feed/"], "media-class": "radio", "media-subclass": "Classic Rock", "facebook": "https://www.facebook.com/pages/96-K-ROCK/75762409864", "website": "http://96krock.com/", "city-county-lat": 26.62365, "city-county-name": "Fort Myers", "twitter": "", "name": "WRXK 94.5 FM", "video": ""}, {"city-county-long": -81.8727, "open-search": [], "rss": [], "media-class": "radio", "media-subclass": "Classic Rock", "facebook": "https://www.facebook.com/1047mixfm", "website": "http://www.1047mixfm.com/", "city-county-lat": 26.62365, "city-county-name": "Fort Myers", "twitter": "http://www.twitter.com/1047mixfm", "name": "WSGL 94.5 FM", "video": ""}, {"city-county-long": -81.8727, "open-search": [], "rss": ["http://993espn.com/home/feed/"], "media-class": "radio", "media-subclass": "Classic Rock", "facebook": "https://www.facebook.com/993espnradio", "website": "http://993espn.com/", "city-county-lat": 26.62365, "city-county-name": "Fort Myers", "twitter": "http://www.twitter.com/993espnradio", "name": "WWCN 94.5 FM", "video": ""}, {"city-county-long": -81.8727, "open-search": [], "rss": ["http://b1039.com/home/feed/"], "media-class": "radio", "media-subclass": "Classic Rock", "facebook": "https://www.facebook.com/pages/B1039/81202423226", "website": "http://b1039.com/", "city-county-lat": 26.62365, "city-county-name": "Fort Myers", "twitter": "http://www.twitter.com/b1039radio", "name": "WXKB 94.5 FM", "video": ""}, {"city-county-long": -81.8727, "open-search": [], "rss": [], "media-class": "radio", "media-subclass": "Classic Rock", "facebook": "https://www.facebook.com/y100florida", "website": "http://www.y100florida.com/", "city-county-lat": 26.62365, "city-county-name": "Fort Myers", "twitter": "http://www.twitter.com/Y100Florida", "name": "WZJZ 94.5 FM", "video": ""}, {"city-county-long": -86.62113, "open-search": [], "rss": ["http://www.wftw.com/comments/feed/", "http://www.wftw.com/home/feed/", "http://www.wftw.com/feed/"], "media-class": "radio", "media-subclass": "News Talk", "facebook": "http://www.facebook.com/newstalk1260", "website": "http://www.wftw.com/", "city-county-lat": 30.447248, "city-county-name": "Fort Walton Beach", "twitter": "", "name": "WFTW 1260 AM", "video": ""}, {"city-county-long": -86.62113, "open-search": [], "rss": ["http://www.wncv.com/feed/", "http://www.wncv.com/home/feed/", "http://www.wncv.com/comments/feed/"], "media-class": "radio", "media-subclass": "News Talk", "facebook": "http://www.facebook.com/coast933fwb", "website": "http://www.wncv.com/", "city-county-lat": 30.447248, "city-county-name": "Fort Walton Beach", "twitter": "", "name": "WNCV 1260 AM", "video": ""}, {"city-county-long": -86.62113, "open-search": [], "rss": ["http://www.seabreeze.fm/comments/feed/", "http://www.seabreeze.fm/feed/"], "media-class": "radio", "media-subclass": "News Talk", "facebook": "", "website": "http://www.seabreeze.fm/", "city-county-lat": 30.447248, "city-county-name": "Fort Walton Beach", "twitter": "", "name": "WSBZ 1260 AM", "video": ""}, {"city-county-long": -86.62113, "open-search": [], "rss": ["http://www.nashfm1055.com/home/feed/", "http://www.nashfm1055.com/feed/", "http://www.nashfm1055.com/comments/feed/"], "media-class": "radio", "media-subclass": "News Talk", "facebook": "http://www.facebook.com/1055thewolf", "website": "http://www.wyzb.com/", "city-county-lat": 30.447248, "city-county-name": "Fort Walton Beach", "twitter": "http://www.twitter.com/1055thewolf", "name": "WYZB 1260 AM", "video": ""}, {"city-county-long": -82.3244, "open-search": [], "rss": ["http://www.937kcountry.com/comments/feed/", "http://www.937kcountry.com/feed/"], "media-class": "radio", "media-subclass": "Country", "facebook": "http://www.facebook.com/937kcountry", "website": "http://www.937kcountry.com/", "city-county-lat": 29.653195, "city-county-name": "Gainesville", "twitter": "http://www.twitter.com/937_kcountry", "name": "KCountry 93.7 FM", "video": "http://www.youtube.com/user/937KCOUNTRY"}, {"city-county-long": -82.3244, "open-search": [], "rss": [], "media-class": "radio", "media-subclass": "Country", "facebook": "https://www.facebook.com/floridasparty", "website": "http://www.floridasparty.com/", "city-county-lat": 29.653195, "city-county-name": "Gainesville", "twitter": "http://www.twitter.com/floridasparty", "name": "WBXY 93.7 FM", "video": ""}, {"city-county-long": -82.3244, "open-search": [], "rss": [], "media-class": "radio", "media-subclass": "Country", "facebook": "https://www.facebook.com/FloridaSportsTalk", "website": "http://www.floridasportstalk.fm/", "city-county-lat": 29.653195, "city-county-name": "Gainesville", "twitter": "", "name": "WGGG 93.7 FM", "video": ""}, {"city-county-long": -82.3244, "open-search": [], "rss": ["http://www.1005thebuzz.com/feed/", "http://www.1005thebuzz.com/home/feed/", "http://www.1005thebuzz.com/comments/feed/"], "media-class": "radio", "media-subclass": "Country", "facebook": "http://www.facebook.com/100.5TheBuzz", "website": "http://www.1005thebuzz.com/", "city-county-lat": 29.653195, "city-county-name": "Gainesville", "twitter": "http://www.twitter.com/LexandTerry", "name": "WHHZ 93.7 FM", "video": ""}, {"city-county-long": -82.3244, "open-search": [], "rss": [], "media-class": "radio", "media-subclass": "Country", "facebook": "https://www.facebook.com/TheJOYFM", "website": "http://florida.thejoyfm.com/", "city-county-lat": 29.653195, "city-county-name": "Gainesville", "twitter": "http://www.twitter.com/thejoyfm", "name": "WJLF 93.7 FM", "video": "https://www.youtube.com/user/thejoyfm/videos"}, {"city-county-long": -82.3244, "open-search": [], "rss": [], "media-class": "radio", "media-subclass": "Country", "facebook": "http://www.facebook.com/ktk985", "website": "http://www.ktk985.com/", "city-county-lat": 29.653195, "city-county-name": "Gainesville", "twitter": "http://www.twitter.com/ktk985dotcom", "name": "WKTK 93.7 FM", "video": ""}, {"city-county-long": -82.3244, "open-search": [], "rss": [], "media-class": "radio", "media-subclass": "Country", "facebook": "", "website": "http://radio92q.com/", "city-county-lat": 29.653195, "city-county-name": "Gainesville", "twitter": "http://www.twitter.com/allthehitsQ92", "name": "WMFQ 93.7 FM", "video": ""}, {"city-county-long": -82.3244, "open-search": [], "rss": ["http://www.windfm.com/feed/", "http://www.windfm.com/comments/feed/"], "media-class": "radio", "media-subclass": "Country", "facebook": "http://www.facebook.com/windfm", "website": "http://www.windfm.com/", "city-county-lat": 29.653195, "city-county-name": "Gainesville", "twitter": "http://www.twitter.com/windfm", "name": "WNDT 93.7 FM", "video": ""}, {"city-county-long": -82.3244, "open-search": [], "rss": ["http://1037thegator.com/home/feed/", "http://1037thegator.com/feed/", "http://1037thegator.com/comments/feed/"], "media-class": "radio", "media-subclass": "Country", "facebook": "http://www.facebook.com/1037thegator", "website": "http://www.country1037.com/", "city-county-lat": 29.653195, "city-county-name": "Gainesville", "twitter": "http://www.twitter.com/1037TheGator", "name": "WRUF 93.7 FM", "video": ""}, {"city-county-long": -82.3244, "open-search": [], "rss": [], "media-class": "radio", "media-subclass": "Country", "facebook": "https://www.facebook.com/thesky", "website": "http://www.thesky973.com/", "city-county-lat": 29.653195, "city-county-name": "Gainesville", "twitter": "http://www.twitter.com/THESKY973DOTCOM", "name": "WSKY 93.7 FM", "video": ""}, {"city-county-long": -82.3244, "open-search": [], "rss": [], "media-class": "radio", "media-subclass": "Country", "facebook": "https://www.facebook.com/1023MyCountry", "website": "http://www.mycountryfla.com/", "city-county-lat": 29.653195, "city-county-name": "Gainesville", "twitter": "http://www.twitter.com/1023mycountry", "name": "WTRS 93.7 FM", "video": ""}, {"city-county-long": -82.3244, "open-search": [], "rss": ["http://www.wuft.org/comments/feed/", "http://www.wuft.org/feed/"], "media-class": "radio", "media-subclass": "Country", "facebook": "https://www.facebook.com/WUFTMedia", "website": "http://www.wuft.org/", "city-county-lat": 29.653195, "city-county-name": "Gainesville", "twitter": "http://www.twitter.com/wuftmedia", "name": "WUFT 93.7 FM", "video": "http://www.youtube.com/user/WUFTonline"}, {"city-county-long": -82.3244, "open-search": [], "rss": [], "media-class": "radio", "media-subclass": "Country", "facebook": "https://www.facebook.com/floridasparty", "website": "http://floridasparty.com/", "city-county-lat": 29.653195, "city-county-name": "Gainesville", "twitter": "http://www.twitter.com/floridasparty", "name": "WXJZ 93.7 FM", "video": ""}, {"city-county-long": -82.3244, "open-search": [], "rss": [], "media-class": "radio", "media-subclass": "Country", "facebook": "https://www.facebook.com/1023MyCountry", "website": "http://www.mycountryfla.com/", "city-county-lat": 29.653195, "city-county-name": "Gainesville", "twitter": "http://www.twitter.com/1023MyCountry", "name": "WYGC 93.7 FM", "video": ""}, {"city-county-long": -82.3244, "open-search": [], "rss": [], "media-class": "radio", "media-subclass": "Country", "facebook": "http://www.facebook.com/KISS105.3", "website": "http://www.kiss1053.com/", "city-county-lat": 29.653195, "city-county-name": "Gainesville", "twitter": "http://www.twitter.com/KISS105_3", "name": "WYKS 93.7 FM", "video": ""}, {"city-county-long": -80.458168, "open-search": [], "rss": ["http://zeta92.lamusica.com/comments/feed", "http://zeta92.lamusica.com/feed"], "media-class": "radio", "media-subclass": "Salsa", "facebook": "http://www.facebook.com/Z92Miami", "website": "http://zeta92miami.com/", "city-county-lat": 25.558428, "city-county-name": "Hialeah", "twitter": "http://www.twitter.com/z92miami", "name": "WCMQ 92.3 FM", "video": ""}, {"city-county-long": -81.0376, "open-search": [], "rss": ["http://www.wapn.net/comments/feed/", "http://www.wapn.net/feed/"], "media-class": "radio", "media-subclass": "Religious", "facebook": "http://www.facebook.com/wapnfm", "website": "http://www.wapn.net/", "city-county-lat": 29.2436, "city-county-name": "Holly Hill", "twitter": "http://www.twitter.com/wapn915fm", "name": "WAPN 91.5 FM", "video": ""}, {"city-county-long": -81.39325, "open-search": [], "rss": [], "media-class": "radio", "media-subclass": "Spanish", "facebook": "http://www.facebook.com/pages/La-Ley-921-FM/102491666452587", "website": "http://www.wafz.com/", "city-county-lat": 26.398248, "city-county-name": "Immokalee", "twitter": "", "name": "WAFZ 92.1 FM", "video": ""}, {"city-county-long": -81.768622, "open-search": [], "rss": [], "media-class": "radio", "media-subclass": "Top 40", "facebook": "http://www.facebook.com/951wape", "website": "http://www.wape.com/", "city-county-lat": 30.337538, "city-county-name": "Jacksonville", "twitter": "http://www.twitter.com/951wape", "name": "WAPE 95.1 FM", "video": ""}, {"city-county-long": -81.768622, "open-search": [], "rss": [], "media-class": "radio", "media-subclass": "Top 40", "facebook": "http://www.facebook.com/wayradiojax", "website": "http://550.wayradio.org/", "city-county-lat": 30.337538, "city-county-name": "Jacksonville", "twitter": "http://www.twitter.com/wayradiojax", "name": "WAYR 95.1 FM", "video": ""}, {"city-county-long": -81.768622, "open-search": [], "rss": ["http://www.wcgl1360.com/feed/", "http://www.wcgl1360.com/comments/feed/"], "media-class": "radio", "media-subclass": "Top 40", "facebook": "https://www.facebook.com/pages/Victory-AM-1360-WCGL/124382614240652?fref=ts", "website": "http://www.wcgl1360.com/", "city-county-lat": 30.337538, "city-county-name": "Jacksonville", "twitter": "http://www.twitter.com/WCGLAM1360", "name": "WCGL 95.1 FM", "video": ""}, {"city-county-long": -81.768622, "open-search": [], "rss": [], "media-class": "radio", "media-subclass": "Top 40", "facebook": "https://www.facebook.com/lite961wejz", "website": "http://www.wejz.com/", "city-county-lat": 30.337538, "city-county-name": "Jacksonville", "twitter": "http://www.twitter.com/lite961", "name": "WEJZ 95.1 FM", "video": ""}, {"city-county-long": -81.768622, "open-search": [], "rss": [], "media-class": "radio", "media-subclass": "Top 40", "facebook": "https://www.facebook.com/SportsRadio930", "website": "http://www.sportsradiojax.com/", "city-county-lat": 30.337538, "city-county-name": "Jacksonville", "twitter": "http://www.twitter.com/SportsRadio930", "name": "WFXJ 95.1 FM", "video": "https://www.youtube.com/user/930thefox/videos"}, {"city-county-long": -81.768622, "open-search": [], "rss": [], "media-class": "radio", "media-subclass": "Top 40", "facebook": "http://www.facebook.com/999gatorcountry", "website": "http://www.999gatorcountry.com/", "city-county-lat": 30.337538, "city-county-name": "Jacksonville", "twitter": "", "name": "WGNE 95.1 FM", "video": ""}, {"city-county-long": -81.768622, "open-search": [], "rss": [], "media-class": "radio", "media-subclass": "Top 40", "facebook": "https://www.facebook.com/hot1065", "website": "http://www.myhot1065.com/", "city-county-lat": 30.337538, "city-county-name": "Jacksonville", "twitter": "http://www.twitter.com/hot1065", "name": "WHJX 95.1 FM", "video": ""}, {"city-county-long": -81.768622, "open-search": [], "rss": [], "media-class": "radio", "media-subclass": "Top 40", "facebook": "", "website": "http://www.wjaxradio.com/", "city-county-lat": 30.337538, "city-county-name": "Jacksonville", "twitter": "", "name": "WJAX 95.1 FM", "video": ""}, {"city-county-long": -81.768622, "open-search": [], "rss": [], "media-class": "radio", "media-subclass": "Top 40", "facebook": "https://www.facebook.com/933thebeat", "website": "http://www.wjbt.com/", "city-county-lat": 30.337538, "city-county-name": "Jacksonville", "twitter": "http://www.twitter.com/933thebeatjamz", "name": "WJBT 95.1 FM", "video": "https://www.youtube.com/user/933thebeatjamz/videos"}, {"city-county-long": -81.768622, "open-search": [], "rss": ["http://www.wjct.org/comments/feed/", "http://www.wjct.org/feed/", "http://www.wjct.org/homepage/feed/"], "media-class": "radio", "media-subclass": "Top 40", "facebook": "http://www.facebook.com/WJCTPublicBroadcasting", "website": "http://www.wjct.org/", "city-county-lat": 30.337538, "city-county-name": "Jacksonville", "twitter": "http://www.twitter.com/wjctjax", "name": "WJCT 95.1 FM", "video": "http://www.youtube.com/user/WJCTjax"}, {"city-county-long": -81.768622, "open-search": [], "rss": [], "media-class": "radio", "media-subclass": "Top 40", "facebook": "https://www.facebook.com/969theeagle", "website": "http://www.969theeagle.com/", "city-county-lat": 30.337538, "city-county-name": "Jacksonville", "twitter": "", "name": "WJGL 95.1 FM", "video": ""}, {"city-county-long": -81.768622, "open-search": [], "rss": [], "media-class": "radio", "media-subclass": "Top 40", "facebook": "", "website": "http://wktz.jones.edu/", "city-county-lat": 30.337538, "city-county-name": "Jacksonville", "twitter": "", "name": "WKTZ 95.1 FM", "video": ""}, {"city-county-long": -81.768622, "open-search": [], "rss": [], "media-class": "radio", "media-subclass": "Top 40", "facebook": "", "website": "http://www.bull1007.com/", "city-county-lat": 30.337538, "city-county-name": "Jacksonville", "twitter": "", "name": "WMUV 95.1 FM", "video": ""}, {"city-county-long": -81.768622, "open-search": [], "rss": [], "media-class": "radio", "media-subclass": "Top 40", "facebook": "https://www.facebook.com/979kissfm", "website": "http://www.979kissfm.com/", "city-county-lat": 30.337538, "city-county-name": "Jacksonville", "twitter": "http://www.twitter.com/979KISSFM", "name": "WNWW 95.1 FM", "video": ""}, {"city-county-long": -81.768622, "open-search": [], "rss": [], "media-class": "radio", "media-subclass": "Top 40", "facebook": "https://www.facebook.com/WOKVNews", "website": "http://www.wokv.com/", "city-county-lat": 30.337538, "city-county-name": "Jacksonville", "twitter": "http://www.twitter.com/WOKVNews", "name": "WOKV 95.1 FM", "video": ""}, {"city-county-long": -81.768622, "open-search": [], "rss": [], "media-class": "radio", "media-subclass": "Top 40", "facebook": "http://www.facebook.com/991wqik", "website": "http://www.991wqik.com/", "city-county-lat": 30.337538, "city-county-name": "Jacksonville", "twitter": "http://www.twitter.com/991wqik", "name": "WQIK 95.1 FM", "video": "http://www.youtube.com/user/991wqik"}, {"city-county-long": -81.768622, "open-search": [], "rss": [], "media-class": "radio", "media-subclass": "Top 40", "facebook": "https://www.facebook.com/v1015", "website": "http://www.v1015.com/", "city-county-lat": 30.337538, "city-county-name": "Jacksonville", "twitter": "http://www.twitter.com/v1015", "name": "WSOL 95.1 FM", "video": ""}, {"city-county-long": -81.768622, "open-search": [], "rss": ["http://www.ilovethepromise.com/feed/", "http://www.ilovethepromise.com/comments/feed/"], "media-class": "radio", "media-subclass": "Top 40", "facebook": "http://www.facebook.com/pages/The-Promise/210363642321858", "website": "http://www.fm88.org/", "city-county-lat": 30.337538, "city-county-name": "Jacksonville", "twitter": "", "name": "WTRJ 95.1 FM", "video": ""}, {"city-county-long": -81.768622, "open-search": [], "rss": [], "media-class": "radio", "media-subclass": "Top 40", "facebook": "https://www.facebook.com/1073jack", "website": "http://www.1073jack.com/", "city-county-lat": 30.337538, "city-county-name": "Jacksonville", "twitter": "http://www.twitter.com/1073jack", "name": "WWJK 95.1 FM", "video": ""},