{"newspaper": [{"city-county-long": -103.18362, "open-search": [], "rss": [], "media-class": "newspaper", "media-subclass": "city-county", "facebook": "https://www.facebook.com/AkronNewsReporter", "website": "http://www.akronnewsreporter.com/", "city-county-lat": 40.124199, "city-county-name": "Akron", "twitter": "http://www.twitter.com/AkronNewsReport", "name": "Akron News-Reporter", "video": ""}, {"city-county-long": -105.83471, "open-search": [], "rss": [], "media-class": "newspaper", "media-subclass": "city-county", "facebook": "", "website": "http://www.conejoscountycitizen.com/", "city-county-lat": 37.471802, "city-county-name": "Alamosa", "twitter": "", "name": "Conejos County Citizen", "video": ""}, {"city-county-long": -105.83471, "open-search": [], "rss": [], "media-class": "newspaper", "media-subclass": "city-county", "facebook": "https://www.facebook.com/pages/Alamosa-Valley-Courier/141175752647498", "website": "http://www.alamosanews.com/", "city-county-lat": 37.471802, "city-county-name": "Alamosa", "twitter": "", "name": "Valley Courier", "video": ""}, {"city-county-long": -105.223945, "open-search": [], "rss": [], "media-class": "newspaper", "media-subclass": "city-county", "facebook": "https://www.facebook.com/pages/Arvada-Press/292522390857834", "website": "http://arvadapress.com/", "city-county-lat": 39.522014, "city-county-name": "Arvada", "twitter": "http://www.twitter.com/ArvadaPress", "name": "Arvada Press", "video": ""}, {"city-county-long": -106.8191, "open-search": [], "rss": [], "media-class": "newspaper", "media-subclass": "city-county", "facebook": "https://www.facebook.com/aspendailynews", "website": "http://www.aspendailynews.com/", "city-county-lat": 39.196857, "city-county-name": "Aspen", "twitter": "http://www.twitter.com/aspendailynews", "name": "Aspen Daily News", "video": ""}, {"city-county-long": -106.8191, "open-search": [], "rss": [], "media-class": "newspaper", "media-subclass": "city-county", "facebook": "https://www.facebook.com/AspenTimes", "website": "http://www.aspentimes.com/", "city-county-lat": 39.196857, "city-county-name": "Aspen", "twitter": "http://www.twitter.com/TheAspenTimes", "name": "Aspen Times", "video": "http://www.youtube.com/user/TheAspenTimes"}, {"city-county-long": -104.773083, "open-search": [], "rss": ["http://www.aurorasentinel.com/home/feed/", "http://www.aurorasentinel.com/feed/", "http://www.aurorasentinel.com/comments/feed/"], "media-class": "newspaper", "media-subclass": "city-county", "facebook": "https://www.facebook.com/theaurorasentinel", "website": "http://www.aurorasentinel.com/", "city-county-lat": 39.669637, "city-county-name": "Aurora", "twitter": "http://www.twitter.com/aurorasentinel", "name": "Aurora Sentinel", "video": "http://www.youtube.com/user/aurorasentinel"}, {"city-county-long": -105.476, "open-search": ["http://www.theflume.com/search/opensearch/generic.xml"], "rss": [], "media-class": "newspaper", "media-subclass": "city-county", "facebook": "https://www.facebook.com/TheFlume", "website": "http://www.theflume.com/", "city-county-lat": 39.460306, "city-county-name": "Bailey", "twitter": "http://www.twitter.com/fairplayflume", "name": "The Flume", "video": ""}, {"city-county-long": -107.59026, "open-search": [], "rss": [], "media-class": "newspaper", "media-subclass": "city-county", "facebook": "https://www.facebook.com/pinerivertimes", "website": "http://www.pinerivertimes.com/", "city-county-lat": 37.329743, "city-county-name": "Bayfield", "twitter": "", "name": "Pine River Times", "video": ""}, {"city-county-long": -105.08431, "open-search": [], "rss": ["http://www.berthoudrecorder.com/feed/"], "media-class": "newspaper", "media-subclass": "city-county", "facebook": "", "website": "http://www.berthoudrecorder.com/", "city-county-lat": 40.294423, "city-county-name": "Berthoud", "twitter": "http://www.twitter.com/berthoudrecordr", "name": "Berthoud Recorder", "video": ""}, {"city-county-long": -105.08431, "open-search": [], "rss": ["http://www.berthoudsurveyor.com/feed/", "http://www.berthoudsurveyor.com/comments/feed/"], "media-class": "newspaper", "media-subclass": "city-county", "facebook": "https://www.facebook.com/BerthoudSurveyor", "website": "http://www.berthoudsurveyor.com/", "city-county-lat": 40.294423, "city-county-name": "Berthoud", "twitter": "", "name": "Weekly Surveyor", "video": "https://www.youtube.com/channel/UCdkVwZnw0YLVeuQ-J8uaaFQ"}, {"city-county-long": -104.7008, "open-search": [], "rss": [], "media-class": "newspaper", "media-subclass": "city-county", "facebook": "https://www.facebook.com/blackforestnewsllc/", "website": "http://blackforestnews-co.com/", "city-county-lat": 39.013, "city-county-name": "Black Forest", "twitter": "", "name": "Black Forest News", "video": ""}, {"city-county-long": -105.21928, "open-search": [], "rss": ["http://bizwest.com/comments/feed/", "http://bizwest.com/feed/"], "media-class": "newspaper", "media-subclass": "city-county", "facebook": "https://www.facebook.com/bizwestmedia", "website": "http://bizwest.com/", "city-county-lat": 40.044385, "city-county-name": "Boulder", "twitter": "http://www.twitter.com/bizwestmedia", "name": "BizWest", "video": "http://www.youtube.com/user/BCBRvideo"}, {"city-county-long": -105.21928, "open-search": [], "rss": ["http://www.boulderweekly.com/feed/", "http://www.boulderweekly.com/home/feed/", "http://www.boulderweekly.com/comments/feed/"], "media-class": "newspaper", "media-subclass": "city-county", "facebook": "https://www.facebook.com/boulderweeklymedia", "website": "http://www.boulderweekly.com/", "city-county-lat": 40.044385, "city-county-name": "Boulder", "twitter": "http://www.twitter.com/boulderweekly", "name": "Boulder Weekly", "video": "http://www.youtube.com/user/BoulderWeekly1"}, {"city-county-long": -105.21928, "open-search": [], "rss": [], "media-class": "newspaper", "media-subclass": "city-county", "facebook": "https://www.facebook.com/coloradodaily", "website": "http://www.coloradodaily.com", "city-county-lat": 40.044385, "city-county-name": "Boulder", "twitter": "http://www.twitter.com/coloradodaily", "name": "Colorado Daily", "video": ""}, {"city-county-long": -105.21928, "open-search": [], "rss": [], "media-class": "newspaper", "media-subclass": "city-county", "facebook": "https://www.facebook.com/dailycamera", "website": "http://www.dailycamera.com/", "city-county-lat": 40.044385, "city-county-name": "Boulder", "twitter": "http://www.twitter.com/dailycamera", "name": "Daily Camera", "video": "http://www.youtube.com/user/TheDailyCamera"}, {"city-county-long": -104.82407, "open-search": [], "rss": [], "media-class": "newspaper", "media-subclass": "city-county", "facebook": "https://www.facebook.com/brightonblade", "website": "http://www.thebrightonblade.com/", "city-county-lat": 39.973251, "city-county-name": "Brighton", "twitter": "http://www.twitter.com/BrightonBlade", "name": "Standard Blade", "video": ""}, {"city-county-long": -105.05454, "open-search": [], "rss": [], "media-class": "newspaper", "media-subclass": "city-county", "facebook": "https://www.facebook.com/BroomfieldEnterprise", "website": "http://www.broomfieldenterprise.com/", "city-county-lat": 39.93404, "city-county-name": "Broomfield", "twitter": "http://www.twitter.com/bfld_enterprise", "name": "Broomfield Enterprise", "video": ""}, {"city-county-long": -103.60824, "open-search": [], "rss": [], "media-class": "newspaper", "media-subclass": "city-county", "facebook": "https://www.facebook.com/BrushNewsTribune", "website": "http://www.brushnewstribune.com/", "city-county-lat": 40.23045, "city-county-name": "Brush", "twitter": "", "name": "Brush News Tribune", "video": ""}, {"city-county-long": -106.14664, "open-search": ["http://www.chaffeecountytimes.com/search/opensearch/generic.xml"], "rss": [], "media-class": "newspaper", "media-subclass": "city-county", "facebook": "https://www.facebook.com/pages/The-Chaffee-County-Times/156318137788379", "website": "http://www.chaffeecountytimes.com/", "city-county-lat": 38.867111, "city-county-name": "Buena Vista", "twitter": "http://www.twitter.com/ChaffeeCoTimes", "name": "Chaffee County Times", "video": "https://www.youtube.com/channel/UCdiYEB3J7Ew_0WhaqhzFdLg"}, {"city-county-long": -102.25094, "open-search": [], "rss": [], "media-class": "newspaper", "media-subclass": "city-county", "facebook": "https://www.facebook.com/BurlingtonRecord", "website": "http://www.burlington-record.com/", "city-county-lat": 39.3124, "city-county-name": "Burlington", "twitter": "http://www.twitter.com/BrlingtonRecord", "name": "Burlington Record", "video": ""}, {"city-county-long": -105.27973, "open-search": [], "rss": [], "media-class": "newspaper", "media-subclass": "city-county", "facebook": "https://www.facebook.com/CanonCityDailyRecord", "website": "http://www.canoncitydailyrecord.com/", "city-county-lat": 38.464212, "city-county-name": "Canon City", "twitter": "http://www.twitter.com/ccdr_news", "name": "Daily Record", "video": "https://www.youtube.com/user/CanonCityDailyRecord"}, {"city-county-long": -107.1882, "open-search": [], "rss": [], "media-class": "newspaper", "media-subclass": "city-county", "facebook": "https://www.facebook.com/soprissun", "website": "http://www.soprissun.com/", "city-county-lat": 39.335504, "city-county-name": "Carbondale", "twitter": "http://www.twitter.com/SoprisSun", "name": "Sopris Sun", "video": ""}, {"city-county-long": -104.85962, "open-search": [], "rss": [], "media-class": "newspaper", "media-subclass": "city-county", "facebook": "", "website": "http://douglascountynewspress.net/", "city-county-lat": 39.385141, "city-county-name": "Castle Rock", "twitter": "", "name": "Douglas County News-Press", "video": ""}, {"city-county-long": -104.85962, "open-search": [], "rss": [], "media-class": "newspaper", "media-subclass": "city-county", "facebook": "https://www.facebook.com/pages/Colorado-Community-Media/258084364225185", "website": "http://castlerocknewspress.net/", "city-county-lat": 39.385141, "city-county-name": "Castle Rock", "twitter": "", "name": "News Press", "video": ""}, {"city-county-long": -106.08966, "open-search": [], "rss": [], "media-class": "newspaper", "media-subclass": "city-county", "facebook": "", "website": "http://www.centerpostdispatch.com/", "city-county-lat": 37.773899, "city-county-name": "Center", "twitter": "", "name": "Center Post Dispatch", "video": ""}, {"city-county-long": -104.84063, "open-search": [], "rss": ["http://www.csbj.com/feed/", "http://www.csbj.com/home/feed/", "http://www.csbj.com/feed/atom/", "http://www.csbj.com/comments/feed/"], "media-class": "newspaper", "media-subclass": "city-county", "facebook": "https://www.facebook.com/coloradospringsbusinessjournal", "website": "http://csbj.com/", "city-county-lat": 38.828692, "city-county-name": "Colorado Springs", "twitter": "http://www.twitter.com/csbizjournal", "name": "Business Journal", "video": "http://www.youtube.com/user/csbjwebadmin"}, {"city-county-long": -104.84063, "open-search": [], "rss": [], "media-class": "newspaper", "media-subclass": "city-county", "facebook": "https://www.facebook.com/springsgazette", "website": "http://gazette.com/", "city-county-lat": 38.828692, "city-county-name": "Colorado Springs", "twitter": "http://www.twitter.com/csgazette", "name": "Gazette", "video": "https://www.youtube.com/user/springsgazette"}, {"city-county-long": -104.84063, "open-search": [], "rss": ["http://www.csindy.com/coloradosprings/Rss.xml?id=comments", "http://www.csindy.com/coloradosprings/Rss.xml"], "media-class": "newspaper", "media-subclass": "city-county", "facebook": "https://www.facebook.com/csindependent", "website": "http://www.csindy.com/", "city-county-lat": 38.828692, "city-county-name": "Colorado Springs", "twitter": "http://www.twitter.com/csindependent", "name": "Independent", "video": "http://www.youtube.com/user/csindependent"}, {"city-county-long": -104.84063, "open-search": [], "rss": [], "media-class": "newspaper", "media-subclass": "city-county", "facebook": "https://www.facebook.com/SouthSideBusinessNews", "website": "http://www.southsidebusiness.com/", "city-county-lat": 38.828692, "city-county-name": "Colorado Springs", "twitter": "http://www.twitter.com/southsidebiz", "name": "Southside Business", "video": ""}, {"city-county-long": -105.0694, "open-search": [], "rss": [], "media-class": "newspaper", "media-subclass": "city-county", "facebook": "https://www.facebook.com/pages/Columbine-Courier/184001824986112", "website": "http://www.columbinecourier.com/", "city-county-lat": 39.5878, "city-county-name": "Columbine", "twitter": "", "name": "Columbine Courier", "video": ""}, {"city-county-long": -104.9039, "open-search": [], "rss": [], "media-class": "newspaper", "media-subclass": "city-county", "facebook": "https://www.facebook.com/pages/Gateway-News/441445425004", "website": "http://www.gatewaynews.org/", "city-county-lat": 39.836586, "city-county-name": "Commerce City", "twitter": "", "name": "Gateway News", "video": ""}, {"city-county-long": -104.9039, "open-search": [], "rss": [], "media-class": "newspaper", "media-subclass": "city-county", "facebook": "https://www.facebook.com/pages/Commerce-City-Sentinel-Express/152786454799982", "website": "http://www.commercecitysentinel.com/", "city-county-lat": 39.836586, "city-county-name": "Commerce City", "twitter": "", "name": "Sentinel Express", "video": ""}, {"city-county-long": -105.31198, "open-search": [], "rss": [], "media-class": "newspaper", "media-subclass": "city-county", "facebook": "https://www.facebook.com/hightimbertimes", "website": "http://www.hightimbertimes.com/", "city-county-lat": 39.514738, "city-county-name": "Conifer", "twitter": "http://www.twitter.com/HighTimberTimes", "name": "High Timber Times", "video": ""}, {"city-county-long": -108.60355, "open-search": [], "rss": [], "media-class": "newspaper", "media-subclass": "city-county", "facebook": "https://www.facebook.com/TheJournalCO", "website": "http://www.the-journal.com/", "city-county-lat": 37.344985, "city-county-name": "Cortez", "twitter": "http://www.twitter.com/TheJournalCo", "name": "Cortez Journal", "video": ""}, {"city-county-long": -108.60355, "open-search": [], "rss": [], "media-class": "newspaper", "media-subclass": "city-county", "facebook": "https://www.facebook.com/TheJournalCO", "website": "http://www.the-journal.com/", "city-county-lat": 37.344985, "city-county-name": "Cortez", "twitter": "http://www.twitter.com/TheJournalCo", "name": "Dolores Star", "video": ""}, {"city-county-long": -107.60818, "open-search": [], "rss": ["/rss/headlines/"], "media-class": "newspaper", "media-subclass": "city-county", "facebook": "https://www.facebook.com/pages/Craig-Daily-Press/66210612742", "website": "http://www.craigdailypress.com/", "city-county-lat": 40.566113, "city-county-name": "Craig", "twitter": "http://www.twitter.com/craigdailypress", "name": "Craig Daily Press", "video": ""}, {"city-county-long": -106.95429, "open-search": [], "rss": [], "media-class": "newspaper", "media-subclass": "city-county", "facebook": "", "website": "http://www.mineralcountyminer.com/", "city-county-lat": 37.705276, "city-county-name": "Creede", "twitter": "", "name": "Mineral County Miner", "video": ""}, {"city-county-long": -106.96556, "open-search": [], "rss": ["http://crestedbuttenews.com/comments/feed/", "http://crestedbuttenews.com/feed/"], "media-class": "newspaper", "media-subclass": "city-county", "facebook": "https://www.facebook.com/CrestedButteNews", "website": "http://www.crestedbuttenews.com/", "city-county-lat": 38.865307, "city-county-name": "Crested Butte", "twitter": "", "name": "Crested Butte News", "video": ""}, {"city-county-long": -106.39774, "open-search": [], "rss": [], "media-class": "newspaper", "media-subclass": "city-county", "facebook": "", "website": "http://www.delnorteprospector.com/", "city-county-lat": 37.731981, "city-county-name": "Del Norte", "twitter": "", "name": "Del Norte Prospector", "video": ""}, {"city-county-long": -108.08219, "open-search": [], "rss": [], "media-class": "newspaper", "media-subclass": "city-county", "facebook": "https://www.facebook.com/pages/Delta-County-Independent/140373049332167", "website": "http://www.deltacountyindependent.com", "city-county-lat": 38.733901, "city-county-name": "Delta", "twitter": "", "name": "Delta County Independent", "video": ""}, {"city-county-long": -108.08219, "open-search": [], "rss": [], "media-class": "newspaper", "media-subclass": "city-county", "facebook": "https://www.facebook.com/pages/Western-Slope-Watchdog/451087728304050", "website": "http://westernslopewatchdog.com/", "city-county-lat": 38.733901, "city-county-name": "Delta", "twitter": "", "name": "Western Slope Watchdog", "video": ""}, {"city-county-long": -104.856808, "open-search": [], "rss": ["http://www.kzhb.us/comments/feed/", "http://www.kzhb.us/welcome/feed/", "http://www.kzhb.us/feed/"], "media-class": "newspaper", "media-subclass": "city-county", "facebook": "", "website": "http://www.kzhb.us/", "city-county-lat": 39.726303, "city-county-name": "Denver", "twitter": "", "name": "Colorado Chinese News", "video": ""}, {"city-county-long": -104.856808, "open-search": [], "rss": ["http://www.coloradostatesman.com/feed/", "http://www.coloradostatesman.com/comments/feed/"], "media-class": "newspaper", "media-subclass": "city-county", "facebook": "https://www.facebook.com/coloradostatesman", "website": "http://coloradostatesman.com/", "city-county-lat": 39.726303, "city-county-name": "Denver", "twitter": "http://www.twitter.com/ColoStatesman", "name": "Colorado Statesman", "video": ""}, {"city-county-long": -104.856808, "open-search": [], "rss": [], "media-class": "newspaper", "media-subclass": "city-county", "facebook": "https://www.facebook.com/denverbusiness", "website": "http://www.bizjournals.com/denver/", "city-county-lat": 39.726303, "city-county-name": "Denver", "twitter": "http://www.twitter.com/denbizjournal", "name": "Denver Business Journal", "video": ""}, {"city-county-long": -104.856808, "open-search": [], "rss": ["http://www.denverpost.com/comments/feed/", "http://www.denverpost.com/feed/"], "media-class": "newspaper", "media-subclass": "city-county", "facebook": "https://www.facebook.com/denverpost", "website": "http://www.denverpost.com/", "city-county-lat": 39.726303, "city-county-name": "Denver", "twitter": "http://www.twitter.com/denverpost", "name": "Denver Post", "video": "http://www.youtube.com/user/DenverPost"}, {"city-county-long": -104.856808, "open-search": [], "rss": [], "media-class": "newspaper", "media-subclass": "city-county", "facebook": "https://www.facebook.com/pages/Denver-Urban-Spectrum/127549171660", "website": "http://denverurbanspectrum.com/", "city-county-lat": 39.726303, "city-county-name": "Denver", "twitter": "http://www.twitter.com/DUS_Tweets", "name": "Denver Urban Spectrum", "video": "https://www.youtube.com/channel/UCs6ar7y9xXFHjMRFVxfHqBA"}, {"city-county-long": -104.856808, "open-search": [], "rss": [], "media-class": "newspaper", "media-subclass": "city-county", "facebook": "https://www.facebook.com/denvervoice", "website": "http://www.denvervoice.org/", "city-county-lat": 39.726303, "city-county-name": "Denver", "twitter": "http://www.twitter.com/DenverVOICE", "name": "Denver Voice", "video": ""}, {"city-county-long": -104.856808, "open-search": [], "rss": [], "media-class": "newspaper", "media-subclass": "city-county", "facebook": "", "website": "http://www.elhispanonewspaper.com/", "city-county-lat": 39.726303, "city-county-name": "Denver", "twitter": "", "name": "El Hispano de Denver", "video": ""}, {"city-county-long": -104.856808, "open-search": [], "rss": ["http://laprensadecolorado.com/feed/", "http://laprensadecolorado.com/comments/feed/"], "media-class": "newspaper", "media-subclass": "city-county", "facebook": "https://www.facebook.com/LaPrensadeColorado", "website": "http://laprensadecolorado.com/", "city-county-lat": 39.726303, "city-county-name": "Denver", "twitter": "http://www.twitter.com/LaPrensadeCO", "name": "La Prensa de Colorado", "video": "https://www.youtube.com/channel/UC2jIwRTEH3gET9wLiKMIGCA"}, {"city-county-long": -104.856808, "open-search": [], "rss": [], "media-class": "newspaper", "media-subclass": "city-county", "facebook": "https://www.facebook.com/LaVozColorado", "website": "http://www.lavozcolorado.com/", "city-county-lat": 39.726303, "city-county-name": "Denver", "twitter": "", "name": "La Voz", "video": "http://www.youtube.com/lavozcolorado"}, {"city-county-long": -104.856808, "open-search": [], "rss": [], "media-class": "newspaper", "media-subclass": "city-county", "facebook": "", "website": "http://southplatteindependent.net/", "city-county-lat": 39.726303, "city-county-name": "Denver", "twitter": "", "name": "South Platte Independent", "video": ""}, {"city-county-long": -104.856808, "open-search": [], "rss": [], "media-class": "newspaper", "media-subclass": "city-county", "facebook": "", "website": "http://www.vivacolorado.com/", "city-county-lat": 39.726303, "city-county-name": "Denver", "twitter": "", "name": "Viva Colorado", "video": ""}, {"city-county-long": -104.856808, "open-search": [], "rss": ["http://washparkprofile.com/api/rss/flipboard.rss", "http://washparkprofile.com/api/rss/content.rss"], "media-class": "newspaper", "media-subclass": "city-county", "facebook": "https://www.facebook.com/Washington-Park-Profile-140073302674815", "website": "http://washparkprofile.com/", "city-county-lat": 39.726303, "city-county-name": "Denver", "twitter": "", "name": "Washington Park Profile", "video": ""}, {"city-county-long": -104.856808, "open-search": [], "rss": ["http://www.westword.com/index.rss"], "media-class": "newspaper", "media-subclass": "city-county", "facebook": "https://www.facebook.com/denverwestword", "website": "http://www.westword.com/", "city-county-lat": 39.726303, "city-county-name": "Denver", "twitter": "http://www.twitter.com/DENVERWESTWORD", "name": "Westword", "video": "http://www.youtube.com/user/DenverWestword"}, {"city-county-long": -108.92455, "open-search": [], "rss": [], "media-class": "newspaper", "media-subclass": "city-county", "facebook": "https://www.facebook.com/DoveCreekPress", "website": "http://www.dovecreekpress.com/", "city-county-lat": 37.775543, "city-county-name": "Dove Creek", "twitter": "", "name": "Dove Creek Press", "video": ""}, {"city-county-long": -107.84945, "open-search": [], "rss": [], "media-class": "newspaper", "media-subclass": "city-county", "facebook": "https://www.facebook.com/TheDurangoHerald", "website": "http://www.durangoherald.com/", "city-county-lat": 37.295888, "city-county-name": "Durango", "twitter": "http://www.twitter.com/DurangoHerald", "name": "Durango Herald", "video": "https://www.youtube.com/user/TheDurangoherald"}, {"city-county-long": -107.84945, "open-search": [], "rss": [], "media-class": "newspaper", "media-subclass": "city-county", "facebook": "https://www.facebook.com/pages/Durango-Telegraph/429307033779054", "website": "http://www.durangotelegraph.com/", "city-county-lat": 37.295888, "city-county-name": "Durango", "twitter": "http://www.twitter.com/DgoTelegraph", "name": "Durango Telegraph", "video": ""}, {"city-county-long": -102.80439, "open-search": [], "rss": [], "media-class": "newspaper", "media-subclass": "city-county", "facebook": "https://www.facebook.com/KiowaCountyPress", "website": "http://www.kiowacountypress.net/", "city-county-lat": 38.467553, "city-county-name": "Eads", "twitter": "", "name": "Kiowa County Press", "video": ""}, {"city-county-long": -106.7751, "open-search": [], "rss": [], "media-class": "newspaper", "media-subclass": "city-county", "facebook": "https://www.facebook.com/VailNews", "website": "http://www.vaildaily.com/News/EagleValley", "city-county-lat": 39.622314, "city-county-name": "Eagle", "twitter": "http://www.twitter.com/VailDaily", "name": "Eagle Valley Enterprise", "video": "https://www.youtube.com/user/VailDaily"}, {"city-county-long": -104.71181, "open-search": [], "rss": [], "media-class": "newspaper", "media-subclass": "city-county", "facebook": "https://www.facebook.com/North-Weld-Herald-Newspaper-447603098755108/", "website": "http://nwherald.qwestoffice.net/", "city-county-lat": 40.529241, "city-county-name": "Eaton", "twitter": "", "name": "North Weld Herald", "video": ""}, {"city-county-long": -104.58696, "open-search": [], "rss": [], "media-class": "newspaper", "media-subclass": "city-county", "facebook": "https://www.facebook.com/pages/Elbert-County-News/131138280367610", "website": "http://www.elbertcountynews.net/", "city-county-lat": 39.397242, "city-county-name": "Elizabeth", "twitter": "", "name": "Elbert County News", "video": ""}, {"city-county-long": -104.99076, "open-search": [], "rss": [], "media-class": "newspaper", "media-subclass": "city-county", "facebook": "https://www.facebook.com/pages/Englewood-Herald/182736911851080", "website": "http://englewoodherald.net/", "city-county-lat": 39.646847, "city-county-name": "Englewood", "twitter": "", "name": "Englewood Herald", "video": ""}, {"city-county-long": -105.02767, "open-search": [], "rss": [], "media-class": "newspaper", "media-subclass": "city-county", "facebook": "https://www.facebook.com/coloradohometownweekly", "website": "http://www.coloradohometownweekly.com/news/erie", "city-county-lat": 40.051051, "city-county-name": "Erie", "twitter": "http://www.twitter.com/CoHoWeekly", "name": "Colorado Hometown Weekly", "video": ""}, {"city-county-long": -105.569245, "open-search": [], "rss": [], "media-class": "newspaper", "media-subclass": "city-county", "facebook": "https://www.facebook.com/eptrail", "website": "http://www.eptrail.com/", "city-county-lat": 40.628112, "city-county-name": "Estes Park", "twitter": "http://www.twitter.com/EPTrailGazette", "name": "Estes Park Trail-Gazette", "video": ""}, {"city-county-long": -105.223945, "open-search": [], "rss": [], "media-class": "newspaper", "media-subclass": "city-county", "facebook": "https://www.facebook.com/pages/Canyon-Courier/197992570219770", "website": "http://www.canyoncourier.com/", "city-county-lat": 39.522014, "city-county-name": "Evergreen", "twitter": "", "name": "Canyon Courier", "video": ""}, {"city-county-long": -105.10494, "open-search": [], "rss": ["http://bizwest.com/comments/feed/", "http://bizwest.com/feed/"], "media-class": "newspaper", "media-subclass": "city-county", "facebook": "https://www.facebook.com/bizwestmedia", "website": "http://bizwest.com/", "city-county-lat": 40.586282, "city-county-name": "Fort Collins", "twitter": "http://www.twitter.com/bizwestmedia", "name": "BizWest", "video": "http://www.youtube.com/user/BusinessReportOnline"}, {"city-county-long": -105.10494, "open-search": [], "rss": [], "media-class": "newspaper", "media-subclass": "city-county", "facebook": "https://www.facebook.com/Coloradoan", "website": "http://www.coloradoan.com/", "city-county-lat": 40.586282, "city-county-name": "Fort Collins", "twitter": "http://www.twitter.com/coloradoan", "name": "Coloradoan", "video": "http://www.youtube.com/user/noconow"}, {"city-county-long": -105.10494, "open-search": [], "rss": ["http://theseniorvoice.net/feed/atom/", "http://theseniorvoice.net/comments/feed/", "http://theseniorvoice.net/feed/"], "media-class": "newspaper", "media-subclass": "city-county", "facebook": "", "website": "http://theseniorvoice.net/", "city-county-lat": 40.586282, "city-county-name": "Fort Collins", "twitter": "", "name": "Fort Collins Senior Voice", "video": ""}, {"city-county-long": -104.79723, "open-search": [], "rss": [], "media-class": "newspaper", "media-subclass": "city-county", "facebook": "https://www.facebook.com/fortluptonpress", "website": "http://www.ftluptonpress.com/", "city-county-lat": 40.090367, "city-county-name": "Fort Lupton", "twitter": "", "name": "Fort Lupton Express", "video": ""}, {"city-county-long": -103.80625, "open-search": [], "rss": [], "media-class": "newspaper", "media-subclass": "city-county", "facebook": "https://www.facebook.com/fortmorgantimes", "website": "http://www.fortmorgantimes.com/", "city-county-lat": 40.226357, "city-county-name": "Fort Morgan", "twitter": "http://www.twitter.com/fortmorgantimes", "name": "Fort Morgan Times", "video": "https://www.youtube.com/user/fortmorgantimes"}, {"city-county-long": -104.03445, "open-search": [], "rss": [], "media-class": "newspaper", "media-subclass": "city-county", "facebook": "https://www.facebook.com/pages/Fowler-Tribune/134766543293911", "website": "http://www.fowlertribune.com/", "city-county-lat": 38.002861, "city-county-name": "Fowler", "twitter": "http://www.twitter.com/FowlerTribune", "name": "Fowler Tribune", "video": ""}, {"city-county-long": -106.14029, "open-search": [], "rss": [], "media-class": "newspaper", "media-subclass": "city-county", "facebook": "https://www.facebook.com/summitdailynews", "website": "http://www.summitdaily.com/", "city-county-lat": 39.532506, "city-county-name": "Frisco", "twitter": "http://www.twitter.com/summitdailynews", "name": "Summit Daily News", "video": "http://www.youtube.com/user/summitdaily"}, {"city-county-long": -107.32107, "open-search": [], "rss": ["http://www.postindependent.com/comments/feed/", "http://www.postindependent.com/feed/"], "media-class": "newspaper", "media-subclass": "city-county", "facebook": "https://www.facebook.com/glenwoodsprings", "website": "http://www.postindependent.com/", "city-county-lat": 39.533318, "city-county-name": "Glenwood Springs", "twitter": "http://www.twitter.com/GlenwoodPI", "name": "Post Independent", "video": ""}, {"city-county-long": -105.19337, "open-search": [], "rss": [], "media-class": "newspaper", "media-subclass": "city-county", "facebook": "https://www.facebook.com/pages/Golden-Transcript/482961018391728", "website": "http://goldentranscript.net/", "city-county-lat": 39.735745, "city-county-name": "Golden", "twitter": "", "name": "Golden Transcript", "video": ""}, {"city-county-long": -105.95502, "open-search": [], "rss": ["http://www.skyhidailynews.com/comments/feed/", "http://www.skyhidailynews.com/feed/"], "media-class": "newspaper", "media-subclass": "city-county", "facebook": "https://www.facebook.com/skyhinews", "website": "http://www.skyhidailynews.com/", "city-county-lat": 40.142434, "city-county-name": "Granby", "twitter": "", "name": "Sky-Hi News", "video": ""}, {"city-county-long": -108.55, "open-search": [], "rss": ["http://thebusinesstimes.com/feed/", "http://thebusinesstimes.com/feed/atom/"], "media-class": "newspaper", "media-subclass": "city-county", "facebook": "https://www.facebook.com/GrandValleyBusinessTimes", "website": "http://thebusinesstimes.com/", "city-county-lat": 39.072831, "city-county-name": "Grand Junction", "twitter": "", "name": "Business Times", "video": ""}, {"city-county-long": -108.55, "open-search": [], "rss": ["http://www.gjsentinel.com/feeds/rss2/"], "media-class": "newspaper", "media-subclass": "city-county", "facebook": "https://www.facebook.com/thedailysentinelgj", "website": "http://www.gjsentinel.com/", "city-county-lat": 39.072831, "city-county-name": "Grand Junction", "twitter": "http://www.twitter.com/DailySentinelGJ", "name": "Daily Sentinel", "video": ""}, {"city-county-long": -108.55, "open-search": [], "rss": ["http://www.postindependent.com/comments/feed/", "http://www.postindependent.com/feed/"], "media-class": "newspaper", "media-subclass": "city-county", "facebook": "https://www.facebook.com/glenwoodsprings", "website": "http://www.postindependent.com/news/grandjunction/", "city-county-lat": 39.072831, "city-county-name": "Grand Junction", "twitter": "http://www.twitter.com/GlenwoodPI", "name": "Free Press", "video": "https://www.youtube.com/channel/UCgmeHUf-iBmnqJ3rCzWGDBA"}, {"city-county-long": -108.55, "open-search": [], "rss": [], "media-class": "newspaper", "media-subclass": "city-county", "facebook": "https://www.facebook.com/BeaconSeniorNews", "website": "http://beaconseniornews.com/", "city-county-lat": 39.072831, "city-county-name": "Grand Junction", "twitter": "", "name": "Grand Junction Beacon", "video": ""}, {"city-county-long": -104.800547, "open-search": [], "rss": [], "media-class": "newspaper", "media-subclass": "city-county", "facebook": "https://www.facebook.com/thefencepost", "website": "http://www.thefencepost.com/", "city-county-lat": 40.405094, "city-county-name": "Greeley", "twitter": "http://www.twitter.com/FencePostNews", "name": "Fence Post", "video": ""}, {"city-county-long": -104.800547, "open-search": [], "rss": [], "media-class": "newspaper", "media-subclass": "city-county", "facebook": "https://www.facebook.com/greeleytribune", "website": "http://www.greeleytribune.com/", "city-county-lat": 40.405094, "city-county-name": "Greeley", "twitter": "http://www.twitter.com/GreeleyTribune", "name": "Greeley Tribune", "video": ""}, {"city-county-long": -104.9508, "open-search": [], "rss": ["http://www.villagerpublishing.com/feed/", "http://www.villagerpublishing.com/comments/feed/"], "media-class": "newspaper", "media-subclass": "city-county", "facebook": "https://www.facebook.com/TheVillagerNewspaper", "website": "http://www.villagerpublishing.com/", "city-county-lat": 39.6172, "city-county-name": "Greenwood Village", "twitter": "http://www.twitter.com/VillagerDenver", "name": "Villager", "video": ""}, {"city-county-long": -106.95776, "open-search": [], "rss": ["http://www.gunnisontimes.com/rss.xml"], "media-class": "newspaper", "media-subclass": "city-county", "facebook": "https://www.facebook.com/pages/Gunnison-Country-Times/260846108710", "website": "http://www.gunnisontimes.com/", "city-county-lat": 38.464132, "city-county-name": "Gunnison", "twitter": "http://www.twitter.com/gunnisontimes", "name": "Country Times", "video": ""}, {"city-county-long": -102.58831, "open-search": [], "rss": [], "media-class": "newspaper", "media-subclass": "city-county", "facebook": "", "website": "http://www.hfherald.com/", "city-county-lat": 40.593911, "city-county-name": "Haxtun", "twitter": "", "name": "Haxtun-Fleming Herald", "video": ""}, {"city-county-long": -104.9739, "open-search": [], "rss": [], "media-class": "newspaper", "media-subclass": "city-county", "facebook": "https://www.facebook.com/pages/Highlands-Ranch-Herald/348750128553708", "website": "http://highlandsranchherald.net/", "city-county-lat": 39.5481, "city-county-name": "Highlands Ranch", "twitter": "", "name": "Highlands Ranch Herald", "video": ""}, {"city-county-long": -102.30451, "open-search": [], "rss": [], "media-class": "newspaper", "media-subclass": "city-county", "facebook": "https://www.facebook.com/pages/The-Holyoke-Enterprise/95950174977", "website": "http://www.holyokeenterprise.com/", "city-county-lat": 40.582954, "city-county-name": "Holyoke", "twitter": "", "name": "Holyoke Enterprise", "video": ""}, {"city-county-long": -105.56054, "open-search": [], "rss": [], "media-class": "newspaper", "media-subclass": "city-county", "facebook": "https://www.facebook.com/pages/Clear-Creek-Courant/171267532910583", "website": "http://www.clearcreekcourant.com/", "city-county-lat": 39.737369, "city-county-name": "Idaho Springs", "twitter": "", "name": "Clear Creek Courant", "video": ""}, {"city-county-long": -104.91477, "open-search": [], "rss": [], "media-class": "newspaper", "media-subclass": "city-county", "facebook": "https://www.facebook.com/pages/The-Johnstown-Breeze/177854392267067", "website": "http://myjohnstownbreeze.com/", "city-county-lat": 40.335398, "city-county-name": "Johnstown", "twitter": "http://www.twitter.com/The_JT_Breeze", "name": "Johnstown Breeze", "video": "http://www.youtube.com/channel/UCiPRWovrYWudQx4qJqL3XxA"}, {"city-county-long": -102.21858, "open-search": [], "rss": [], "media-class": "newspaper", "media-subclass": "city-county", "facebook": "https://www.facebook.com/JulesburgAdvocate", "website": "http://www.julesburgadvocate.com/", "city-county-lat": 40.916929, "city-county-name": "Julesburg", "twitter": "http://www.twitter.com/JlsburgAdvocate", "name": "Julesburg Advocate", "video": ""}, {"city-county-long": -104.49916, "open-search": [], "rss": ["http://lcgnews.com/comments/feed/", "http://lcgnews.com/feed/"], "media-class": "newspaper", "media-subclass": "city-county", "facebook": "https://www.facebook.com/lostcreekguide", "website": "http://www.lostcreekguide.com/", "city-county-lat": 40.078242, "city-county-name": "Keenesburg", "twitter": "", "name": "Lost Creek Guide News", "video": ""}, {"city-county-long": -103.54001, "open-search": [], "rss": [], "media-class": "newspaper", "media-subclass": "city-county", "facebook": "https://www.facebook.com/pages/Ag-Journal/134006649997395", "website": "http://www.agjournalonline.com/", "city-county-lat": 37.995879, "city-county-name": "La Junta", "twitter": "", "name": "AgJournalOnline", "video": ""}, {"city-county-long": -103.54001, "open-search": [], "rss": [], "media-class": "newspaper", "media-subclass": "city-county", "facebook": "https://www.facebook.com/pages/The-La-Junta-Tribune-Democrat/122942067733381", "website": "http://www.lajuntatribunedemocrat.com/", "city-county-lat": 37.995879, "city-county-name": "La Junta", "twitter": "http://www.twitter.com/LaJuntaTD", "name": "Tribune-Democrat", "video": ""}, {"city-county-long": -105.02943, "open-search": [], "rss": ["http://signaturenewspaper.com/feed/", "http://signaturenewspaper.com/comments/feed/"], "media-class": "newspaper", "media-subclass": "city-county", "facebook": "", "website": "http://www.signaturenewspaper.com/", "city-county-lat": 37.499829, "city-county-name": "La Veta", "twitter": "", "name": "The Signature", "video": ""}, {"city-county-long": -105.10036, "open-search": [], "rss": [], "media-class": "newspaper", "media-subclass": "city-county", "facebook": "https://www.facebook.com/coloradohometownweekly", "website": "http://www.coloradohometownweekly.com/news/lafayette", "city-county-lat": 40.002156, "city-county-name": "Lafayette", "twitter": "http://www.twitter.com/CoHoWeekly", "name": "Colorado Hometown Weekly", "video": ""}, {"city-county-long": -105.0814, "open-search": [], "rss": [], "media-class": "newspaper", "media-subclass": "city-county", "facebook": "https://www.facebook.com/pages/Lakewood-Sentinel/273298059440513", "website": "http://lakewoodsentinel.com/", "city-county-lat": 39.7047, "city-county-name": "Lakewood", "twitter": "", "name": "Lakewood Sentinel", "video": ""}, {"city-county-long": -102.61855, "open-search": [], "rss": [], "media-class": "newspaper", "media-subclass": "city-county", "facebook": "https://www.facebook.com/lamarledger", "website": "http://www.lamarledger.com/", "city-county-lat": 38.08759, "city-county-name": "Lamar", "twitter": "http://www.twitter.com/lamarledger", "name": "Lamar Ledger", "video": ""}, {"city-county-long": -102.61855, "open-search": [], "rss": ["http://theprowersjournal.com/feed/"], "media-class": "newspaper", "media-subclass": "city-county", "facebook": "https://www.facebook.com/pages/The-Prowers-Journal/187726154604145", "website": "http://theprowersjournal.com/", "city-county-lat": 38.08759, "city-county-name": "Lamar", "twitter": "http://www.twitter.com/prowersjournal", "name": "Prowers Journal", "video": ""}, {"city-county-long": -105.17388, "open-search": [], "rss": ["http://www.northfortynews.com/feed/", "http://www.northfortynews.com/comments/feed/"], "media-class": "newspaper", "media-subclass": "city-county", "facebook": "https://www.facebook.com/northfortynews", "website": "http://www.northfortynews.com/", "city-county-lat": 40.67069, "city-county-name": "Laporte", "twitter": "http://www.twitter.com/northfortynews", "name": "North Forty News", "video": ""}, {"city-county-long": -103.18631, "open-search": [], "rss": [], "media-class": "newspaper", "media-subclass": "city-county", "facebook": "https://www.facebook.com/pages/Bent-County-Democrat/133429776731542", "website": "http://www.bcdemocratonline.com/", "city-county-lat": 38.037435, "city-county-name": "Las Animas", "twitter": "http://www.twitter.com/BentCountyDemoc", "name": "Bent County Democrat", "video": ""}, {"city-county-long": -106.31399, "open-search": ["http://www.leadvilleherald.com/search/opensearch/generic.xml"], "rss": [], "media-class": "newspaper", "media-subclass": "city-county", "facebook": "https://www.facebook.com/HERALDDEMOCRAT", "website": "http://www.leadvilleherald.com/", "city-county-lat": 39.231776, "city-county-name": "Leadville", "twitter": "http://www.twitter.com/leadvilleherald", "name": "Leadville Herald Democrat", "video": ""}, {"city-county-long": -103.604851, "open-search": [], "rss": [], "media-class": "newspaper", "media-subclass": "city-county", "facebook": "https://www.facebook.com/TheLimonLeader", "website": "http://easterncoloradoplainsman.com/", "city-county-lat": 39.041435, "city-county-name": "Limon", "twitter": "http://www.twitter.com/LimonLeader", "name": "Limon Leader", "video": ""}, {"city-county-long": -105.00658, "open-search": [], "rss": [], "media-class": "newspaper", "media-subclass": "city-county", "facebook": "https://www.facebook.com/pages/Centennial-Citizen/428853483843560", "website": "http://centennialcitizen.net/", "city-county-lat": 39.599687, "city-county-name": "Littleton", "twitter": "http://www.twitter.com/ChrisRotar", "name": "Centennial Citizen", "video": ""}, {"city-county-long": -105.00658, "open-search": [], "rss": [], "media-class": "newspaper", "media-subclass": "city-county", "facebook": "https://www.facebook.com/Littleton-Independent-130795427068535/", "website": "http://littletonindependent.net/", "city-county-lat": 39.599687, "city-county-name": "Littleton", "twitter": "", "name": "Littleton Independent", "video": ""}, {"city-county-long": -104.92152, "open-search": [], "rss": [], "media-class": "newspaper", "media-subclass": "city-county", "facebook": "https://www.facebook.com/pages/Lone-Tree-Voice/412284305500418", "website": "http://lonetreevoice.net/", "city-county-lat": 39.541571, "city-county-name": "Lone Tree", "twitter": "", "name": "Lone Tree Voice", "video": ""}, {"city-county-long": -105.10033, "open-search": [], "rss": [], "media-class": "newspaper", "media-subclass": "city-county", "facebook": "https://www.facebook.com/LongmontTimesCall", "website": "http://www.timescall.com/", "city-county-lat": 40.171484, "city-county-name": "Longmont", "twitter": "http://www.twitter.com/timescall", "name": "Daily Times-Call", "video": "http://www.youtube.com/user/TheTimescall"}, {"city-county-long": -105.15053, "open-search": [], "rss": [], "media-class": "newspaper", "media-subclass": "city-county", "facebook": "https://www.facebook.com/coloradohometownweekly", "website": "http://www.coloradohometownweekly.com/news/louisville", "city-county-lat": 39.963322, "city-county-name": "Louisville", "twitter": "http://www.twitter.com/CoHoWeekly", "name": "Colorado Hometown Weekly", "video": ""}, {"city-county-long": -105.10349, "open-search": [], "rss": [], "media-class": "newspaper", "media-subclass": "city-county", "facebook": "https://www.facebook.com/reporterherald", "website": "http://www.reporterherald.com/", "city-county-lat": 40.383636, "city-county-name": "Loveland", "twitter": "http://www.twitter.com/reporterherald", "name": "Daily Reporter-Herald", "video": "http://www.youtube.com/user/ReporterHerald"}, {"city-county-long": -105.33762, "open-search": ["http://www.lyonsrecorder.com/index.php/component/search/?Itemid=101&format=opensearch"], "rss": ["/index.php?format=feed&type=rss", "/index.php?format=feed&type=atom"], "media-class": "newspaper", "media-subclass": "city-county", "facebook": "https://www.facebook.com/LyonsRecorder", "website": "http://www.lyonsrecorder.com/", "city-county-lat": 40.253033, "city-county-name": "Lyons", "twitter": "http://www.twitter.com/LyonsRecorder", "name": "Lyons Recorder", "video": ""}, {"city-county-long": -108.29691, "open-search": [], "rss": [], "media-class": "newspaper", "media-subclass": "city-county", "facebook": "https://www.facebook.com/TheJournalCO", "website": "http://www.the-journal.com/", "city-county-lat": 37.363564, "city-county-name": "Mancos", "twitter": "http://www.twitter.com/TheJournalCo", "name": "Mancos Times", "video": ""}, {"city-county-long": -106.14946, "open-search": [], "rss": [], "media-class": "newspaper", "media-subclass": "city-county", "facebook": "", "website": "http://www.montevistajournal.com/", "city-county-lat": 37.569501, "city-county-name": "Monte Vista", "twitter": "", "name": "Monte Vista Journal", "video": ""}, {"city-county-long": -107.8625, "open-search": [], "rss": ["http://www.montrosepress.com/search/?f=rss&t=article&l=50&s=start_time&sd=desc&k[]=%23topstory"], "media-class": "newspaper", "media-subclass": "city-county", "facebook": "https://www.facebook.com/MontroseDailyPress", "website": "http://www.montrosepress.com/", "city-county-lat": 38.436409, "city-county-name": "Montrose", "twitter": "http://www.twitter.com/montrosepress", "name": "Montrose Daily Press", "video": "http://www.youtube.com/user/MDPVideo"}, {"city-county-long": -104.8684, "open-search": [], "rss": [], "media-class": "newspaper", "media-subclass": "city-county", "facebook": "https://www.facebook.com/pages/TRI-LAKES-Tribune/299582803481330", "website": "http://www.pikespeaknewspapers.com/the-tribune/", "city-county-lat": 39.098692, "city-county-name": "Monument", "twitter": "", "name": "Tri Lakes Tribune", "video": ""}, {"city-county-long": -105.50805, "open-search": [], "rss": ["http://themtnear.com/feed/", "http://themtnear.com/feed/atom/", "http://themtnear.com/comments/feed/"], "media-class": "newspaper", "media-subclass": "city-county", "facebook": "https://www.facebook.com/pages/The-Mountain-Ear/254365715663", "website": "http://themtnear.com/", "city-county-lat": 39.964486, "city-county-name": "Nederland", "twitter": "", "name": "Nederland Mountain-Ear", "video": ""}, {"city-county-long": -105.275045, "open-search": [], "rss": ["http://www.lhvc.com/search/?f=rss&t=article&l=50&s=start_time&sd=desc&k[]=%23topstory"], "media-class": "newspaper", "media-subclass": "city-county", "facebook": "https://www.facebook.com/lefthandvalleycourier", "website": "http://www.lhvc.com/", "city-county-lat": 40.177043, "city-county-name": "Niwot", "twitter": "", "name": "Left Hand Valley Courier", "video": ""}, {"city-county-long": -108.2586, "open-search": ["http://www.telluridenews.com/search/opensearch/generic.xml"], "rss": [], "media-class": "newspaper", "media-subclass": "city-county", "facebook": "https://www.facebook.com/TheNorwoodPost", "website": "http://www.telluridenews.com/eedition_the_norwood_post/", "city-county-lat": 38.082231, "city-county-name": "Norwood", "twitter": "", "name": "Norwood Post", "video": ""}, {"city-county-long": -108.2586, "open-search": [], "rss": [], "media-class": "newspaper", "media-subclass": "city-county", "facebook": "https://www.facebook.com/SunshineXNews", "website": "http://thesunshineexpress.com/", "city-county-lat": 38.082231, "city-county-name": "Norwood", "twitter": "http://www.twitter.com/SunshineXNews", "name": "Sunshine Express", "video": ""}, {"city-county-long": -107.67438, "open-search": [], "rss": [], "media-class": "newspaper", "media-subclass": "city-county", "facebook": "https://www.facebook.com/pages/Ouraynewscom/164784523563199", "website": "http://www.ouraynews.com/", "city-county-lat": 38.016388, "city-county-name": "Ouray", "twitter": "http://www.twitter.com/ocplaindealer", "name": "Plaindealer", "video": "https://www.youtube.com/channel/UCEw_RSKUYQtVvP_CN657vlQ"}, {"city-county-long": -107.11287, "open-search": [], "rss": ["http://pagosadailypost.com/feed/", "http://pagosadailypost.com/comments/feed/"], "media-class": "newspaper", "media-subclass": "city-county", "facebook": "https://www.facebook.com/PagosaDailyPost", "website": "http://www.pagosadailypost.com/", "city-county-lat": 37.241179, "city-county-name": "Pagosa Springs", "twitter": "", "name": "Pagosa Springs Daily Post", "video": "https://www.youtube.com/user/pagosadailypost"}, {"city-county-long": -107.11287, "open-search": [], "rss": ["http://www.pagosasun.com/feed/", "http://www.pagosasun.com/comments/feed/"], "media-class": "newspaper", "media-subclass": "city-county", "facebook": "https://www.facebook.com/PagosaSpringsSun", "website": "http://www.pagosasun.com/", "city-county-lat": 37.241179, "city-county-name": "Pagosa Springs", "twitter": "", "name": "Pagosa Springs Sun", "video": ""}, {"city-county-long": -107.58799, "open-search": [], "rss": ["http://cdn.hcn.org/rss/wotr/RSS", "http://cdn.hcn.org/rss/most-recent/RSS", "http://cdn.hcn.org/rss/most-popular.rss", "http://cdn.hcn.org/voices/ranchdiaries/RSS", "http://cdn.hcn.org/rss/current-issue/RSS"], "media-class": "newspaper", "media-subclass": "city-county", "facebook": "https://www.facebook.com/highcountrynews", "website": "http://www.hcn.org/", "city-county-lat": 38.877695, "city-county-name": "Paonia", "twitter": "http://www.twitter.com/highcountrynews", "name": "High Country News", "video": "http://www.youtube.com/user/highcountrynews"}, {"city-county-long": -104.78031, "open-search": [], "rss": [], "media-class": "newspaper", "media-subclass": "city-county", "facebook": "https://www.facebook.com/parker.chronicle", "website": "http://parkerchronicle.net/", "city-county-lat": 39.508608, "city-county-name": "Parker", "twitter": "", "name": "Parker Chronicle", "video": ""}, {"city-county-long": -104.57029, "open-search": [], "rss": [], "media-class": "newspaper", "media-subclass": "city-county", "facebook": "https://www.facebook.com/ThePuebloChieftain", "website": "http://www.chieftain.com/", "city-county-lat": 38.282872, "city-county-name": "Pueblo", "twitter": "http://www.twitter.com/chieftainnews", "name": "Pueblo Chieftain", "video": "https://www.youtube.com/user/ChieftainVideo"}, {"city-county-long": -108.77528, "open-search": [], "rss": ["http://www.theheraldtimes.com/feed/", "http://www.theheraldtimes.com/comments/feed/"], "media-class": "newspaper", "media-subclass": "city-county", "facebook": "https://www.facebook.com/theheraldtimes", "website": "http://www.theheraldtimes.com/", "city-county-lat": 40.011447, "city-county-name": "Rangely", "twitter": "http://www.twitter.com/heraldtimes", "name": "Rangely Herald Times", "video": ""}, {"city-county-long": -107.89755, "open-search": [], "rss": ["http://www.postindependent.com/comments/feed/", "http://www.postindependent.com/feed/"], "media-class": "newspaper", "media-subclass": "city-county", "facebook": "https://www.facebook.com/citizentelegram", "website": "http://www.postindependent.com/News/Rifle", "city-county-lat": 39.603225, "city-county-name": "Rifle", "twitter": "", "name": "Citizen Telegram", "video": ""}, {"city-county-long": -106.22626, "open-search": [], "rss": [], "media-class": "newspaper", "media-subclass": "city-county", "facebook": "", "website": "http://www.smalltownpapers.com/listSAG.htm", "city-county-lat": 38.120209, "city-county-name": "Saguache", "twitter": "", "name": "Saguache Crescent", "video": ""}, {"city-county-long": -106.03468, "open-search": ["http://www.themountainmail.com/search/opensearch/generic.xml"], "rss": [], "media-class": "newspaper", "media-subclass": "city-county", "facebook": "https://www.facebook.com/TheMountainMail", "website": "http://www.themountainmail.com", "city-county-lat": 38.533464, "city-county-name": "Salida", "twitter": "http://www.twitter.com/TheMtnMail", "name": "Mountain Mail", "video": "https://www.youtube.com/channel/UCJMpLLMi0zM-WXXxCH9IWlg"}, {"city-county-long": -107.62223, "open-search": [], "rss": [], "media-class": "newspaper", "media-subclass": "city-county", "facebook": "https://www.facebook.com/pages/The-Silverton-Standard-the-Miner/396125677069591", "website": "http://www.silvertonstandard.com/", "city-county-lat": 37.868294, "city-county-name": "Silverton", "twitter": "", "name": "Silverton Standard", "video": ""}, {"city-county-long": -104.08793, "open-search": [], "rss": [], "media-class": "newspaper", "media-subclass": "city-county", "facebook": "https://www.facebook.com/pages/Ranchland-News/796268903746736", "website": "http://www.ranchland-news.com/", "city-county-lat": 39.172831, "city-county-name": "Simla", "twitter": "", "name": "Ranchland News", "video": ""}, {"city-county-long": -106.97888, "open-search": [], "rss": [], "media-class": "newspaper", "media-subclass": "city-county", "facebook": "https://www.facebook.com/snowmasssun", "website": "http://www.aspentimes.com/News/Snowmass", "city-county-lat": 39.254607, "city-county-name": "Snowmass", "twitter": "http://www.twitter.com/SnowmassSun", "name": "Snowmass Village Sun", "video": ""}, {"city-county-long": -106.63177, "open-search": [], "rss": [], "media-class": "newspaper", "media-subclass": "city-county", "facebook": "", "website": "http://www.southforktines.com/", "city-county-lat": 37.671046, "city-county-name": "South Fork", "twitter": "", "name": "South Fork Tines", "video": ""}, {"city-county-long": -106.92691, "open-search": [], "rss": ["/rss/headlines/"], "media-class": "newspaper", "media-subclass": "city-county", "facebook": "https://www.facebook.com/pages/Steamboat-Pilot-Today/45254790221", "website": "http://www.steamboattoday.com/", "city-county-lat": 40.348242, "city-county-name": "Steamboat Springs", "twitter": "http://www.twitter.com/steamboatpilot", "name": "Steamboat Pilot", "video": "http://www.youtube.com/user/SteamboatPilotToday"}, {"city-county-long": -103.21574, "open-search": [], "rss": ["http://www.southplattesentinel.com/feed/", "http://www.southplattesentinel.com/comments/feed/"], "media-class": "newspaper", "media-subclass": "city-county", "facebook": "https://www.facebook.com/SouthPlatteSentinel", "website": "http://www.southplattesentinel.com/", "city-county-lat": 40.633845, "city-county-name": "Sterling", "twitter": "http://www.twitter.com/SP_Sentinel", "name": "South Platte Sentinel", "video": "http://www.youtube.com/user/southplattesentinel"}, {"city-county-long": -103.21574, "open-search": [], "rss": [], "media-class": "newspaper", "media-subclass": "city-county", "facebook": "https://www.facebook.com/journaladvocate", "website": "http://www.journal-advocate.com/", "city-county-lat": 40.633845, "city-county-name": "Sterling", "twitter": "http://www.twitter.com/SterlingJA", "name": "Sterling Journal-Advocate", "video": "https://www.youtube.com/user/journaladvocateco"}, {"city-county-long": -105.1686, "open-search": [], "rss": [], "media-class": "newspaper", "media-subclass": "city-county", "facebook": "https://www.facebook.com/coloradohometownweekly", "website": "http://www.coloradohometownweekly.com/news/superior", "city-county-lat": 39.9528, "city-county-name": "Superior", "twitter": "http://www.twitter.com/CoHoWeekly", "name": "Colorado Hometown Weekly", "video": ""}, {"city-county-long": -107.88874, "open-search": ["http://www.telluridenews.com/search/opensearch/generic.xml"], "rss": [], "media-class": "newspaper", "media-subclass": "city-county", "facebook": "https://www.facebook.com/telluridedailyplanet", "website": "http://www.telluridenews.com/", "city-county-lat": 37.932874, "city-county-name": "Telluride", "twitter": "http://www.twitter.com/TelluridePlanet", "name": "Telluride Daily Planet", "video": ""}, {"city-county-long": -107.88874, "open-search": [], "rss": [], "media-class": "newspaper", "media-subclass": "city-county", "facebook": "https://www.facebook.com/watchnewspapers", "website": "http://www.watchnewspapers.com/", "city-county-lat": 37.932874, "city-county-name": "Telluride", "twitter": "http://www.twitter.com/watchnewspapers", "name": "Telluride Watch", "video": "http://www.youtube.com/user/telluridewatch"}, {"city-county-long": -104.908921, "open-search": [], "rss": [], "media-class": "newspaper", "media-subclass": "city-county", "facebook": "https://www.facebook.com/pages/Northglenn-Thornton-Sentinel/386462404757918", "website": "http://northglenn-thorntonsentinel.com/", "city-county-lat": 39.958987, "city-county-name": "Thornton", "twitter": "", "name": "Northglenn-Thornton Sentinel", "video": ""}, {"city-county-long": -104.47809, "open-search": ["http://www.thechronicle-news.com/search/opensearch/generic.xml"], "rss": [], "media-class": "newspaper", "media-subclass": "city-county", "facebook": "https://www.facebook.com/TrinidadChronicleNews", "website": "http://www.thechronicle-news.com/", "city-county-lat": 37.191882, "city-county-name": "Trinidad", "twitter": "", "name": "Chronicle News", "video": ""}, {"city-county-long": -106.37077, "open-search": [], "rss": [], "media-class": "newspaper", "media-subclass": "city-county", "facebook": "https://www.facebook.com/VailNews", "website": "http://www.vaildaily.com/", "city-county-lat": 39.634566, "city-county-name": "Vail", "twitter": "http://www.twitter.com/vaildaily", "name": "Vail Daily", "video": "http://www.youtube.com/user/VailDaily"}, {"city-county-long": -104.80456, "open-search": [], "rss": ["https://huerfanoworldjournal.com/feed/", "https://huerfanoworldjournal.com/comments/feed/"], "media-class": "newspaper", "media-subclass": "city-county", "facebook": "https://www.facebook.com/huerfanoworldjournal", "website": "http://huerfanojournal.com/", "city-county-lat": 37.621071, "city-county-name": "Walsenburg", "twitter": "", "name": "Huerfano World Journal", "video": "http://www.youtube.com/channel/UCcYf3iLNDYcKOFUvvR22Yng"}, {"city-county-long": -105.45798, "open-search": [], "rss": [], "media-class": "newspaper", "media-subclass": "city-county", "facebook": "https://www.facebook.com/pages/Wet-Mountain-Tribune/367143224056", "website": "http://www.wetmountaintribune.com", "city-county-lat": 38.130741, "city-county-name": "Westcliffe", "twitter": "", "name": "Wet Mountain Tribune", "video": ""}, {"city-county-long": -105.03736, "open-search": [], "rss": [], "media-class": "newspaper", "media-subclass": "city-county", "facebook": "https://www.facebook.com/pages/Westminster-Window/402223329851370", "website": "http://westminsterwindow.com/", "city-county-lat": 39.830936, "city-county-name": "Westminster", "twitter": "", "name": "Westminster Window", "video": ""}, {"city-county-long": -105.10036, "open-search": [], "rss": [], "media-class": "newspaper", "media-subclass": "city-county", "facebook": "https://www.facebook.com/thetranscript", "website": "http://wheatridgetranscript.com/", "city-county-lat": 39.774341, "city-county-name": "Wheat Ridge", "twitter": "", "name": "Wheat Ridge Transcript", "video": ""}, {"city-county-long": -104.90227, "open-search": [], "rss": [], "media-class": "newspaper", "media-subclass": "city-county", "facebook": "", "website": "http://www.coloradoan.com/windsor-beacon/", "city-county-lat": 40.47997, "city-county-name": "Windsor", "twitter": "http://www.twitter.com/WindsorBeacon", "name": "Windsor Beacon", "video": ""}, {"city-county-long": -104.90227, "open-search": [], "rss": [], "media-class": "newspaper", "media-subclass": "city-county", "facebook": "https://www.facebook.com/mywindsornow", "website": "http://www.mywindsornow.com/", "city-county-lat": 40.47997, "city-county-name": "Windsor", "twitter": "http://www.twitter.com/WindsorNow", "name": "Windsor Now", "video": ""}, {"city-county-long": -105.06335, "open-search": [], "rss": ["http://www.mountainjackpot.com/feed/", "http://www.mountainjackpot.com/comments/feed/"], "media-class": "newspaper", "media-subclass": "city-county", "facebook": "https://www.facebook.com/TMJnews", "website": "http://www.mountainjackpot.com/", "city-county-lat": 38.996004, "city-county-name": "Woodland Park", "twitter": "http://www.twitter.com/TMountainJ", "name": "Mountain Jackpot", "video": ""}, {"city-county-long": -105.06335, "open-search": [], "rss": [], "media-class": "newspaper", "media-subclass": "city-county", "facebook": "https://www.facebook.com/pages/PIKES-PEAK-Courier/375256489221170", "website": "http://www.pikespeaknewspapers.com/the-pikes-peak-courier/", "city-county-lat": 38.996004, "city-county-name": "Woodland Park", "twitter": "", "name": "Pikes Peak Courier", "video": ""}, {"city-county-long": -105.0902, "open-search": [], "rss": ["http://collegian.com/feed/", "http://collegian.com/comments/feed/"], "media-class": "newspaper", "media-subclass": "college", "facebook": "https://www.facebook.com/pages/The-Rocky-Mountain-Collegian/80941352421", "website": "http://www.collegian.com/", "city-county-lat": 40.5703, "city-county-name": "Co St-Ft Collins", "twitter": "http://www.twitter.com/RMCollegian", "name": "Rocky Mountain Collegian", "video": "http://www.youtube.com/user/RockyMtnCollegian"}, {"city-county-long": -107.8684, "open-search": [], "rss": [], "media-class": "newspaper", "media-subclass": "college", "facebook": "https://www.facebook.com/TheIndependentflc", "website": "http://www.theindyonline.com/", "city-county-lat": 37.2753, "city-county-name": "Fort Lewis College", "twitter": "http://www.twitter.com/flcindependent", "name": "Independent", "video": ""}, {"city-county-long": -108.5535, "open-search": [], "rss": ["http://thecrite.com/comesau/feed/", "http://thecrite.com/comesau/comments/feed/"], "media-class": "newspaper", "media-subclass": "college", "facebook": "", "website": "http://thecrite.com/", "city-county-lat": 39.0788, "city-county-name": "Mesa State College", "twitter": "", "name": "The Criterion Newspaper", "video": ""}, {"city-county-long": -105.0077, "open-search": [], "rss": ["http://mymetmedia.com/feed/", "http://mymetmedia.com/comments/feed/"], "media-class": "newspaper", "media-subclass": "college", "facebook": "https://www.facebook.com/TheMetropolitan", "website": "http://mymetmedia.com/", "city-county-lat": 39.7458, "city-county-name": "Metropolitan State-Denver", "twitter": "http://www.twitter.com/themetonline", "name": "Metropolitan", "video": "http://www.youtube.com/themetonline"}, {"city-county-long": -104.9, "open-search": [], "rss": ["http://cu-sentry.com/feed/", "http://cu-sentry.com/comments/feed/"], "media-class": "newspaper", "media-subclass": "college", "facebook": "https://www.facebook.com/UCDAdvocate", "website": "http://www.ucdadvocate.com/", "city-county-lat": 39.7905, "city-county-name": "Univ of CO Denver", "twitter": "http://www.twitter.com/ucd_advocate", "name": "The Advocate", "video": "http://www.youtube.com/user/ucdadvocate"}, {"city-county-long": -104.9619, "open-search": [], "rss": [], "media-class": "newspaper", "media-subclass": "college", "facebook": "https://www.facebook.com/DUClarion", "website": "http://duclarion.com/", "city-county-lat": 39.6766, "city-county-name": "Univ of Denver", "twitter": "http://www.twitter.com/duclarion", "name": "Clarion", "video": ""}], "radio": [{"city-county-long": -106.8191, "open-search": [], "rss": ["http://aspenpublicradio.org/rss.xml"], "media-class": "radio", "media-subclass": "Aspen Public Radio", "facebook": "https://www.facebook.com/aspenradio", "website": "http://aspenpublicradio.org/", "city-county-lat": 39.196857, "city-county-name": "Aspen", "twitter": "http://www.twitter.com/aspenpubradio", "name": "KAJX 91.5 FM", "video": ""}, {"city-county-long": -106.8191, "open-search": [], "rss": [], "media-class": "radio", "media-subclass": "Aspen Public Radio", "facebook": "https://www.facebook.com/pages/KDNK-Carbondale-Community-Access-Radio/66273715840", "website": "http://kdnk.org/", "city-county-lat": 39.196857, "city-county-name": "Aspen", "twitter": "http://www.twitter.com/kdnkradio", "name": "KDNK 91.5 FM", "video": ""}, {"city-county-long": -106.8191, "open-search": [], "rss": [], "media-class": "radio", "media-subclass": "Aspen Public Radio", "facebook": "https://www.facebook.com/1100knzz", "website": "http://www.1100knzz.com/", "city-county-lat": 39.196857, "city-county-name": "Aspen", "twitter": "http://www.twitter.com/mbcgrandnews", "name": "KNZZ 91.5 FM", "video": "http://www.youtube.com/1100knzz"}, {"city-county-long": -106.8191, "open-search": [], "rss": ["http://ksno.net/feed/", "http://ksno.net/comments/feed/"], "media-class": "radio", "media-subclass": "Aspen Public Radio", "facebook": "https://www.facebook.com/pages/Team-KSNO/196202532636", "website": "http://www.ksno.net/", "city-county-lat": 39.196857, "city-county-name": "Aspen", "twitter": "", "name": "KSNO 91.5 FM", "video": ""}, {"city-county-long": -105.21928, "open-search": [], "rss": [], "media-class": "radio", "media-subclass": "Adult Alternative", "facebook": "https://www.facebook.com/KBCO97.3FM", "website": "http://www.kbco.com/", "city-county-lat": 40.044385, "city-county-name": "Boulder", "twitter": "http://www.twitter.com/973KBCO", "name": "KBCO 97.3 FM", "video": ""}, {"city-county-long": -105.21928, "open-search": [], "rss": [], "media-class": "radio", "media-subclass": "Adult Alternative", "facebook": "https://www.facebook.com/pages/KGNU-Community-Radio/162191133812039", "website": "http://www.kgnu.org/", "city-county-lat": 40.044385, "city-county-name": "Boulder", "twitter": "http://www.twitter.com/KGNU", "name": "KGNU 97.3 FM", "video": ""}, {"city-county-long": -105.21928, "open-search": [], "rss": [], "media-class": "radio", "media-subclass": "Adult Alternative", "facebook": "https://www.facebook.com/ColorMeInKvcuRadio1190", "website": "http://www.radio1190.org/", "city-county-lat": 40.044385, "city-county-name": "Boulder", "twitter": "http://www.twitter.com/Radio1190NEWS", "name": "KVCU 97.3 FM", "video": "https://www.youtube.com/user/KVCURadio1190/videos"}, {"city-county-long": -104.84063, "open-search": [], "rss": [], "media-class": "radio", "media-subclass": "Country", "facebook": "https://www.facebook.com/y969country", "website": "http://www.y969.com/", "city-county-lat": 38.828692, "city-county-name": "Colorado Springs", "twitter": "http://www.twitter.com/Y969", "name": "KCCY 96.9 FM", "video": ""}, {"city-county-long": -104.84063, "open-search": [], "rss": ["http://www.xtrasports1300.com/comments/feed/", "http://www.xtrasports1300.com/feed/", "http://www.xtrasports1300.com/home/feed/"], "media-class": "radio", "media-subclass": "Country", "facebook": "https://www.facebook.com/AM1300TheAnimal", "website": "http://www.theanimal1300.com/", "city-county-lat": 38.828692, "city-county-name": "Colorado Springs", "twitter": "http://www.twitter.com/AM1300TheAnimal", "name": "KCFS 96.9 FM", "video": ""}, {"city-county-long": -104.84063, "open-search": [], "rss": ["https://www.kcme.org/feed/", "https://www.kcme.org/comments/feed/"], "media-class": "radio", "media-subclass": "Country", "facebook": "https://www.facebook.com/pages/KCME-Classical-Music-Radio/335474505079", "website": "http://www.kcme.org/", "city-county-lat": 38.828692, "city-county-name": "Colorado Springs", "twitter": "", "name": "KCME 96.9 FM", "video": ""}, {"city-county-long": -104.84063, "open-search": [], "rss": [], "media-class": "radio", "media-subclass": "Country", "facebook": "https://www.facebook.com/pages/961-The-Beat/224690610892967", "website": "http://www.beatcolorado.com/", "city-county-lat": 38.828692, "city-county-name": "Colorado Springs", "twitter": "http://www.twitter.com/BeatColorado", "name": "KIBT 96.9 FM", "video": ""}, {"city-county-long": -104.84063, "open-search": [], "rss": ["http://www.kkfm.com/feed/", "http://www.kkfm.com/home/feed/", "http://www.kkfm.com/comments/feed/"], "media-class": "radio", "media-subclass": "Country", "facebook": "https://www.facebook.com/KKFM981", "website": "http://www.kkfm.com/", "city-county-lat": 38.828692, "city-county-name": "Colorado Springs", "twitter": "", "name": "KKFM 96.9 FM", "video": ""}, {"city-county-long": -104.84063, "open-search": [], "rss": [], "media-class": "radio", "media-subclass": "Country", "facebook": "https://www.facebook.com/kklifm", "website": "http://www.klite1063.com/", "city-county-lat": 38.828692, "city-county-name": "Colorado Springs", "twitter": "http://www.twitter.com/klite1063", "name": "KKLI 96.9 FM", "video": ""}, {"city-county-long": -104.84063, "open-search": [], "rss": ["http://www.989magicfm.com/comments/feed/", "http://www.989magicfm.com/feed/", "http://www.989magicfm.com/home/feed/"], "media-class": "radio", "media-subclass": "Country", "facebook": "https://www.facebook.com/989magic", "website": "http://www.989magicfm.com/", "city-county-lat": 38.828692, "city-county-name": "Colorado Springs", "twitter": "", "name": "KKMG 96.9 FM", "video": ""}, {"city-county-long": -104.84063, "open-search": [], "rss": ["http://www.kvor.com/comments/feed/", "http://www.kvor.com/home/feed/", "http://www.kvor.com/feed/"], "media-class": "radio", "media-subclass": "Country", "facebook": "https://www.facebook.com/740kvor", "website": "http://www.kvor.com/", "city-county-lat": 38.828692, "city-county-name": "Colorado Springs", "twitter": "http://www.twitter.com/740kvor", "name": "KVOR 96.9 FM", "video": ""}, {"city-county-long": -104.856808, "open-search": [], "rss": [], "media-class": "radio", "media-subclass": "Adult Contemp", "facebook": "https://www.facebook.com/alice1059", "website": "http://www.alice1059.com/", "city-county-lat": 39.726303, "city-county-name": "Denver", "twitter": "http://www.twitter.com/alice1059", "name": "KALC 105.9 FM", "video": "http://www.youtube.com/user/Alice1059TV"}, {"city-county-long": -104.856808, "open-search": [], "rss": [], "media-class": "radio", "media-subclass": "Adult Contemp", "facebook": "https://www.facebook.com/KBPIFM", "website": "http://www.kbpi.com/", "city-county-lat": 39.726303, "city-county-name": "Denver", "twitter": "http://www.twitter.com/1067kbpi", "name": "KBPI 105.9 FM", "video": ""}, {"city-county-long": -104.856808, "open-search": [], "rss": [], "media-class": "radio", "media-subclass": "Adult Contemp", "facebook": "https://www.facebook.com/CPRnews", "website": "http://www.cpr.org/", "city-county-lat": 39.726303, "city-county-name": "Denver", "twitter": "http://www.twitter.com/newscpr", "name": "KCFR 105.9 FM", "video": "http://www.youtube.com/user/ColoradoPublicRadio"}, {"city-county-long": -104.856808, "open-search": [], "rss": [], "media-class": "radio", "media-subclass": "Adult Contemp", "facebook": "", "website": "http://www.studio1430.com/", "city-county-lat": 39.726303, "city-county-name": "Denver", "twitter": "", "name": "KEZW 105.9 FM", "video": ""}, {"city-county-long": -104.856808, "open-search": [], "rss": [], "media-class": "radio", "media-subclass": "Adult Contemp", "facebook": "https://www.facebook.com/630KHOW", "website": "http://www.khow.com/", "city-county-lat": 39.726303, "city-county-name": "Denver", "twitter": "http://www.twitter.com/630khow", "name": "KHOW 105.9 FM", "video": ""}, {"city-county-long": -104.856808, "open-search": [], "rss": ["http://www.mix100.com/feed/", "http://www.mix100.com/home-page/feed/", "http://www.mix100.com/comments/feed/"], "media-class": "radio", "media-subclass": "Adult Contemp", "facebook": "https://www.facebook.com/mix100", "website": "http://www.mix100.com/", "city-county-lat": 39.726303, "city-county-name": "Denver", "twitter": "http://www.twitter.com/mix100denver", "name": "KIMN 105.9 FM", "video": ""}, {"city-county-long": -104.856808, "open-search": [], "rss": [], "media-class": "radio", "media-subclass": "Adult Contemp", "facebook": "https://www.facebook.com/1043TheFan", "website": "http://www.1043thefan.com/", "city-county-lat": 39.726303, "city-county-name": "Denver", "twitter": "http://www.twitter.com/1043TheFan", "name": "KKFN 105.9 FM", "video": "http://www.youtube.com/user/1043TheFanDenver"}, {"city-county-long": -104.856808, "open-search": [], "rss": [], "media-class": "radio", "media-subclass": "Adult Contemp", "facebook": "https://www.facebook.com/AM760", "website": "http://www.am760.net/", "city-county-lat": 39.726303, "city-county-name": "Denver", "twitter": "http://www.twitter.com/AM760", "name": "KKZN 105.9 FM", "video": ""}, {"city-county-long": -104.856808, "open-search": [], "rss": [], "media-class": "radio", "media-subclass": "Adult Contemp", "facebook": "https://www.facebook.com/710KNUS", "website": "http://www.710knus.com/", "city-county-lat": 39.726303, "city-county-name": "Denver", "twitter": "http://www.twitter.com/710KNUS", "name": "KNUS 105.9 FM", "video": "http://www.youtube.com/user/710KNUS"}, {"city-county-long": -104.856808, "open-search": [], "rss": [], "media-class": "radio", "media-subclass": "Adult Contemp", "facebook": "http://www.facebook.com/850koa", "website": "http://www.850koa.com/", "city-county-lat": 39.726303, "city-county-name": "Denver", "twitter": "http://www.twitter.com/850KOA", "name": "KOA 105.9 FM", "video": ""}, {"city-county-long": -104.856808, "open-search": [], "rss": ["http://kosi101.com/feed/", "http://kosi101.com/comments/feed/"], "media-class": "radio", "media-subclass": "Adult Contemp", "facebook": "https://www.facebook.com/KOSI101", "website": "http://www.kosi101.com/", "city-county-lat": 39.726303, "city-county-name": "Denver", "twitter": "http://www.twitter.com/kosi1011", "name": "KOSI 105.9 FM", "video": "http://www.youtube.com/user/kosiradio"}, {"city-county-long": -104.856808, "open-search": [], "rss": [], "media-class": "radio", "media-subclass": "Adult Contemp", "facebook": "https://www.facebook.com/KS1075", "website": "http://www.ks1075.com/", "city-county-lat": 39.726303, "city-county-name": "Denver", "twitter": "http://www.twitter.com/ks1075", "name": "KQKS 105.9 FM", "video": "http://www.youtube.com/user/ziggy8503"}, {"city-county-long": -104.856808, "open-search": [], "rss": [], "media-class": "radio", "media-subclass": "Adult Contemp", "facebook": "https://www.facebook.com/995themountain", "website": "http://www.995themountain.com/", "city-county-lat": 39.726303, "city-county-name": "Denver", "twitter": "http://www.twitter.com/995themountain", "name": "KQMT 105.9 FM", "video": ""}, {"city-county-long": -104.856808, "open-search": [], "rss": [], "media-class": "radio", "media-subclass": "Adult Contemp", "facebook": "https://www.facebook.com/1035thefox", "website": "http://www.thefox.com/", "city-county-lat": 39.726303, "city-county-name": "Denver", "twitter": "http://www.twitter.com/1035thefox", "name": "KRFX 105.9 FM", "video": ""}, {"city-county-long": -104.856808, "open-search": [], "rss": [], "media-class": "radio", "media-subclass": "Adult Contemp", "facebook": "https://www.facebook.com/KTCLChannel933", "website": "http://www.area93.com/", "city-county-lat": 39.726303, "city-county-name": "Denver", "twitter": "", "name": "KTCL 105.9 FM", "video": ""}, {"city-county-long": -104.856808, "open-search": [], "rss": ["http://kuvo.org/rss.xml"], "media-class": "radio", "media-subclass": "Adult Contemp", "facebook": "https://www.facebook.com/jazz89kuvo", "website": "http://www.kuvo.org/", "city-county-lat": 39.726303, "city-county-name": "Denver", "twitter": "http://www.twitter.com/KUVOJazz89", "name": "KUVO 105.9 FM", "video": ""}, {"city-county-long": -104.856808, "open-search": [], "rss": [], "media-class": "radio", "media-subclass": "Adult Contemp", "facebook": "https://www.facebook.com/CPRclassical", "website": "http://www.cpr.org/", "city-county-lat": 39.726303, "city-county-name": "Denver", "twitter": "http://www.twitter.com/cprclassical", "name": "KVOD 105.9 FM", "video": "http://www.youtube.com/user/ColoradoPublicRadio"}, {"city-county-long": -104.856808, "open-search": [], "rss": ["http://www.kool105.com/feed/", "http://www.kool105.com/comments/feed/", "http://www.kool105.com/home-page/feed/"], "media-class": "radio", "media-subclass": "Adult Contemp", "facebook": "https://www.facebook.com/kool105denver", "website": "http://www.kool105.com/", "city-county-lat": 39.726303, "city-county-name": "Denver", "twitter": "http://www.twitter.com/kool105denver", "name": "KXKL 105.9 FM", "video": ""}, {"city-county-long": -104.856808, "open-search": [], "rss": ["http://kygo.com/feed/", "http://kygo.com/comments/feed/"], "media-class": "radio", "media-subclass": "Adult Contemp", "facebook": "https://www.facebook.com/98.5KYGO", "website": "http://www.kygo.com/", "city-county-lat": 39.726303, "city-county-name": "Denver", "twitter": "http://www.twitter.com/DenversKYGO", "name": "KYGO 105.9 FM", "video": "http://www.youtube.com/user/985KYGO"}, {"city-county-long": -107.84945, "open-search": [], "rss": [], "media-class": "radio", "media-subclass": "Voice of Rockies", "facebook": "", "website": "http://www.radiodurango.com/kiqx.html", "city-county-lat": 37.295888, "city-county-name": "Durango", "twitter": "", "name": "KIQX 101.3 FM", "video": ""}, {"city-county-long": -107.84945, "open-search": [], "rss": [], "media-class": "radio", "media-subclass": "Voice of Rockies", "facebook": "", "website": "http://www.radiodurango.com/kiup.html", "city-county-lat": 37.295888, "city-county-name": "Durango", "twitter": "", "name": "KIUP 101.3 FM", "video": ""}, {"city-county-long": -107.84945, "open-search": [], "rss": [], "media-class": "radio", "media-subclass": "Voice of Rockies", "facebook": "", "website": "http://www.radiodurango.com/krsj.html", "city-county-lat": 37.295888, "city-county-name": "Durango", "twitter": "", "name": "KRSJ 101.3 FM", "video": ""}, {"city-county-long": -105.10494, "open-search": [], "rss": ["http://rock1029.com/feed/"], "media-class": "radio", "media-subclass": "Classic Rock", "facebook": "https://www.facebook.com/Rock1029", "website": "http://rock1029.com/", "city-county-lat": 40.586282, "city-county-name": "Fort Collins", "twitter": "", "name": "KARS 102.9 FM", "video": ""}, {"city-county-long": -105.10494, "open-search": [], "rss": [], "media-class": "radio", "media-subclass": "Classic Rock", "facebook": "https://www.facebook.com/600kcol", "website": "http://www.600kcol.com/", "city-county-lat": 40.586282, "city-county-name": "Fort Collins", "twitter": "http://www.twitter.com/600KCOLMornings", "name": "KCOL 102.9 FM", "video": ""}, {"city-county-long": -105.10494, "open-search": [], "rss": ["http://kcsufm.com/comments/feed/", "http://kcsufm.com/feed/"], "media-class": "radio", "media-subclass": "Classic Rock", "facebook": "https://www.facebook.com/pages/905-KCSU/92374116165", "website": "http://www.kcsufm.com/", "city-county-lat": 40.586282, "city-county-name": "Fort Collins", "twitter": "http://www.twitter.com/kcsufm", "name": "KCSU 102.9 FM", "video": ""}, {"city-county-long": -105.10494, "open-search": [], "rss": ["http://1360am.co/index.php/feed/", "http://1360am.co/index.php/comments/feed/"], "media-class": "radio", "media-subclass": "Classic Rock", "facebook": "http://www.facebook.com/1360amthelion", "website": "http://americanewsnet.com/", "city-county-lat": 40.586282, "city-county-name": "Fort Collins", "twitter": "", "name": "KHNC 102.9 FM", "video": ""}, {"city-county-long": -105.10494, "open-search": [], "rss": [], "media-class": "radio", "media-subclass": "Classic Rock", "facebook": "https://www.facebook.com/KIIXAM1410", "website": "http://www.kiixcountry.com/", "city-county-lat": 40.586282, "city-county-name": "Fort Collins", "twitter": "http://www.twitter.com/KIIXCountry", "name": "KIIX 102.9 FM", "video": ""}, {"city-county-long": -105.10494, "open-search": [], "rss": ["http://thexfrontrange.com/feed/"], "media-class": "radio", "media-subclass": "Classic Rock", "facebook": "https://www.facebook.com/943loudwire", "website": "http://943loudwire.com/", "city-county-lat": 40.586282, "city-county-name": "Fort Collins", "twitter": "http://www.twitter.com/943Loudwire", "name": "KMAX 102.9 FM", "video": ""}, {"city-county-long": -105.10494, "open-search": [], "rss": [], "media-class": "radio", "media-subclass": "Classic Rock", "facebook": "https://www.facebook.com/1079thebear", "website": "http://www.1079thebear.com/", "city-county-lat": 40.586282, "city-county-name": "Fort Collins", "twitter": "http://www.twitter.com/1079fmTheBear", "name": "KPAW 102.9 FM", "video": ""}, {"city-county-long": -105.10494, "open-search": [], "rss": ["http://www.krfcfm.org/feed/", "http://www.krfcfm.org/feed/podcast"], "media-class": "radio", "media-subclass": "Classic Rock", "facebook": "https://www.facebook.com/KRFCradio", "website": "http://www.krfcfm.org/", "city-county-lat": 40.586282, "city-county-name": "Fort Collins", "twitter": "http://www.twitter.com/KRFC", "name": "KRFC 102.9 FM", "video": ""}, {"city-county-long": -105.10494, "open-search": [], "rss": [], "media-class": "radio", "media-subclass": "Classic Rock", "facebook": "https://www.facebook.com/961kissfm", "website": "http://www.kissfmcolorado.com/", "city-county-lat": 40.586282, "city-county-name": "Fort Collins", "twitter": "http://www.twitter.com/961kissfm", "name": "KSME 102.9 FM", "video": "http://www.youtube.com/user/kissfmcolorado"}, {"city-county-long": -105.10494, "open-search": [], "rss": ["http://tri1025.com/feed/"], "media-class": "radio", "media-subclass": "Classic Rock", "facebook": "https://www.facebook.com/TRI1025", "website": "http://tri1025.com/", "city-county-lat": 40.586282, "city-county-name": "Fort Collins", "twitter": "http://www.twitter.com/tri1025", "name": "KTRR 102.9 FM", "video": "https://www.youtube.com/user/TRI1025Radio/videos"}, {"city-county-long": -106.14029, "open-search": [], "rss": [], "media-class": "radio", "media-subclass": "Adult Contemp", "facebook": "https://www.facebook.com/Krystal93Radio", "website": "http://www.krystal93.com/", "city-county-lat": 39.532506, "city-county-name": "Frisco", "twitter": "http://www.twitter.com/krystal93Radio", "name": "KYSL 93.9 FM", "video": ""}, {"city-county-long": -105.0844, "open-search": [], "rss": [], "media-class": "radio", "media-subclass": "Nostalgia/Country", "facebook": "https://www.facebook.com/pages/Pirate-Radio-KELS-LP-Greeley-CO-1047FM/127158307479", "website": "http://www.pirate1047.com/", "city-county-lat": 40.5853, "city-county-name": "Ft. Collins", "twitter": "", "name": "KELS 104.7 FM", "video": ""}, {"city-county-long": -107.32107, "open-search": [], "rss": ["http://www.kmts.com/comments/feed", "http://www.kmts.com/feed", "http://www.kmts.com/339-2/feed"], "media-class": "radio", "media-subclass": "Country", "facebook": "https://www.facebook.com/kmtsfm", "website": "http://www.kmts.com/", "city-county-lat": 39.533318, "city-county-name": "Glenwood Springs", "twitter": "", "name": "KMTS 99.1 FM", "video": ""}, {"city-county-long": -108.55, "open-search": [], "rss": [], "media-class": "radio", "media-subclass": "Community", "facebook": "https://www.facebook.com/kafm.communityradio", "website": "http://kafmradio.org/", "city-county-lat": 39.072831, "city-county-name": "Grand Junction", "twitter": "", "name": "KAFM 88.1 FM", "video": "http://www.youtube.com/user/KAFMRADIO"}, {"city-county-long": -108.55, "open-search": [], "rss": [], "media-class": "radio", "media-subclass": "Community", "facebook": "https://www.facebook.com/thevault1007", "website": "http://www.thevault923.com/", "city-county-lat": 39.072831, "city-county-name": "Grand Junction", "twitter": "http://www.twitter.com/thevault1007", "name": "KKVT 88.1 FM", "video": ""}, {"city-county-long": -108.55, "open-search": [], "rss": [], "media-class": "radio", "media-subclass": "Community", "facebook": "https://www.facebook.com/93magic", "website": "http://www.931magic.com/", "city-county-lat": 39.072831, "city-county-name": "Grand Junction", "twitter": "http://www.twitter.com/931magic", "name": "KMGJ 88.1 FM", "video": "http://www.youtube.com/931magic"}, {"city-county-long": -108.55, "open-search": [], "rss": [], "media-class": "radio", "media-subclass": "Community", "facebook": "https://www.facebook.com/1100knzz", "website": "http://www.1100knzz.com/", "city-county-lat": 39.072831, "city-county-name": "Grand Junction", "twitter": "", "name": "KNZZ 88.1 FM", "video": "http://www.youtube.com/1100knzz"}, {"city-county-long": -104.800547, "open-search": [], "rss": ["http://1310kfka.com/feed/", "http://1310kfka.com/comments/feed/"], "media-class": "radio", "media-subclass": "News Talk", "facebook": "https://www.facebook.com/pages/NewsTalk-1310-KFKA/67710586948", "website": "http://1310kfka.com/", "city-county-lat": 40.405094, "city-county-name": "Greeley", "twitter": "http://www.twitter.com/1310kfkanews", "name": "KFKA 1310 AM", "video": ""}, {"city-county-long": -104.800547, "open-search": [], "rss": ["http://k99.com/feed/"], "media-class": "radio", "media-subclass": "News Talk", "facebook": "http://www.facebook.com/K99FM", "website": "http://k99.com/", "city-county-lat": 40.405094, "city-county-name": "Greeley", "twitter": "http://www.twitter.com/K99radio", "name": "KUAD 1310 AM", "video": ""}, {"city-county-long": -104.800547, "open-search": [], "rss": ["http://www.kunc.org/rss.xml"], "media-class": "radio", "media-subclass": "News Talk", "facebook": "https://www.facebook.com/KUNC915", "website": "http://kunc.org/", "city-county-lat": 40.405094, "city-county-name": "Greeley", "twitter": "http://www.twitter.com/kunc", "name": "KUNC 1310 AM", "video": ""}, {"city-county-long": -105.56054, "open-search": [], "rss": [], "media-class": "radio", "media-subclass": "Free Form", "facebook": "http://www.facebook.com/KYGTFM", "website": "http://www.kygt.org/", "city-county-lat": 39.737369, "city-county-name": "Idaho Springs", "twitter": "", "name": "KYGT 102.7 FM", "video": ""}, {"city-county-long": -107.11287, "open-search": [], "rss": [], "media-class": "radio", "media-subclass": "Adult Contemp", "facebook": "https://www.facebook.com/pages/KWUF-1063-FM/181416815985", "website": "http://www.kwuf.com/", "city-county-lat": 37.241179, "city-county-name": "Pagosa Springs", "twitter": "", "name": "KWUF 106.1 FM", "video": ""}, {"city-county-long": -107.11287, "open-search": [], "rss": [], "media-class": "radio", "media-subclass": "Adult Contemp", "facebook": "", "website": "http://www.kwuf.com/", "city-county-lat": 37.241179, "city-county-name": "Pagosa Springs", "twitter": "", "name": "KWUF 106.1 FM", "video": ""}, {"city-county-long": -107.58799, "open-search": [], "rss": ["http://kvnf.org/rss.xml"], "media-class": "radio", "media-subclass": "Community Radio", "facebook": "https://www.facebook.com/pages/KVNF-Mountain-Grown-Public-Radio/369642720599", "website": "http://kvnf.org/", "city-county-lat": 38.877695, "city-county-name": "Paonia", "twitter": "http://www.twitter.com/kvnfradio", "name": "KVNF 90.9 FM", "video": ""}, {"city-county-long": -108.11571, "open-search": [], "rss": ["http://95rockfm.com/feed/"], "media-class": "radio", "media-subclass": "Epic Rock", "facebook": "https://www.facebook.com/KKNNFM", "website": "http://95rockfm.com/", "city-county-lat": 39.493283, "city-county-name": "Parachute", "twitter": "http://www.twitter.com/95RockKKNN", "name": "KDBN 101.1 FM", "video": ""}, {"city-county-long": -108.11571, "open-search": [], "rss": ["http://www.ksunradio.org/rss.xml"], "media-class": "radio", "media-subclass": "Epic Rock", "facebook": "", "website": "http://www.ksunradio.org/", "city-county-lat": 39.493283, "city-county-name": "Parachute", "twitter": "", "name": "KSBP 101.1 FM", "video": ""}, {"city-county-long": -104.57029, "open-search": [], "rss": [], "media-class": "radio", "media-subclass": "Oldies", "facebook": "", "website": "http://www.z1079rocks.com/", "city-county-lat": 38.282872, "city-county-name": "Pueblo", "twitter": "http://www.twitter.com/Z1079Rocks", "name": "KDZA 107.9 FM", "video": ""}, {"city-county-long": -104.57029, "open-search": [], "rss": [], "media-class": "radio", "media-subclass": "Oldies", "facebook": "https://www.facebook.com/955kpht", "website": "http://www.kpht955.com/", "city-county-lat": 38.282872, "city-county-name": "Pueblo", "twitter": "http://www.twitter.com/KPHT955", "name": "KPHT 107.9 FM", "video": "http://www.youtube.com/user/KPHT955"}, {"city-county-long": -122.4194, "open-search": [], "rss": [], "media-class": "radio", "media-subclass": "Sports Talk", "facebook": "https://www.facebook.com/957thegame", "website": "http://www.957thegame.com/", "city-county-lat": 37.7749, "city-county-name": "San Francisco", "twitter": "http://www.twitter.com/957thegame", "name": "KGMZ 95.7 FM", "video": ""}, {"city-county-long": -107.88874, "open-search": [], "rss": ["http://koto.org/feed/"], "media-class": "radio", "media-subclass": "Public Radio", "facebook": "https://www.facebook.com/pages/KOTO-Community-Radio-Telluride/145296022209430", "website": "http://koto.org/", "city-county-lat": 37.932874, "city-county-name": "Telluride", "twitter": "", "name": "KOTO 91.7 FM", "video": ""}, {"city-county-long": -104.80456, "open-search": [], "rss": [], "media-class": "radio", "media-subclass": "Country", "facebook": "https://www.facebook.com/KSPKFM", "website": "http://www.kspk.com/", "city-county-lat": 37.621071, "city-county-name": "Walsenburg", "twitter": "", "name": "KSPK 102.3 FM", "video": ""}], "state-name": "Colorado_CO", "tv": [{"city-county-long": -104.84063, "open-search": [], "rss": [], "media-class": "tv", "media-subclass": "", "facebook": "https://www.facebook.com/kktv11news", "website": "http://www.kktv.com/", "city-county-lat": 38.828692, "city-county-name": "Colorado Springs", "twitter": "http://www.twitter.com/kktv11news", "name": "KKTV", "video": ""}, {"city-county-long": -104.84063, "open-search": [], "rss": [], "media-class": "tv", "media-subclass": "", "facebook": "https://www.facebook.com/KRDONewsChannel13", "website": "http://www.krdo.com/", "city-county-lat": 38.828692, "city-county-name": "Colorado Springs", "twitter": "http://www.twitter.com/krdonc13", "name": "KRDO", "video": "https://www.youtube.com/user/KRDOTV"}, {"city-county-long": -104.84063, "open-search": ["http://fox21news.com/osd.xml", "https://s1.wp.com/opensearch.xml"], "rss": ["http://fox21news.com/feed/", "http://fox21news.com/comments/feed/"], "media-class": "tv", "media-subclass": "", "facebook": "https://www.facebook.com/FOX21NewsColorado", "website": "http://www.fox21news.com/", "city-county-lat": 38.828692, "city-county-name": "Colorado Springs", "twitter": "http://www.twitter.com/FOX21News", "name": "KXRM", "video": "http://www.youtube.com/user/FOX21NewsColorado"}, {"city-county-long": -104.856808, "open-search": [], "rss": ["http://www.cpt12.org/comments/feed/", "http://www.cpt12.org/feed/", "http://www.cpt12.org/homepage/feed/"], "media-class": "tv", "media-subclass": "", "facebook": "https://www.facebook.com/CPT12", "website": "http://www.cpt12.org/", "city-county-lat": 39.726303, "city-county-name": "Denver", "twitter": "http://www.twitter.com/ColoPublicTV", "name": "KBDI", "video": "http://www.youtube.com/user/ColoradoPublicTV"}, {"city-county-long": -104.856808, "open-search": ["http://denver.cbslocal.com/osd.xml", "https://s1.wp.com/opensearch.xml"], "rss": ["http://denver.cbslocal.com/comments/feed/", "http://denver.cbslocal.com/feed/", "http://denver.cbslocal.com/home-section/feed/"], "media-class": "tv", "media-subclass": "", "facebook": "https://www.facebook.com/CBSDenver", "website": "http://denver.cbslocal.com/", "city-county-lat": 39.726303, "city-county-name": "Denver", "twitter": "http://www.twitter.com/CBSdenver", "name": "KCNC", "video": ""}, {"city-county-long": -104.856808, "open-search": ["https://s1.wp.com/opensearch.xml", "http://kdvr.com/osd.xml"], "rss": ["http://kdvr.com/comments/feed/", "http://kdvr.com/feed/"], "media-class": "tv", "media-subclass": "", "facebook": "https://www.facebook.com/fox31denver", "website": "http://kdvr.com/", "city-county-lat": 39.726303, "city-county-name": "Denver", "twitter": "http://www.twitter.com/KDVR", "name": "KDVR", "video": "http://www.youtube.com/user/KDVRDenver"}, {"city-county-long": -104.856808, "open-search": [], "rss": [], "media-class": "tv", "media-subclass": "", "facebook": "https://www.facebook.com/DenverChannel", "website": "http://www.thedenverchannel.com/", "city-county-lat": 39.726303, "city-county-name": "Denver", "twitter": "http://www.twitter.com/DenverChannel", "name": "KMGH", "video": "http://www.youtube.com/user/7NewsDenver"}, {"city-county-long": -104.856808, "open-search": [], "rss": [], "media-class": "tv", "media-subclass": "", "facebook": "https://www.facebook.com/rmpbs", "website": "http://rmpbs.org/", "city-county-lat": 39.726303, "city-county-name": "Denver", "twitter": "http://www.twitter.com/rmpbs", "name": "KRMA", "video": "http://www.youtube.com/user/rockymtnpbs"}, {"city-county-long": -104.856808, "open-search": [], "rss": [], "media-class": "tv", "media-subclass": "", "facebook": "https://www.facebook.com/DaystarTV", "website": "http://www.daystar.com/", "city-county-lat": 39.726303, "city-county-name": "Denver", "twitter": "http://www.twitter.com/daystar", "name": "KRMT", "video": "http://www.youtube.com/user/DaystarTV"}, {"city-county-long": -104.856808, "open-search": [], "rss": [], "media-class": "tv", "media-subclass": "", "facebook": "https://www.facebook.com/ilike9news", "website": "http://www.9news.com/", "city-county-lat": 39.726303, "city-county-name": "Denver", "twitter": "http://www.twitter.com/9news", "name": "KUSA", "video": "https://www.youtube.com/user/ameliaearhart9news"}, {"city-county-long": -104.856808, "open-search": ["http://kwgn.com/osd.xml", "https://s1.wp.com/opensearch.xml"], "rss": ["http://kwgn.com/comments/feed/", "http://kwgn.com/feed/"], "media-class": "tv", "media-subclass": "", "facebook": "https://www.facebook.com/kwgnchannel2", "website": "http://kwgn.com/", "city-county-lat": 39.726303, "city-county-name": "Denver", "twitter": "http://www.twitter.com/channel2kwgn", "name": "KWGN", "video": ""}, {"city-county-long": -107.32107, "open-search": [], "rss": [], "media-class": "tv", "media-subclass": "", "facebook": "https://www.facebook.com/KREXTV", "website": "http://www.westernslopenow.com/", "city-county-lat": 39.533318, "city-county-name": "Glenwood Springs", "twitter": "", "name": "KREX", "video": ""}, {"city-county-long": -108.55, "open-search": [], "rss": [], "media-class": "tv", "media-subclass": "", "facebook": "https://www.facebook.com/KJCTNews8", "website": "http://www.kjct8.com/", "city-county-lat": 39.072831, "city-county-name": "Grand Junction", "twitter": "http://www.twitter.com/kjctnews8", "name": "KJCT", "video": "http://www.youtube.com/user/KJCTnews8"}, {"city-county-long": -108.55, "open-search": [], "rss": [], "media-class": "tv", "media-subclass": "", "facebook": "https://www.facebook.com/pages/KKCO-NBC-11-News/90768390702", "website": "http://www.nbc11news.com/", "city-county-lat": 39.072831, "city-county-name": "Grand Junction", "twitter": "http://www.twitter.com/KKCO11News", "name": "KKCO", "video": "http://www.youtube.com/user/KKCO11News"}, {"city-county-long": -108.55, "open-search": [], "rss": [], "media-class": "tv", "media-subclass": "", "facebook": "https://www.facebook.com/KREXTV", "website": "http://www.krextv.com/", "city-county-lat": 39.072831, "city-county-name": "Grand Junction", "twitter": "http://www.twitter.com/KREX5_Fox4", "name": "KREX", "video": ""}, {"city-county-long": -104.57029, "open-search": [], "rss": [], "media-class": "tv", "media-subclass": "", "facebook": "https://www.facebook.com/KOAA", "website": "http://www.koaa.com/", "city-county-lat": 38.282872, "city-county-name": "Pueblo", "twitter": "http://www.twitter.com/KOAA", "name": "KOAA", "video": "http://www.youtube.com/user/newsfirst5"}]}