{"newspaper": [{"city-county-long": -75.69945, "open-search": [], "rss": [], "media-class": "newspaper", "media-subclass": "city-county", "facebook": "https://www.facebook.com/tiempohispano", "website": "http://www.eltiempohispano.com/", "city-county-lat": 39.598203, "city-county-name": "Bear", "twitter": "", "name": "El Tiempo Hispano", "video": ""}, {"city-county-long": -75.51163, "open-search": [], "rss": [], "media-class": "newspaper", "media-subclass": "city-county", "facebook": "https://www.facebook.com/DelawareStateNews", "website": "http://delaware.newszap.com/", "city-county-lat": 39.16426, "city-county-name": "Dover", "twitter": "http://www.twitter.com/TheStateNews", "name": "Delaware State News", "video": "https://www.youtube.com/user/DelawareStateNews"}, {"city-county-long": -75.51163, "open-search": [], "rss": [], "media-class": "newspaper", "media-subclass": "city-county", "facebook": "https://www.facebook.com/doverpost", "website": "http://www.doverpost.com/", "city-county-lat": 39.16426, "city-county-name": "Dover", "twitter": "http://www.twitter.com/Doverpost", "name": "Dover Post", "video": ""}, {"city-county-long": -75.39269, "open-search": [], "rss": [], "media-class": "newspaper", "media-subclass": "city-county", "facebook": "https://www.facebook.com/TheSussexCountian", "website": "http://www.sussexcountian.com/", "city-county-lat": 38.676552, "city-county-name": "Georgetown", "twitter": "http://www.twitter.com/Sussex_Countian", "name": "Sussex Countian", "video": "https://www.youtube.com/user/sussexcountian"}, {"city-county-long": -75.68586, "open-search": [], "rss": [], "media-class": "newspaper", "media-subclass": "city-county", "facebook": "https://www.facebook.com/pages/Community-News-Delaware/135763803144352", "website": "http://www.hockessincommunitynews.com/", "city-county-lat": 39.784014, "city-county-name": "Hockessin", "twitter": "", "name": "Community News", "video": ""}, {"city-county-long": -75.55304, "open-search": [], "rss": [], "media-class": "newspaper", "media-subclass": "city-county", "facebook": "https://www.facebook.com/pages/Laurel-Star-sports/136068876425628", "website": "http://www.laurelstar.com/", "city-county-lat": 38.549721, "city-county-name": "Laurel", "twitter": "", "name": "Laurel Star", "video": ""}, {"city-county-long": -75.16282, "open-search": [], "rss": [], "media-class": "newspaper", "media-subclass": "city-county", "facebook": "https://www.facebook.com/CapeGazette", "website": "http://capegazette.villagesoup.com/", "city-county-lat": 38.746207, "city-county-name": "Lewes", "twitter": "http://www.twitter.com/CapeGazette", "name": "Cape Gazette", "video": "https://www.youtube.com/user/capegazette"}, {"city-county-long": -75.6932, "open-search": [], "rss": [], "media-class": "newspaper", "media-subclass": "city-county", "facebook": "https://www.facebook.com/pages/The-Middletown-Transcript/114801044121", "website": "http://www.middletowntranscript.com/", "city-county-lat": 39.479602, "city-county-name": "Middletown", "twitter": "http://www.twitter.com/TranscriptMOT", "name": "Middletown Transcript", "video": ""}, {"city-county-long": -75.41449, "open-search": [], "rss": [], "media-class": "newspaper", "media-subclass": "city-county", "facebook": "https://www.facebook.com/MilfordBeacon", "website": "http://www.milfordbeacon.com/", "city-county-lat": 38.922806, "city-county-name": "Milford", "twitter": "http://www.twitter.com/MilfordBeaconDE", "name": "Milford Beacon", "video": ""}, {"city-county-long": -75.41449, "open-search": [], "rss": ["http://milfordchronicle.net/feed/atom/", "http://milfordchronicle.net/comments/feed/", "http://milfordchronicle.net/feed/"], "media-class": "newspaper", "media-subclass": "city-county", "facebook": "https://www.facebook.com/pages/Milford-Chronicle/145797875479193", "website": "http://milfordchronicle.net/", "city-county-lat": 38.922806, "city-county-name": "Milford", "twitter": "", "name": "Milford Chronicle", "video": "https://www.youtube.com/user/MilfordChronicle"}, {"city-county-long": -75.41449, "open-search": [], "rss": ["http://sussexcountypost.com/comments/feed/", "http://sussexcountypost.com/feed/atom/", "http://sussexcountypost.com/feed/"], "media-class": "newspaper", "media-subclass": "city-county", "facebook": "https://www.facebook.com/pages/Sussex-County-Post/146072638782248", "website": "http://sussexcountypost.com/", "city-county-lat": 38.922806, "city-county-name": "Milford", "twitter": "", "name": "Sussex County Post", "video": ""}, {"city-county-long": -75.71386, "open-search": [], "rss": ["http://www.newarkpostonline.com/search/?f=rss&t=article&l=50&s=start_time&sd=desc&k[]=%23topstory"], "media-class": "newspaper", "media-subclass": "city-county", "facebook": "https://www.facebook.com/newarkpost", "website": "http://www.newarkpostonline.com/", "city-county-lat": 39.626297, "city-county-name": "Newark", "twitter": "http://www.twitter.com/nwkpost", "name": "Newark Post", "video": "http://www.youtube.com/channel/UC_5EFZJWoUbr4Fx7hQvnc9A"}, {"city-county-long": -75.09928, "open-search": [], "rss": [], "media-class": "newspaper", "media-subclass": "city-county", "facebook": "https://www.facebook.com/CoastalPoint", "website": "http://www.coastalpoint.com/", "city-county-lat": 38.55044, "city-county-name": "Ocean View", "twitter": "http://www.twitter.com/coastalpoint", "name": "Coastal Point", "video": "http://www.youtube.com/channel/UCREzG6jexMhf79hbbSYCYGA"}, {"city-county-long": -75.076, "open-search": [], "rss": [], "media-class": "newspaper", "media-subclass": "city-county", "facebook": "https://www.facebook.com/coastpress", "website": "http://www.delmarvanow.com/news/delaware/", "city-county-lat": 38.7209, "city-county-name": "Rehoboth", "twitter": "http://www.twitter.com/DECoastPress", "name": "Delaware Coast Press", "video": ""}, {"city-county-long": -75.61102, "open-search": [], "rss": [], "media-class": "newspaper", "media-subclass": "city-county", "facebook": "https://www.facebook.com/pages/Seaford-Star-sports/143824342295340", "website": "http://www.seafordstar.com/", "city-county-lat": 38.643248, "city-county-name": "Seaford", "twitter": "", "name": "Seaford Star", "video": ""}, {"city-county-long": -75.59391, "open-search": [], "rss": [], "media-class": "newspaper", "media-subclass": "city-county", "facebook": "https://www.facebook.com/scsuntimes", "website": "http://www.scsuntimes.com/", "city-county-lat": 39.29799, "city-county-name": "Smyrna", "twitter": "http://www.twitter.com/scsuntimes", "name": "SCSunTimes.com", "video": ""}, {"city-county-long": -75.54833, "open-search": [], "rss": [], "media-class": "newspaper", "media-subclass": "city-county", "facebook": "https://www.facebook.com/Delawareonline", "website": "http://www.delawareonline.com/", "city-county-lat": 39.738563, "city-county-name": "Wilmington", "twitter": "http://www.twitter.com/delawareonline", "name": "News Journal", "video": "http://www.youtube.com/user/DelawareonlineTV"}, {"city-county-long": -75.7506, "open-search": [], "rss": ["http://udreview.com/comments/feed/", "http://udreview.com/feed/podcast", "http://udreview.com/feed/"], "media-class": "newspaper", "media-subclass": "college", "facebook": "", "website": "http://www.udreview.com/", "city-county-lat": 39.678, "city-county-name": "Univ of DE", "twitter": "http://www.twitter.com/udreview", "name": "The Review", "video": "http://www.youtube.com/user/udreview"}, {"city-county-long": -75.7506, "open-search": [], "rss": [], "media-class": "newspaper", "media-subclass": "college", "facebook": "https://www.facebook.com/udelaware", "website": "http://www.udel.edu/udaily/", "city-county-lat": 39.678, "city-county-name": "Univ of DE", "twitter": "http://www.twitter.com/UDelaware", "name": "UDaily", "video": "http://www.youtube.com/univdelaware"}], "radio": [{"city-county-long": -75.51163, "open-search": [], "rss": [], "media-class": "radio", "media-subclass": "Country", "facebook": "https://www.facebook.com/94.7WDSD", "website": "http://www.wdsd.com/", "city-county-lat": 39.16426, "city-county-name": "Dover", "twitter": "http://www.twitter.com/947WDSD", "name": "WDSD 94.7 FM", "video": "https://www.youtube.com/user/947wdsd/videos"}, {"city-county-long": -75.39269, "open-search": [], "rss": ["http://bigclassicrock.com/feed/", "http://bigclassicrock.com/comments/feed/"], "media-class": "radio", "media-subclass": "Classic Rock", "facebook": "", "website": "http://www.bigclassicrock.com/", "city-county-lat": 38.676552, "city-county-name": "Georgetown", "twitter": "http://www.twitter.com/big985and1035", "name": "WGBG 98.5 FM", "video": ""}, {"city-county-long": -75.41449, "open-search": [], "rss": [], "media-class": "radio", "media-subclass": "Adult Contemp", "facebook": "https://www.facebook.com/pages/Eagle-977-Delawares-Best-Music/158020412472", "website": "http://www.eagle977.com/", "city-county-lat": 38.922806, "city-county-name": "Milford", "twitter": "http://www.twitter.com/Eagle977DE", "name": "WAFL 97.7 FM", "video": ""}, {"city-county-long": -75.09928, "open-search": [], "rss": [], "media-class": "radio", "media-subclass": "Contemp", "facebook": "https://www.facebook.com/pages/B-953-1017/431683573538582", "website": "http://www.musicontheb.com/", "city-county-lat": 38.55044, "city-county-name": "Ocean View", "twitter": "http://www.twitter.com/MusicOnTheB", "name": "WZEB 95.3 FM", "video": ""}, {"city-county-long": -75.076, "open-search": [], "rss": ["http://www.wgmd.com/comments/feed/", "http://www.wgmd.com/home/feed/", "http://www.wgmd.com/feed/"], "media-class": "radio", "media-subclass": "News/Talk", "facebook": "http://www.facebook.com/WGMD927", "website": "http://www.wgmd.com/", "city-county-lat": 38.7209, "city-county-name": "Rehoboth", "twitter": "http://www.twitter.com/WGMDRadio", "name": "WGMD 92.7 FM", "video": "http://www.youtube.com/WGMD927"}, {"city-county-long": -75.15642, "open-search": [], "rss": [], "media-class": "radio", "media-subclass": "Adult Alt", "facebook": "https://www.facebook.com/Ocean98.1", "website": "http://ocean98.com/", "city-county-lat": 38.463751, "city-county-name": "Selbyville", "twitter": "http://www.twitter.com/Ocean98WOCM", "name": "WOCM 98.1 FM", "video": "http://www.youtube.com/user/WOCM981"}, {"city-county-long": -75.54833, "open-search": [], "rss": [], "media-class": "radio", "media-subclass": "News Talk", "facebook": "http://www.facebook.com/1150AMWDEL", "website": "http://www.wdel.com/", "city-county-lat": 39.738563, "city-county-name": "Wilmington", "twitter": "http://www.twitter.com/WDEL", "name": "WDEL 1150 AM", "video": ""}, {"city-county-long": -75.54833, "open-search": [], "rss": [], "media-class": "radio", "media-subclass": "News Talk", "facebook": "http://www.facebook.com/1450WILM", "website": "http://www.wilm.com/", "city-county-lat": 39.738563, "city-county-name": "Wilmington", "twitter": "http://www.twitter.com/1450wilm", "name": "WILM 1150 AM", "video": ""}, {"city-county-long": -75.54833, "open-search": [], "rss": ["http://wjbr.com/videos/feed/"], "media-class": "radio", "media-subclass": "News Talk", "facebook": "http://www.facebook.com/995WJBR", "website": "http://wjbr.com/", "city-county-lat": 39.738563, "city-county-name": "Wilmington", "twitter": "http://www.twitter.com/WJBRfm", "name": "WJBR 1150 AM", "video": ""}, {"city-county-long": -75.54833, "open-search": [], "rss": [], "media-class": "radio", "media-subclass": "News Talk", "facebook": "https://www.facebook.com/pages/Super-917-WMPH/209565902428180", "website": "http://www.brandywineschools.org/wmph", "city-county-lat": 39.738563, "city-county-name": "Wilmington", "twitter": "http://www.twitter.com/RadioWMPH", "name": "WMPH 1150 AM", "video": ""}, {"city-county-long": -75.54833, "open-search": [], "rss": [], "media-class": "radio", "media-subclass": "News Talk", "facebook": "https://www.facebook.com/937WSTW", "website": "http://www.wstw.com/", "city-county-lat": 39.738563, "city-county-name": "Wilmington", "twitter": "http://www.twitter.com/937wstw", "name": "WSTW 1150 AM", "video": "https://www.youtube.com/user/937wstw/videos"}, {"city-county-long": -75.54833, "open-search": [], "rss": ["http://www.wvud.org/?feed=rss2", "http://www.wvud.org/?feed=comments-rss2"], "media-class": "radio", "media-subclass": "News Talk", "facebook": "https://www.facebook.com/WVUDradio", "website": "http://www.wvud.org/", "city-county-lat": 39.738563, "city-county-name": "Wilmington", "twitter": "http://www.twitter.com/wvudradio", "name": "WVUD 1150 AM", "video": ""}, {"city-county-long": -75.54833, "open-search": [], "rss": [], "media-class": "radio", "media-subclass": "News Talk", "facebook": "https://www.facebook.com/1290TheTicket", "website": "http://www.1290theticket.com/", "city-county-lat": 39.738563, "city-county-name": "Wilmington", "twitter": "http://www.twitter.com/1290TheTicket", "name": "WWTX 1150 AM", "video": "https://www.youtube.com/user/1290TheTicket/videos"}, {"city-county-long": -75.54833, "open-search": [], "rss": ["http://www.myreachradio.com/feed.xml"], "media-class": "radio", "media-subclass": "News Talk", "facebook": "", "website": "http://www.myreachradio.com/", "city-county-lat": 39.738563, "city-county-name": "Wilmington", "twitter": "", "name": "WXHL 1150 AM", "video": ""}], "state-name": "Delaware_DE", "tv": [{"city-county-long": -75.51163, "open-search": [], "rss": [], "media-class": "tv", "media-subclass": "", "facebook": "https://www.facebook.com/WBOCTV16", "website": "http://www.wboc.com/", "city-county-lat": 39.16426, "city-county-name": "Dover", "twitter": "http://www.twitter.com/wboc", "name": "WBOC", "video": ""}, {"city-county-long": -75.076, "open-search": [], "rss": [], "media-class": "tv", "media-subclass": "", "facebook": "https://www.facebook.com/47ABC", "website": "http://www.wmdt.com/", "city-county-lat": 38.7209, "city-county-name": "Rehoboth", "twitter": "http://www.twitter.com/47abc", "name": "WMDT", "video": "http://www.youtube.com/user/wmdt47news"}, {"city-county-long": -75.54833, "open-search": [], "rss": [], "media-class": "tv", "media-subclass": "", "facebook": "https://www.facebook.com/whyypublicmedia", "website": "http://www.whyy.org/", "city-county-lat": 39.738563, "city-county-name": "Wilmington", "twitter": "http://www.twitter.com/whyy", "name": "WHYY", "video": "http://www.youtube.com/user/whyyphila"}]}