{"newspaper": [{"city-county-long": -71.22377, "open-search": [], "rss": [], "media-class": "newspaper", "media-subclass": "city-county", "facebook": "https://www.facebook.com/pages/The-Baysider/320180525542", "website": "http://www.newhampshirelakesandmountains.com/118968.113119body.lasso?publication=BAY", "city-county-lat": 43.478364, "city-county-name": "Alton", "twitter": "", "name": "Alton Baysider", "video": ""}, {"city-county-long": -71.51993, "open-search": [], "rss": ["http://feeds.feedburner.com/CabinetPress/local"], "media-class": "newspaper", "media-subclass": "city-county", "facebook": "https://www.facebook.com/CabinetPress", "website": "http://www.cabinet.com/cp/bedfordjournal/", "city-county-lat": 42.942551, "city-county-name": "Bedford", "twitter": "", "name": "Bedford Journal", "video": ""}, {"city-county-long": -71.19092, "open-search": ["http://www.berlindailysun.com/component/search/?Itemid=101&format=opensearch"], "rss": ["/?format=feed&type=rss", "/?format=feed&type=atom"], "media-class": "newspaper", "media-subclass": "city-county", "facebook": "https://www.facebook.com/TheBerlinDailySun", "website": "http://www.berlindailysun.com/", "city-county-lat": 44.463337, "city-county-name": "Berlin", "twitter": "http://www.twitter.com/berlindailysun", "name": "Berlin Daily Sun", "video": ""}, {"city-county-long": -71.19092, "open-search": [], "rss": [], "media-class": "newspaper", "media-subclass": "city-county", "facebook": "https://www.facebook.com/TheBerlinReporter", "website": "http://www.newhampshirelakesandmountains.com/", "city-county-lat": 44.463337, "city-county-name": "Berlin", "twitter": "", "name": "Berlin Reporter", "video": ""}, {"city-county-long": -71.53576, "open-search": [], "rss": ["http://thebowtimes.com/news/feed/", "http://thebowtimes.com/news/comments/feed/"], "media-class": "newspaper", "media-subclass": "city-county", "facebook": "", "website": "http://thebowtimes.com/news/", "city-county-lat": 43.144614, "city-county-name": "Bow", "twitter": "", "name": "Bow Times", "video": ""}, {"city-county-long": -71.23453, "open-search": [], "rss": ["http://tritowntimes.net/comments/feed/", "http://tritowntimes.net/feed/"], "media-class": "newspaper", "media-subclass": "city-county", "facebook": "https://www.facebook.com/TriTownTimes", "website": "http://tritowntimes.net/", "city-county-lat": 42.967823, "city-county-name": "Chester", "twitter": "http://www.twitter.com/LondonderryTime", "name": "Tri-Town Times", "video": ""}, {"city-county-long": -72.34152, "open-search": [], "rss": ["/news.xml"], "media-class": "newspaper", "media-subclass": "city-county", "facebook": "https://www.facebook.com/TheEagleTimes", "website": "http://www.eagletimes.com/", "city-county-lat": 43.374562, "city-county-name": "Claremont", "twitter": "", "name": "Claremont Eagle Times", "video": "https://www.youtube.com/channel/UCiS5nXLH6BguN9RFMsiv8HQ"}, {"city-county-long": -71.44766, "open-search": [], "rss": [], "media-class": "newspaper", "media-subclass": "city-county", "facebook": "https://www.facebook.com/TheColebrookChronicle", "website": "http://colebrookchronicle.weebly.com/", "city-county-lat": 44.893888, "city-county-name": "Colebrook", "twitter": "", "name": "Colebrook Chronicle", "video": "https://www.youtube.com/user/colebrookchronicle/videos"}, {"city-county-long": -71.44766, "open-search": [], "rss": [], "media-class": "newspaper", "media-subclass": "city-county", "facebook": "https://www.facebook.com/pages/The-News-and-Sentinel/212965615476191", "website": "http://www.colbsent.com/", "city-county-lat": 44.893888, "city-county-name": "Colebrook", "twitter": "", "name": "News and Sentinel", "video": ""}, {"city-county-long": -71.53774, "open-search": [], "rss": [], "media-class": "newspaper", "media-subclass": "city-county", "facebook": "https://www.facebook.com/ConcordMonitor", "website": "http://www.concordmonitor.com/", "city-county-lat": 43.213705, "city-county-name": "Concord", "twitter": "http://www.twitter.com/ConMonitorNews", "name": "Concord Monitor", "video": "https://www.youtube.com/user/ConcordMonitor/videos"}, {"city-county-long": -71.30019, "open-search": [], "rss": ["http://www.derrynews.com/search/?f=rss&t=article&l=50&s=start_time&sd=desc&k[]=%23topstory"], "media-class": "newspaper", "media-subclass": "city-county", "facebook": "https://www.facebook.com/DerryNewsNH", "website": "http://www.derrynews.com/", "city-county-lat": 42.886486, "city-county-name": "Derry", "twitter": "", "name": "Derry News", "video": ""}, {"city-county-long": -71.30019, "open-search": [], "rss": ["http://nutfieldnews.net/feed/", "http://nutfieldnews.net/comments/feed/"], "media-class": "newspaper", "media-subclass": "city-county", "facebook": "https://www.facebook.com/NutfieldNews", "website": "http://nutfieldnews.net/", "city-county-lat": 42.886486, "city-county-name": "Derry", "twitter": "http://www.twitter.com/nutfieldnews", "name": "Nutfield News", "video": ""}, {"city-county-long": -70.88787, "open-search": [], "rss": [], "media-class": "newspaper", "media-subclass": "city-county", "facebook": "https://www.facebook.com/FostersDailyDemocrat", "website": "http://www.fosters.com/", "city-county-lat": 43.190984, "city-county-name": "Dover", "twitter": "http://www.twitter.com/FostersDailyDem", "name": "Fosters Daily Democrat", "video": "https://www.youtube.com/user/fosters08/videos"}, {"city-county-long": -70.97665, "open-search": [], "rss": [], "media-class": "newspaper", "media-subclass": "city-county", "facebook": "https://www.facebook.com/exeternewsletter", "website": "http://www.seacoastonline.com/ExeterNewsLetter", "city-county-lat": 42.973783, "city-county-name": "Exeter", "twitter": "http://www.twitter.com/ENLNews", "name": "Exeter News-Letter", "video": ""}, {"city-county-long": -71.57023, "open-search": [], "rss": [], "media-class": "newspaper", "media-subclass": "city-county", "facebook": "https://www.facebook.com/pages/The-Goffstown-News/69923961206", "website": "http://www.newhampshire.com/section/newhampshire1409", "city-county-lat": 43.037495, "city-county-name": "Goffstown", "twitter": "http://www.twitter.com/GoffstownNews", "name": "Goffstown News", "video": "https://www.youtube.com/user/newhampshiredotcom"}, {"city-county-long": -71.18252, "open-search": [], "rss": ["http://tritowntimes.net/comments/feed/", "http://tritowntimes.net/feed/"], "media-class": "newspaper", "media-subclass": "city-county", "facebook": "https://www.facebook.com/TriTownTimes", "website": "http://tritowntimes.net/", "city-county-lat": 42.880837, "city-county-name": "Hampstead", "twitter": "http://www.twitter.com/LondonderryTime", "name": "Tri-Town Times", "video": ""}, {"city-county-long": -70.82514, "open-search": [], "rss": [], "media-class": "newspaper", "media-subclass": "city-county", "facebook": "https://www.facebook.com/pages/Hampton-Union/219668198072878", "website": "http://www.seacoastonline.com/HamptonUnion", "city-county-lat": 42.93569, "city-county-name": "Hampton", "twitter": "http://www.twitter.com/HamptonUnion", "name": "Hampton Union", "video": ""}, {"city-county-long": -71.58044, "open-search": [], "rss": ["http://feeds.feedburner.com/CabinetPress/local"], "media-class": "newspaper", "media-subclass": "city-county", "facebook": "https://www.facebook.com/CabinetPress", "website": "http://www.cabinet.com/cp/hollisbrooklinejournal/", "city-county-lat": 42.739909, "city-county-name": "Hollis", "twitter": "", "name": "Hollis Brookline Journal", "video": ""}, {"city-county-long": -71.44412, "open-search": [], "rss": [], "media-class": "newspaper", "media-subclass": "city-county", "facebook": "https://www.facebook.com/pages/The-Hooksett-Banner/66271769511", "website": "http://www.newhampshire.com/section/newhampshire1410", "city-county-lat": 43.058785, "city-county-name": "Hooksett", "twitter": "http://www.twitter.com/hooksettbanner", "name": "Hooksett Banner", "video": "https://www.youtube.com/user/newhampshiredotcom"}, {"city-county-long": -71.42079, "open-search": [], "rss": ["http://www.areanewsgroup.com/feed/", "http://www.areanewsgroup.com/comments/feed/"], "media-class": "newspaper", "media-subclass": "city-county", "facebook": "https://www.facebook.com/HudsonLitchfieldNews", "website": "http://www.areanewsgroup.com/", "city-county-lat": 42.759821, "city-county-name": "Hudson", "twitter": "http://www.twitter.com/HL_News", "name": "Hudson-Litchfield News", "video": "https://www.youtube.com/user/AreaNewsGroup"}, {"city-county-long": -72.28616, "open-search": ["http://www.sentinelsource.com/search/opensearch/generic.xml"], "rss": [], "media-class": "newspaper", "media-subclass": "city-county", "facebook": "https://www.facebook.com/thekeenesentinel", "website": "http://www.sentinelsource.com/", "city-county-lat": 42.946418, "city-county-name": "Keene", "twitter": "http://www.twitter.com/sentinelsource", "name": "Keene Sentinel", "video": ""}, {"city-county-long": -71.06236, "open-search": [], "rss": ["http://www.carriagetownenews.com/search/?f=rss&t=article&l=50&s=start_time&sd=desc&k[]=%23topstory"], "media-class": "newspaper", "media-subclass": "city-county", "facebook": "https://www.facebook.com/carriagetownenews", "website": "http://www.carriagetownenews.com/", "city-county-lat": 42.923643, "city-county-name": "Kingston", "twitter": "", "name": "Carriage Town News", "video": ""}, {"city-county-long": -71.43842, "open-search": [], "rss": ["/news.xml"], "media-class": "newspaper", "media-subclass": "city-county", "facebook": "https://www.facebook.com/pages/The-Citizen-of-Laconia/461466153891577", "website": "http://www.citizen.com/", "city-county-lat": 43.557153, "city-county-name": "Laconia", "twitter": "http://www.twitter.com/LaconiaCitizen", "name": "Laconia Citizen", "video": ""}, {"city-county-long": -71.43842, "open-search": [], "rss": [], "media-class": "newspaper", "media-subclass": "city-county", "facebook": "https://www.facebook.com/weirstimes", "website": "http://www.theweirstimes.com/", "city-county-lat": 43.557153, "city-county-name": "Laconia", "twitter": "http://www.twitter.com/weirstimes", "name": "Weirs Times", "video": ""}, {"city-county-long": -71.54999, "open-search": [], "rss": [], "media-class": "newspaper", "media-subclass": "city-county", "facebook": "https://www.facebook.com/CoosCountyDemocrat", "website": "http://www.newhampshirelakesandmountains.com/118968.113119body.lasso?publication=LAN", "city-county-lat": 44.483756, "city-county-name": "Lancaster", "twitter": "http://www.twitter.com/CoosCountyNews", "name": "Coos County Democrat", "video": ""}, {"city-county-long": -71.79751, "open-search": [], "rss": [], "media-class": "newspaper", "media-subclass": "city-county", "facebook": "https://www.facebook.com/nhfrontpage", "website": "http://www.newhampshirelakesandmountains.com/118968.113119body.lasso?publication=LIT", "city-county-lat": 44.313606, "city-county-name": "Littleton", "twitter": "", "name": "Littleton Courier", "video": ""}, {"city-county-long": -71.38205, "open-search": [], "rss": ["http://londonderrytimes.net/feed/", "http://londonderrytimes.net/comments/feed/"], "media-class": "newspaper", "media-subclass": "city-county", "facebook": "https://www.facebook.com/LondonderryTimes", "website": "http://londonderrytimes.net/", "city-county-lat": 42.880481, "city-county-name": "Londonderry", "twitter": "http://www.twitter.com/LondonderryTime", "name": "Londonderry Times", "video": ""}, {"city-county-long": -71.46376, "open-search": [], "rss": [], "media-class": "newspaper", "media-subclass": "city-county", "facebook": "https://www.facebook.com/nhbusinessreview", "website": "http://www.nhbr.com/", "city-county-lat": 42.989984, "city-county-name": "Manchester", "twitter": "http://www.twitter.com/nhbr", "name": "New Hampshire Business Review", "video": ""}, {"city-county-long": -71.46376, "open-search": [], "rss": [], "media-class": "newspaper", "media-subclass": "city-county", "facebook": "https://www.facebook.com/UnionLeader", "website": "http://www.unionleader.com/", "city-county-lat": 42.989984, "city-county-name": "Manchester", "twitter": "http://www.twitter.com/unionleader", "name": "Union Leader", "video": ""}, {"city-county-long": -71.50488, "open-search": [], "rss": [], "media-class": "newspaper", "media-subclass": "city-county", "facebook": "", "website": "http://www.newhampshirelakesandmountains.com/118968.113119body.lasso?publication=MER", "city-county-lat": 43.644559, "city-county-name": "Meredith", "twitter": "", "name": "Meredith News", "video": ""}, {"city-county-long": -71.51216, "open-search": [], "rss": ["http://feeds.feedburner.com/CabinetPress/local"], "media-class": "newspaper", "media-subclass": "city-county", "facebook": "https://www.facebook.com/CabinetPress", "website": "http://www.cabinet.com/cp/merrimackjournal/", "city-county-lat": 42.858053, "city-county-name": "Merrimack", "twitter": "", "name": "Merrimack Journal", "video": ""}, {"city-county-long": -71.66743, "open-search": [], "rss": ["http://feeds.feedburner.com/CabinetPress/local"], "media-class": "newspaper", "media-subclass": "city-county", "facebook": "https://www.facebook.com/CabinetPress", "website": "http://www.cabinet.com/", "city-county-lat": 42.831686, "city-county-name": "Milford", "twitter": "", "name": "Cabinet Press", "video": ""}, {"city-county-long": -71.46431, "open-search": [], "rss": [], "media-class": "newspaper", "media-subclass": "city-county", "facebook": "https://www.facebook.com/TheTelegraph", "website": "http://www.nashuatelegraph.com/", "city-county-lat": 42.749988, "city-county-name": "Nashua", "twitter": "http://www.twitter.com/nashuatelegraph", "name": "Telegraph", "video": "http://www.youtube.com/user/NashuaTelegraphVideo"}, {"city-county-long": -71.13084, "open-search": ["http://www.conwaydailysun.com/component/search/?layout=blog&id=6069&Itemid=858&format=opensearch"], "rss": ["/?format=feed&type=rss", "/?format=feed&type=atom"], "media-class": "newspaper", "media-subclass": "city-county", "facebook": "https://www.facebook.com/TheConwayDailySun", "website": "http://www.conwaydailysun.com/", "city-county-lat": 44.035684, "city-county-name": "North Conway", "twitter": "http://www.twitter.com/conwaydailysun", "name": "Conway Daily Sun", "video": "http://www.youtube.com/user/ConwayDailySun"}, {"city-county-long": -71.9943, "open-search": [], "rss": [], "media-class": "newspaper", "media-subclass": "city-county", "facebook": "https://www.facebook.com/theBridgeWeekly", "website": "http://www.thebridgeweekly.com/", "city-county-lat": 44.08541, "city-county-name": "North Haverhill", "twitter": "", "name": "Bridge Weekly", "video": ""}, {"city-county-long": -71.9255, "open-search": [], "rss": ["http://0382b96.netsolhost.com/wordpress2/feed/", "http://0382b96.netsolhost.com/wordpress2/comments/feed/"], "media-class": "newspaper", "media-subclass": "city-county", "facebook": "https://www.facebook.com/InterTownRecordNewspaper", "website": "http://www.intertownrecord.com/", "city-county-lat": 43.356838, "city-county-name": "North Sutton", "twitter": "", "name": "Intertown Record", "video": ""}, {"city-county-long": -71.32359, "open-search": [], "rss": ["http://www.areanewsgroup.com/feed/", "http://www.areanewsgroup.com/comments/feed/"], "media-class": "newspaper", "media-subclass": "city-county", "facebook": "https://www.facebook.com/PelhamWindhamNews", "website": "http://www.areanewsgroup.com/", "city-county-lat": 42.734182, "city-county-name": "Pelham", "twitter": "http://www.twitter.com/Pelham_WindhamN", "name": "Pelham-Windham News", "video": "http://www.youtube.com/user/AreaNewsGroup"}, {"city-county-long": -71.95133, "open-search": [], "rss": [], "media-class": "newspaper", "media-subclass": "city-county", "facebook": "https://www.facebook.com/MonadnockLedgerTranscript", "website": "http://www.ledgertranscript.com/", "city-county-lat": 42.884919, "city-county-name": "Peterborough", "twitter": "http://www.twitter.com/LedgerTrans", "name": "Monadnock Ledger", "video": "http://www.youtube.com/user/ledgertranscript"}, {"city-county-long": -71.64503, "open-search": [], "rss": [], "media-class": "newspaper", "media-subclass": "city-county", "facebook": "", "website": "http://www.newhampshirelakesandmountains.com/118968.113119body.lasso?publication=PLY", "city-county-lat": 43.753837, "city-county-name": "Plymouth", "twitter": "", "name": "Plymouth Record Enterprise", "video": ""}, {"city-county-long": -71.013202, "open-search": [], "rss": ["http://www.nhgazette.com/feed/", "http://www.nhgazette.com/feed/atom/"], "media-class": "newspaper", "media-subclass": "city-county", "facebook": "", "website": "http://www.nhgazette.com", "city-county-lat": 43.005895, "city-county-name": "Portsmouth", "twitter": "", "name": "New Hampshire Gazette", "video": ""}, {"city-county-long": -71.013202, "open-search": [], "rss": [], "media-class": "newspaper", "media-subclass": "city-county", "facebook": "https://www.facebook.com/seacoastonline", "website": "http://www.seacoastonline.com/portsmouthherald", "city-county-lat": 43.005895, "city-county-name": "Portsmouth", "twitter": "http://www.twitter.com/seacoastonline", "name": "Portsmouth Herald", "video": "https://www.youtube.com/user/seacoastonline/videos"}, {"city-county-long": -70.98552, "open-search": [], "rss": [], "media-class": "newspaper", "media-subclass": "city-county", "facebook": "https://www.facebook.com/rochestertimes/", "website": "http://www.fosters.com/rochester-times", "city-county-lat": 43.267581, "city-county-name": "Rochester", "twitter": "", "name": "Rochester Times", "video": ""}, {"city-county-long": -71.21316, "open-search": [], "rss": ["http://www.areanewsgroup.com/feed/", "http://www.areanewsgroup.com/comments/feed/"], "media-class": "newspaper", "media-subclass": "city-county", "facebook": "", "website": "http://www.areanewsgroup.com/", "city-county-lat": 42.792456, "city-county-name": "Salem", "twitter": "", "name": "Salem Community Patriot", "video": "https://www.youtube.com/user/AreaNewsGroup"}, {"city-county-long": -71.21316, "open-search": [], "rss": [], "media-class": "newspaper", "media-subclass": "city-county", "facebook": "", "website": "http://www.newhampshire.com/section/newhampshire1411", "city-county-lat": 42.792456, "city-county-name": "Salem", "twitter": "", "name": "Salem Observer", "video": "https://www.youtube.com/user/newhampshiredotcom"}, {"city-county-long": -71.19552, "open-search": [], "rss": [], "media-class": "newspaper", "media-subclass": "city-county", "facebook": "https://www.facebook.com/theGraniteStateNews", "website": "http://www.newhampshirelakesandmountains.com/", "city-county-lat": 43.596233, "city-county-name": "Wolfeboro", "twitter": "", "name": "Granite State News", "video": ""}, {"city-county-long": -71.19552, "open-search": [], "rss": [], "media-class": "newspaper", "media-subclass": "city-county", "facebook": "", "website": "http://www.newhampshirelakesandmountains.com/118968.113119body.lasso?publication=GSN", "city-county-lat": 43.596233, "city-county-name": "Wolfeboro", "twitter": "", "name": "Granite State News", "video": ""}, {"city-county-long": -72.2887, "open-search": [], "rss": [], "media-class": "newspaper", "media-subclass": "college", "facebook": "http://www.facebook.com/TheDartmouth", "website": "http://www.thedartmouth.com/", "city-county-lat": 43.7044, "city-county-name": "Dartmouth", "twitter": "http://www.twitter.com/thedartmouth", "name": "The Dartmouth Online", "video": "http://www.youtube.com/user/TheDartmouthVideo/"}, {"city-county-long": -72.2887, "open-search": [], "rss": ["http://www.dartreview.com/feed/", "http://www.dartreview.com/feed/atom/"], "media-class": "newspaper", "media-subclass": "college", "facebook": "http://www.facebook.com/DartmouthReview", "website": "http://www.dartreview.com/", "city-county-lat": 43.7044, "city-county-name": "Dartmouth", "twitter": "http://www.twitter.com/DartmouthReview", "name": "The Dartmouth Review", "video": "http://www.youtube.com/user/DartmouthReview"}, {"city-county-long": -71.6883, "open-search": [], "rss": [], "media-class": "newspaper", "media-subclass": "college", "facebook": "https://www.facebook.com/#!/TheClockOnline", "website": "http://www.theclockonline.com/", "city-county-lat": 43.7595, "city-county-name": "Plymouth State Univ", "twitter": "http://www.twitter.com/ClockNewspaper", "name": "The Clock", "video": "http://www.youtube.com/user/clockonline"}, {"city-county-long": -70.937, "open-search": [], "rss": ["http://www.tnhonline.com/feed/", "http://www.tnhonline.com/comments/feed/"], "media-class": "newspaper", "media-subclass": "college", "facebook": "http://www.facebook.com/pages/The-New-Hampshire/50358808599", "website": "http://www.tnhonline.com/", "city-county-lat": 43.1389, "city-county-name": "Univ. of New Hampshire", "twitter": "http://www.twitter.com/thenewhampshire", "name": "The New Hampshire", "video": "http://www.youtube.com/user/TNHstaff"}], "radio": [{"city-county-long": -71.53774, "open-search": [], "rss": ["http://nhpr.org/rss.xml"], "media-class": "radio", "media-subclass": "Public Radio", "facebook": "https://www.facebook.com/nhpublicradio", "website": "http://nhpr.org/", "city-county-lat": 43.213705, "city-county-name": "Concord", "twitter": "http://www.twitter.com/nhpr", "name": "WEVO 89.1 FM", "video": "http://www.youtube.com/user/nhpublicradio"}, {"city-county-long": -71.53774, "open-search": [], "rss": [], "media-class": "radio", "media-subclass": "Public Radio", "facebook": "https://www.facebook.com/1055jyy", "website": "http://wjyy.nh1media.com/", "city-county-lat": 43.213705, "city-county-name": "Concord", "twitter": "http://www.twitter.com/1055jyy", "name": "WJYY 89.1 FM", "video": ""}, {"city-county-long": -71.53774, "open-search": [], "rss": ["http://concordnewsradio.com/?feed=rss2", "http://concordnewsradio.com/?feed=comments-rss2"], "media-class": "radio", "media-subclass": "Public Radio", "facebook": "https://www.facebook.com/concordnewsradio", "website": "http://concordnewsradio.com/", "city-county-lat": 43.213705, "city-county-name": "Concord", "twitter": "http://www.twitter.com/wkxlnh", "name": "WKXL 89.1 FM", "video": "http://www.youtube.com/user/concordnewsradio"}, {"city-county-long": -71.53774, "open-search": [], "rss": ["http://www.wnhnfm.org/feed/taste-the-floor/", "http://www.wnhnfm.org/feed/voices-in-jazz/", "http://www.wnhnfm.org/feed/the-other/", "http://www.wnhnfm.org/feed/", "http://www.wnhnfm.org/feed/community-conversations/", "http://www.wnhnfm.org/feed/on-the-marquee/", "http://www.wnhnfm.org/feed/dub-revolution/", "http://www.wnhnfm.org/feed/dave-scott-show/", "http://www.wnhnfm.org/feed/rock-roll-caravan/", "http://www.wnhnfm.org/feed/nh-primary-minute/", "http://www.wnhnfm.org/feed/sounds-like-minded/", "http://www.wnhnfm.org/feed/ragtime/", "http://www.wnhnfm.org/feed/whitehouse-watch/", "http://www.wnhnfm.org/feed/gitm/", "http://www.wnhnfm.org/feed/my-neighbors-garage/", "http://www.wnhnfm.org/feed/radio-free-ragtime/", "http://www.wnhnfm.org/feed/classic-radio-theatre/", "http://www.wnhnfm.org/feed/state-house-watch/", "http://www.wnhnfm.org/feed/test/", "http://www.wnhnfm.org/feed/rrd/", "http://www.wnhnfm.org/feed/attitude/", "http://www.wnhnfm.org/comments/feed/", "http://www.wnhnfm.org/feed/overtures-encores/", "http://www.wnhnfm.org/feed/new-show/", "http://www.wnhnfm.org/feed/granite-state-of-mind/"], "media-class": "radio", "media-subclass": "Public Radio", "facebook": "https://www.facebook.com/NHNVB", "website": "http://www.wnhnfm.org/", "city-county-lat": 43.213705, "city-county-name": "Concord", "twitter": "http://www.twitter.com/pchowder", "name": "WNHN 89.1 FM", "video": ""}, {"city-county-long": -71.53774, "open-search": [], "rss": [], "media-class": "radio", "media-subclass": "Public Radio", "facebook": "https://www.facebook.com/933thewolf", "website": "http://wnhw.nh1media.com/", "city-county-lat": 43.213705, "city-county-name": "Concord", "twitter": "http://www.twitter.com/933thewolf", "name": "WNHW 89.1 FM", "video": ""}, {"city-county-long": -71.53774, "open-search": [], "rss": [], "media-class": "radio", "media-subclass": "Public Radio", "facebook": "https://www.facebook.com/pages/991-Frank-FM/169867716487972", "website": "http://wnnh.nh1media.com/", "city-county-lat": 43.213705, "city-county-name": "Concord", "twitter": "", "name": "WNNH 89.1 FM", "video": ""}, {"city-county-long": -71.53774, "open-search": [], "rss": [], "media-class": "radio", "media-subclass": "Public Radio", "facebook": "https://www.facebook.com/pages/WSPS-905/137811262981833", "website": "http://wsps.sps.edu/", "city-county-lat": 43.213705, "city-county-name": "Concord", "twitter": "", "name": "WSPS 89.1 FM", "video": ""}, {"city-county-long": -71.53774, "open-search": [], "rss": [], "media-class": "radio", "media-subclass": "Public Radio", "facebook": "https://www.facebook.com/pages/WTPL-1077-The-Pulse/176840595684954", "website": "http://www.wtplfm.com/", "city-county-lat": 43.213705, "city-county-name": "Concord", "twitter": "", "name": "WTPL 89.1 FM", "video": ""}, {"city-county-long": -71.53774, "open-search": [], "rss": ["/index.php?format=feed&type=rss", "/index.php?format=feed&type=atom"], "media-class": "radio", "media-subclass": "Public Radio", "facebook": "https://www.facebook.com/pages/New-Hampshire-Gospel-Radio/184000942552", "website": "http://www.nhgr.org/", "city-county-lat": 43.213705, "city-county-name": "Concord", "twitter": "http://www.twitter.com/NHGospelRadio", "name": "WVNH 89.1 FM", "video": ""}, {"city-county-long": -70.88787, "open-search": [], "rss": [], "media-class": "radio", "media-subclass": "World Music", "facebook": "https://www.facebook.com/wxgrfm", "website": "http://wxgrfm.org/", "city-county-lat": 43.190984, "city-county-name": "Dover", "twitter": "http://www.twitter.com/WXGR", "name": "WXGR-LP 103.5 FM", "video": "http://www.youtube.com/user/wxgrportsmouth"}, {"city-county-long": -70.96035, "open-search": [], "rss": ["http://www.wunh.org/rss.xml"], "media-class": "radio", "media-subclass": "College/Alternative", "facebook": "https://www.facebook.com/91.3WUNH", "website": "http://www.wunh.org/", "city-county-lat": 43.128085, "city-county-name": "Durham", "twitter": "http://www.twitter.com/WUNH", "name": "WUNH 91.3 FM", "video": ""}, {"city-county-long": -72.2507, "open-search": [], "rss": ["http://www.wfrd.com/feed/", "http://www.wfrd.com/comments/feed/"], "media-class": "radio", "media-subclass": "Rock", "facebook": "https://www.facebook.com/pages/99Rock/50004018850", "website": "http://wfrd.com/", "city-county-lat": 43.719756, "city-county-name": "Hanover", "twitter": "http://www.twitter.com/99Rock", "name": "WFRD 99.3 FM", "video": ""}, {"city-county-long": -71.43842, "open-search": [], "rss": [], "media-class": "radio", "media-subclass": "Adult Contemp", "facebook": "https://www.facebook.com/983LNH", "website": "http://wlnh.nh1media.com/", "city-county-lat": 43.557153, "city-county-name": "Laconia", "twitter": "http://www.twitter.com/983LNH", "name": "WLNH 98.3 FM", "video": ""}, {"city-county-long": -71.840883, "open-search": [], "rss": ["http://www.wgxl.com/feed/", "http://www.wgxl.com/comments/feed/"], "media-class": "radio", "media-subclass": "Adult Contemp", "facebook": "https://www.facebook.com/923wgxl", "website": "http://www.wgxl.com/", "city-county-lat": 43.967542, "city-county-name": "Lebanon", "twitter": "", "name": "WGXL 92.3 FM", "video": ""}, {"city-county-long": -71.840883, "open-search": [], "rss": ["http://www.theqrocks.com/comments/feed/", "http://www.theqrocks.com/feed/"], "media-class": "radio", "media-subclass": "Adult Contemp", "facebook": "https://www.facebook.com/pages/Q106/59892124403", "website": "http://www.theqrocks.com/", "city-county-lat": 43.967542, "city-county-name": "Lebanon", "twitter": "http://www.twitter.com/Q106ROCKS", "name": "WHDQ 92.3 FM", "video": ""}, {"city-county-long": -71.840883, "open-search": [], "rss": ["http://www.kixx.com/comments/feed/", "http://www.kixx.com/feed/"], "media-class": "radio", "media-subclass": "Adult Contemp", "facebook": "https://www.facebook.com/KIXX100.5", "website": "http://www.kixx.com/", "city-county-lat": 43.967542, "city-county-name": "Lebanon", "twitter": "http://www.twitter.com/KixxCountry1005", "name": "WXXK 92.3 FM", "video": ""}, {"city-county-long": -71.46376, "open-search": [], "rss": [], "media-class": "radio", "media-subclass": "Sports", "facebook": "https://www.facebook.com/EspnNewHampshire", "website": "http://www.espnnewhampshire.com/", "city-county-lat": 42.989984, "city-county-name": "Manchester", "twitter": "http://www.twitter.com/ESPNNH", "name": "WGAM 1250 AM", "video": "http://www.youtube.com/user/WGAMSportsSaturday"}, {"city-county-long": -71.46376, "open-search": [], "rss": [], "media-class": "radio", "media-subclass": "Sports", "facebook": "https://www.facebook.com/wgiram", "website": "http://www.nhnewsnetwork610.com/", "city-county-lat": 42.989984, "city-county-name": "Manchester", "twitter": "http://www.twitter.com/wgiram610", "name": "WGIR 1250 AM", "video": ""}, {"city-county-long": -71.46376, "open-search": [], "rss": [], "media-class": "radio", "media-subclass": "Sports", "facebook": "https://www.facebook.com/rock101fm", "website": "http://www.rock101fm.com/", "city-county-lat": 42.989984, "city-county-name": "Manchester", "twitter": "http://www.twitter.com/ROCK101_WGIRFM", "name": "WGIR FM 1250 AM", "video": ""}, {"city-county-long": -71.46376, "open-search": [], "rss": ["http://965themill.com/feed/", "http://965themill.com/comments/feed/"], "media-class": "radio", "media-subclass": "Sports", "facebook": "https://www.facebook.com/965TheMill", "website": "http://965themill.com/", "city-county-lat": 42.989984, "city-county-name": "Manchester", "twitter": "", "name": "WMLL 1250 AM", "video": ""}, {"city-county-long": -71.46376, "open-search": [], "rss": ["http://wzid.com/comments/feed/", "http://wzid.com/feed/"], "media-class": "radio", "media-subclass": "Sports", "facebook": "https://www.facebook.com/WZIDManchester", "website": "http://wzid.com/", "city-county-lat": 42.989984, "city-county-name": "Manchester", "twitter": "http://www.twitter.com/WZID", "name": "WZID 1250 AM", "video": "http://www.youtube.com/user/NHWZID"}, {"city-county-long": -71.46431, "open-search": [], "rss": [], "media-class": "radio", "media-subclass": "Classic Hits", "facebook": "https://www.facebook.com/1063frankfm", "website": "http://wfnq.nh1media.com/", "city-county-lat": 42.749988, "city-county-name": "Nashua", "twitter": "http://www.twitter.com/1063FrankFM", "name": "WFNQ 106.3 FM", "video": ""}, {"city-county-long": -72.00004, "open-search": [], "rss": [], "media-class": "radio", "media-subclass": "  News Talk", "facebook": "https://www.facebook.com/wntkradio", "website": "http://www.wntk.com/", "city-county-lat": 43.418863, "city-county-name": "New London", "twitter": "http://www.twitter.com/WNTK997", "name": "WNTK 99.7 FM", "video": "http://www.youtube.com/user/WNTK997"}, {"city-county-long": -72.00004, "open-search": [], "rss": [], "media-class": "radio", "media-subclass": "  News Talk", "facebook": "https://www.facebook.com/pages/WSCS-The-Charge-909-Colby-Sawyer-Radio/176690866493", "website": "http://www.colby-sawyer.edu/wscs/", "city-county-lat": 43.418863, "city-county-name": "New London", "twitter": "", "name": "WSCS 99.7 FM", "video": ""}, {"city-county-long": -71.013202, "open-search": [], "rss": [], "media-class": "radio", "media-subclass": "Adult Contemp", "facebook": "https://www.facebook.com/987TheBay", "website": "http://www.987thebay.com/", "city-county-lat": 43.005895, "city-county-name": "Portsmouth", "twitter": "http://www.twitter.com/987thebay", "name": "WBYY 98.7 FM", "video": ""}, {"city-county-long": -71.013202, "open-search": [], "rss": [], "media-class": "radio", "media-subclass": "Adult Contemp", "facebook": "https://www.facebook.com/Z107FM", "website": "http://www.z107fm.com/", "city-county-lat": 43.005895, "city-county-name": "Portsmouth", "twitter": "http://www.twitter.com/Z107FM", "name": "WERZ 98.7 FM", "video": ""}, {"city-county-long": -71.013202, "open-search": [], "rss": [], "media-class": "radio", "media-subclass": "Adult Contemp", "facebook": "https://www.facebook.com/100.3WHEB", "website": "http://www.wheb.com/", "city-county-lat": 43.005895, "city-county-name": "Portsmouth", "twitter": "http://www.twitter.com/WHEB", "name": "WHEB 98.7 FM", "video": ""}, {"city-county-long": -71.013202, "open-search": [], "rss": ["http://wokq.com/feed/"], "media-class": "radio", "media-subclass": "Adult Contemp", "facebook": "https://www.facebook.com/BIG975", "website": "http://wokq.com/", "city-county-lat": 43.005895, "city-county-name": "Portsmouth", "twitter": "http://www.twitter.com/WOKQMWC", "name": "WOKQ 98.7 FM", "video": "http://www.youtube.com/user/975WOKQ"}, {"city-county-long": -71.013202, "open-search": [], "rss": [], "media-class": "radio", "media-subclass": "Adult Contemp", "facebook": "https://www.facebook.com/newsradio967", "website": "http://www.newsradio967.com/", "city-county-lat": 43.005895, "city-county-name": "Portsmouth", "twitter": "", "name": "WQSO 98.7 FM", "video": ""}, {"city-county-long": -71.013202, "open-search": [], "rss": ["http://shark1053.com/feed/"], "media-class": "radio", "media-subclass": "Adult Contemp", "facebook": "https://www.facebook.com/sharkmorningshow", "website": "http://shark1053.com/", "city-county-lat": 43.005895, "city-county-name": "Portsmouth", "twitter": "http://www.twitter.com/TheShark1053", "name": "WSHK 98.7 FM", "video": "http://www.youtube.com/channel/UCgipX-VncHiTPLo5UE9Jb6g"}, {"city-county-long": -71.013202, "open-search": [], "rss": [], "media-class": "radio", "media-subclass": "Adult Contemp", "facebook": "https://www.facebook.com/Coast953", "website": "http://www.953thecoast.com/", "city-county-lat": 43.005895, "city-county-name": "Portsmouth", "twitter": "http://www.twitter.com/953thecoast", "name": "WSKX 98.7 FM", "video": ""}, {"city-county-long": -71.19552, "open-search": [], "rss": ["http://www.thehawkrocks.com/comments/feed/", "http://www.thehawkrocks.com/feed/"], "media-class": "radio", "media-subclass": "Classic Rock", "facebook": "https://www.facebook.com/thehawk1049", "website": "http://www.thehawkrocks.com/", "city-county-lat": 43.596233, "city-county-name": "Wolfeboro", "twitter": "http://www.twitter.com/THEHAWK1049", "name": "WLKZ 104.9 FM", "video": ""}], "state-name": "New Hampshire_NH", "tv": [{"city-county-long": -71.30019, "open-search": [], "rss": [], "media-class": "tv", "media-subclass": "", "facebook": "https://www.facebook.com/pages/WBIN-TV/195439987169408", "website": "http://www.wbintv.com/", "city-county-lat": 42.886486, "city-county-name": "Derry", "twitter": "http://www.twitter.com/wbintv", "name": "WBIN", "video": ""}, {"city-county-long": -70.96035, "open-search": [], "rss": [], "media-class": "tv", "media-subclass": "", "facebook": "https://www.facebook.com/NHPTV", "website": "http://www.nhptv.org/", "city-county-lat": 43.128085, "city-county-name": "Durham", "twitter": "http://www.twitter.com/NHPublicTV", "name": "WENH", "video": "http://www.youtube.com/user/nhptvadmin"}, {"city-county-long": -72.28616, "open-search": [], "rss": [], "media-class": "tv", "media-subclass": "", "facebook": "https://www.facebook.com/NHPTV", "website": "http://www.nhptv.org/", "city-county-lat": 42.946418, "city-county-name": "Keene", "twitter": "http://www.twitter.com/NHPublicTV", "name": "WEKW", "video": "http://www.youtube.com/user/nhptvadmin"}, {"city-county-long": -71.79751, "open-search": [], "rss": [], "media-class": "tv", "media-subclass": "", "facebook": "https://www.facebook.com/NHPTV", "website": "http://www.nhptv.org/", "city-county-lat": 44.313606, "city-county-name": "Littleton", "twitter": "http://www.twitter.com/NHPublicTV", "name": "WLED", "video": "http://www.youtube.com/user/nhptvadmin"}, {"city-county-long": -71.46376, "open-search": [], "rss": [], "media-class": "tv", "media-subclass": "", "facebook": "https://www.facebook.com/ManchTV", "website": "http://www.manchestertv.org/", "city-county-lat": 42.989984, "city-county-name": "Manchester", "twitter": "", "name": "TV-23", "video": ""}, {"city-county-long": -71.46376, "open-search": [], "rss": [], "media-class": "tv", "media-subclass": "", "facebook": "https://www.facebook.com/wmur9", "website": "http://www.wmur.com/", "city-county-lat": 42.989984, "city-county-name": "Manchester", "twitter": "http://www.twitter.com/wmur9", "name": "WMUR", "video": "http://www.youtube.com/user/wmurtv"}]}