{"newspaper": [{"city-county-long": -97.21973, "open-search": [], "rss": ["http://www.abilene-rc.com/search/?f=rss&t=article&l=50&s=start_time&sd=desc&k[]=%23topstory"], "media-class": "newspaper", "media-subclass": "city-county", "facebook": "https://www.facebook.com/pages/Abilene-Reflector-Chronicle/127215967659", "website": "http://www.abilene-rc.com/", "city-county-lat": 38.94112, "city-county-name": "Abilene", "twitter": "", "name": "Reflector-Chronicle", "video": ""}, {"city-county-long": -96.29473, "open-search": [], "rss": [], "media-class": "newspaper", "media-subclass": "city-county", "facebook": "", "website": "http://signal-enterprise.com/", "city-county-lat": 38.990708, "city-county-name": "Alma", "twitter": "", "name": "Wabaunsee County Signal Enterprise", "video": ""}, {"city-county-long": -98.03857, "open-search": [], "rss": ["http://www.anthonyrepublicannews.com/rss.xml"], "media-class": "newspaper", "media-subclass": "city-county", "facebook": "https://www.facebook.com/pages/Anthony-RepublicanLDs-Printing/184355801587366", "website": "http://www.anthonyrepublicannews.com/", "city-county-lat": 37.144088, "city-county-name": "Anthony", "twitter": "", "name": "Anthony Republican", "video": ""}, {"city-county-long": -97.02831, "open-search": [], "rss": ["http://www.ctnewsonline.com/search/?f=rss&t=article&l=50&s=start_time&sd=desc&k[]=%23topstory"], "media-class": "newspaper", "media-subclass": "city-county", "facebook": "https://www.facebook.com/arkcitynet", "website": "http://www.arkcity.net/", "city-county-lat": 37.067387, "city-county-name": "Arkansas City", "twitter": "", "name": "Arkansas City Traveler", "video": ""}, {"city-county-long": -95.13472, "open-search": ["http://www.atchisonglobenow.com/search/opensearch/generic.xml"], "rss": [], "media-class": "newspaper", "media-subclass": "city-county", "facebook": "https://www.facebook.com/pages/Atchison-Globe/81864779191", "website": "http://www.atchisonglobenow.com/", "city-county-lat": 39.553786, "city-county-name": "Atchison", "twitter": "http://www.twitter.com/atchisonglobe", "name": "Atchison Daily Globe", "video": "https://www.youtube.com/user/AtchisonGlobe"}, {"city-county-long": -96.98153, "open-search": [], "rss": [], "media-class": "newspaper", "media-subclass": "city-county", "facebook": "https://www.facebook.com/AugustaDailyGazette", "website": "http://www.butlercountytimesgazette.com/", "city-county-lat": 37.68066, "city-county-name": "Augusta", "twitter": "http://www.twitter.com/BCtimesgazette", "name": "Butler County Times-Gazette", "video": ""}, {"city-county-long": -95.21058, "open-search": [], "rss": ["http://www.baldwincity.com/rss/headlines/"], "media-class": "newspaper", "media-subclass": "city-county", "facebook": "https://www.facebook.com/baldwincity", "website": "http://signal.baldwincity.com/", "city-county-lat": 38.789719, "city-county-name": "Baldwin City", "twitter": "http://www.twitter.com/baldwincity", "name": "Baldwin City Signal", "video": ""}, {"city-county-long": -94.94259, "open-search": [], "rss": ["http://www.basehorinfo.com/rss/headlines/"], "media-class": "newspaper", "media-subclass": "city-county", "facebook": "https://www.facebook.com/thebasehorsentinel", "website": "http://www.basehorinfo.com/", "city-county-lat": 39.145077, "city-county-name": "Basehor", "twitter": "http://www.twitter.com/basehorsentinel", "name": "Basehor Sentinel", "video": ""}, {"city-county-long": -94.74929, "open-search": [], "rss": [], "media-class": "newspaper", "media-subclass": "city-county", "facebook": "https://www.facebook.com/newsadvocate", "website": "http://www.sekvoice.com/", "city-county-lat": 37.026091, "city-county-name": "Baxter Springs", "twitter": "http://www.twitter.com/CCNewsAdvocate", "name": "Cherokee County News-Advocate", "video": "https://www.youtube.com/user/columbusadvocate"}, {"city-county-long": -97.62881, "open-search": [], "rss": [], "media-class": "newspaper", "media-subclass": "city-county", "facebook": "https://www.facebook.com/pages/The-Belleville-Telescope/126240344112700", "website": "http://thebellevilletelescope.com/", "city-county-lat": 39.824657, "city-county-name": "Belleville", "twitter": "http://www.twitter.com/BTelescope", "name": "Belleville Telescope", "video": ""}, {"city-county-long": -101.54448, "open-search": [], "rss": [], "media-class": "newspaper", "media-subclass": "city-county", "facebook": "", "website": "http://www.nwkansas.com/bcwebpages/bcmain.html", "city-county-lat": 39.758864, "city-county-name": "Bird City", "twitter": "", "name": "Bird City Times", "video": ""}, {"city-county-long": -94.90453, "open-search": [], "rss": ["http://www.bonnersprings.com/rss/headlines/"], "media-class": "newspaper", "media-subclass": "city-county", "facebook": "https://www.facebook.com/thechieftain", "website": "http://www.bonnersprings.com/", "city-county-lat": 39.065703, "city-county-name": "Bonner Springs", "twitter": "http://www.twitter.com/bonnersprings", "name": "Chieftain", "video": ""}, {"city-county-long": -95.74293, "open-search": [], "rss": [], "media-class": "newspaper", "media-subclass": "city-county", "facebook": "https://www.facebook.com/pages/The-Coffey-County-Republican/293967610637344", "website": "http://www.coffeycountyonline.com/", "city-county-lat": 38.211108, "city-county-name": "Burlington", "twitter": "", "name": "Coffey County Republican", "video": ""}, {"city-county-long": -95.91616, "open-search": [], "rss": ["http://taylornews.org/newsm/feed/", "http://taylornews.org/newsm/comments/feed/"], "media-class": "newspaper", "media-subclass": "city-county", "facebook": "https://www.facebook.com/pages/Montgomery-County-Chronicle/179343538715", "website": "http://taylornews.org/newsm/", "city-county-lat": 37.021498, "city-county-name": "Caney", "twitter": "", "name": "Montgomery County Chronicle", "video": ""}, {"city-county-long": -95.45681, "open-search": ["http://www.chanute.com/search/opensearch/generic.xml"], "rss": [], "media-class": "newspaper", "media-subclass": "city-county", "facebook": "https://www.facebook.com/pages/The-Chanute-Tribune/100520906674028", "website": "http://www.chanute.com/", "city-county-lat": 37.666078, "city-county-name": "Chanute", "twitter": "http://www.twitter.com/ChanuteTribune", "name": "Chanute Tribune", "video": "http://www.youtube.com/channel/UC8rSi_F-VkoWIBrwCFRE2vQ"}, {"city-county-long": -97.78765, "open-search": [], "rss": [], "media-class": "newspaper", "media-subclass": "city-county", "facebook": "https://www.facebook.com/TimesSentinel", "website": "http://www.tsnews.com/thetimessentinel.html", "city-county-lat": 37.647611, "city-county-name": "Cheney", "twitter": "http://www.twitter.com/TimesSentinel1", "name": "Times-Sentinel", "video": ""}, {"city-county-long": -97.1552, "open-search": ["http://www.ccenterdispatch.com/search/opensearch/generic.xml"], "rss": [], "media-class": "newspaper", "media-subclass": "city-county", "facebook": "https://www.facebook.com/pages/The-Clay-Center-Dispatch/131384151840", "website": "http://www.ccenterdispatch.com/", "city-county-lat": 39.341513, "city-county-name": "Clay Center", "twitter": "", "name": "Clay Center Dispatch", "video": "https://www.youtube.com/channel/UCzgkKMGW8t_ajO8uLu5bQqg"}, {"city-county-long": -97.64627, "open-search": [], "rss": [], "media-class": "newspaper", "media-subclass": "city-county", "facebook": "", "website": "http://www.bladeempire.com/", "city-county-lat": 39.568803, "city-county-name": "Concordia", "twitter": "", "name": "Blade-Empire", "video": ""}, {"city-county-long": -97.65338, "open-search": [], "rss": [], "media-class": "newspaper", "media-subclass": "city-county", "facebook": "https://www.facebook.com/starargosy", "website": "http://www.tsnews.com/starargosy.html", "city-county-lat": 37.400431, "city-county-name": "Conway Springs", "twitter": "http://www.twitter.com/Star_Argosy", "name": "Star and Argonia Argosy", "video": ""}, {"city-county-long": -94.97681, "open-search": [], "rss": ["http://www.desotoexplorer.com/rss/headlines/"], "media-class": "newspaper", "media-subclass": "city-county", "facebook": "", "website": "http://www.desotoexplorer.com/", "city-county-lat": 38.961396, "city-county-name": "De Soto", "twitter": "", "name": "Desoto Explorer", "video": ""}, {"city-county-long": -97.25167, "open-search": [], "rss": ["http://www.derbyinformer.com/search/?f=rss&t=article&l=50&s=start_time&sd=desc&k[]=%23topstory"], "media-class": "newspaper", "media-subclass": "city-county", "facebook": "https://www.facebook.com/pages/The-Derby-Informer/75041195029", "website": "http://www.derbyinformer.com", "city-county-lat": 37.557434, "city-county-name": "Derby", "twitter": "http://www.twitter.com/DerbyInformer", "name": "Derby Informer", "video": "https://www.youtube.com/channel/UCUuuqZ8I8Vgtj55AWO391Cw"}, {"city-county-long": -100.02632, "open-search": [], "rss": [], "media-class": "newspaper", "media-subclass": "city-county", "facebook": "https://www.facebook.com/DodgeGlobe", "website": "http://www.dodgeglobe.com/", "city-county-lat": 37.755267, "city-county-name": "Dodge City", "twitter": "http://www.twitter.com/dcglobe", "name": "Dodge City Daily Globe", "video": "https://www.youtube.com/user/webboy1969"}, {"city-county-long": -100.02632, "open-search": ["http://www.hpj.com/search/opensearch/generic.xml"], "rss": [], "media-class": "newspaper", "media-subclass": "city-county", "facebook": "https://www.facebook.com/highplainsjournal", "website": "http://www.hpj.com/", "city-county-lat": 37.755267, "city-county-name": "Dodge City", "twitter": "http://www.twitter.com/HighPlainsJrnl", "name": "High Plains Journal", "video": "http://www.youtube.com/user/HighPlainsJournal"}, {"city-county-long": -98.22729, "open-search": [], "rss": [], "media-class": "newspaper", "media-subclass": "city-county", "facebook": "https://www.facebook.com/pages/Ellsworth-County-Independent-Reporter/81874371077", "website": "http://www.indyrepnews.com/", "city-county-lat": 38.744056, "city-county-name": "Ellsworth", "twitter": "http://www.twitter.com/indyrep", "name": "Independent Reporter", "video": "https://www.youtube.com/channel/UC1UgVgKDAkV0_ZGK_nCbs6A"}, {"city-county-long": -96.19736, "open-search": [], "rss": ["http://www.emporiagazette.com/search/?f=rss&t=article&l=50&s=start_time&sd=desc&k[]=%23topstory"], "media-class": "newspaper", "media-subclass": "city-county", "facebook": "https://www.facebook.com/theemporiagazette", "website": "http://www.emporiagazette.com/", "city-county-lat": 38.410549, "city-county-name": "Emporia", "twitter": "http://www.twitter.com/emporiagazette", "name": "Emporia Gazette", "video": "https://www.youtube.com/user/emporiagazette"}, {"city-county-long": -96.32433, "open-search": [], "rss": ["http://www.eurekaherald.com/feed/atom/", "http://www.eurekaherald.com/comments/feed/", "http://www.eurekaherald.com/feed/"], "media-class": "newspaper", "media-subclass": "city-county", "facebook": "https://www.facebook.com/pages/The-Eureka-Herald/126251397424608", "website": "http://www.eurekaherald.com/", "city-county-lat": 37.854192, "city-county-name": "Eureka", "twitter": "", "name": "Eureka Herald", "video": ""}, {"city-county-long": -94.73389, "open-search": [], "rss": [], "media-class": "newspaper", "media-subclass": "city-county", "facebook": "https://www.facebook.com/pages/The-Fort-Scott-Tribune/125159744185236", "website": "http://www.fstribune.com/", "city-county-lat": 37.823295, "city-county-name": "Fort Scott", "twitter": "http://www.twitter.com/FSTribune", "name": "Fort Scott Tribune", "video": ""}, {"city-county-long": -94.65462, "open-search": [], "rss": ["http://www.sentineltimes.com/feed/", "http://www.sentineltimes.com/feed/atom/", "http://www.sentineltimes.com/comments/feed/"], "media-class": "newspaper", "media-subclass": "city-county", "facebook": "https://www.facebook.com/pages/The-Sentinel-Times/142205375825880", "website": "http://www.sentineltimes.com/", "city-county-lat": 37.091398, "city-county-name": "Galena", "twitter": "http://www.twitter.com/GSentineltimes", "name": "Galena Sentinel Times", "video": ""}, {"city-county-long": -100.82503, "open-search": [], "rss": ["http://www.gctelegram.com/search/?f=rss&t=article&l=50&s=start_time&sd=desc&k[]=%23topstory"], "media-class": "newspaper", "media-subclass": "city-county", "facebook": "https://www.facebook.com/GardenCityTelegram", "website": "http://www.gctelegram.com/", "city-county-lat": 37.976008, "city-county-name": "Garden City", "twitter": "http://www.twitter.com/gctelegram", "name": "Garden City Telegram", "video": "http://www.youtube.com/user/GCTelegram"}, {"city-county-long": -98.78495, "open-search": [], "rss": [], "media-class": "newspaper", "media-subclass": "city-county", "facebook": "https://www.facebook.com/gbtribune", "website": "http://www.gbtribune.com/", "city-county-lat": 38.363151, "city-county-name": "Great Bend", "twitter": "http://www.twitter.com/GB_Tribune", "name": "Great Bend Tribune", "video": ""}, {"city-county-long": -99.29989, "open-search": [], "rss": [], "media-class": "newspaper", "media-subclass": "city-county", "facebook": "", "website": "http://www.kiowacountysignal.com/", "city-county-lat": 37.590146, "city-county-name": "Greensburg", "twitter": "", "name": "Kiowa County Signal", "video": ""}, {"city-county-long": -97.5139, "open-search": [], "rss": [], "media-class": "newspaper", "media-subclass": "city-county", "facebook": "", "website": "http://www.hcindependent.com/", "city-county-lat": 38.007112, "city-county-name": "Halstead", "twitter": "", "name": "Harvey County Independent", "video": ""}, {"city-county-long": -99.32559, "open-search": [], "rss": ["http://www.hdnews.net/search/?f=rss&t=article&l=50&s=start_time&sd=desc&k[]=%23topstory"], "media-class": "newspaper", "media-subclass": "city-county", "facebook": "https://www.facebook.com/HaysDailyNews", "website": "http://www.hdnews.net/", "city-county-lat": 38.881082, "city-county-name": "Hays", "twitter": "http://www.twitter.com/HaysDaily", "name": "Hays Daily News", "video": ""}, {"city-county-long": -97.43368, "open-search": [], "rss": [], "media-class": "newspaper", "media-subclass": "city-county", "facebook": "https://www.facebook.com/hesstonrecord", "website": "http://www.hesstonrecord.com", "city-county-lat": 38.142541, "city-county-name": "Hesston", "twitter": "http://www.twitter.com/RecordTime", "name": "Hesston Record", "video": "http://www.youtube.com/user/rmedia1/videos"}, {"city-county-long": -95.54497, "open-search": ["http://www.hiawathaworldonline.com/search/opensearch/generic.xml"], "rss": [], "media-class": "newspaper", "media-subclass": "city-county", "facebook": "https://www.facebook.com/pages/Hiawatha-World/140225006013485", "website": "http://www.hiawathaworldonline.com/", "city-county-lat": 39.857155, "city-county-name": "Hiawatha", "twitter": "", "name": "Hiawatha World", "video": ""}, {"city-county-long": -97.21489, "open-search": [], "rss": ["https://www.hillsborofreepress.com/feed", "https://www.hillsborofreepress.com/comments/feed", "https://www.hillsborofreepress.com/wp-content/plugins/leaflet-maps-marker/leaflet-georss.php?layer=all"], "media-class": "newspaper", "media-subclass": "city-county", "facebook": "https://www.facebook.com/HillsboroFreePress", "website": "http://www.hillsborofreepress.com/", "city-county-lat": 38.347058, "city-county-name": "Hillsboro", "twitter": "", "name": "Hillsboro Free Press", "video": "https://www.youtube.com/user/pucknose"}, {"city-county-long": -97.21489, "open-search": [], "rss": ["http://starj.com/rss.cgi"], "media-class": "newspaper", "media-subclass": "city-county", "facebook": "", "website": "http://www.starj.com/", "city-county-lat": 38.347058, "city-county-name": "Hillsboro", "twitter": "", "name": "Hillsboro Star Journal", "video": ""}, {"city-county-long": -95.7132, "open-search": [], "rss": ["http://www.holtonrecorder.net/rss.xml"], "media-class": "newspaper", "media-subclass": "city-county", "facebook": "", "website": "http://holtonrecorder.net/", "city-county-lat": 39.466971, "city-county-name": "Holton", "twitter": "http://www.twitter.com/HoltonRecorder", "name": "Holton Recorder", "video": "https://www.youtube.com/channel/UCsWdK8GzuDiYhntwzogJwYg"}, {"city-county-long": -101.349, "open-search": [], "rss": ["http://hugotonhermes.com/feed/", "http://hugotonhermes.com/comments/feed/"], "media-class": "newspaper", "media-subclass": "city-county", "facebook": "https://www.facebook.com/thehugotonhermes", "website": "http://hugotonhermesnews.com/", "city-county-lat": 37.185269, "city-county-name": "Hugoton", "twitter": "", "name": "Hugoton Hermes", "video": ""}, {"city-county-long": -97.92382, "open-search": [], "rss": ["http://www.hutchnews.com/search/?f=rss&t=article&l=50&s=start_time&sd=desc&k[]=%23topstory"], "media-class": "newspaper", "media-subclass": "city-county", "facebook": "https://www.facebook.com/hutchinsonnews", "website": "http://www.hutchnews.com/", "city-county-lat": 38.034292, "city-county-name": "Hutchinson", "twitter": "http://www.twitter.com/HutchNews", "name": "Hutchinson News", "video": "http://www.youtube.com/user/TheHutchinsonNews"}, {"city-county-long": -95.39695, "open-search": [], "rss": [], "media-class": "newspaper", "media-subclass": "city-county", "facebook": "https://www.facebook.com/iolaregister", "website": "http://www.iolaregister.com/", "city-county-lat": 37.926666, "city-county-name": "Iola", "twitter": "http://www.twitter.com/iolaregister", "name": "Iola Register", "video": ""}, {"city-county-long": -96.83653, "open-search": [], "rss": ["http://www.yourdu.net/search/?f=rss&t=article&l=50&s=start_time&sd=desc&k[]=%23topstory"], "media-class": "newspaper", "media-subclass": "city-county", "facebook": "https://www.facebook.com/dailyunionnewspaper", "website": "http://www.yourdu.net/", "city-county-lat": 39.01585, "city-county-name": "Junction City", "twitter": "http://www.twitter.com/thedailyunion", "name": "Daily Union", "video": "https://www.youtube.com/user/JCDailyUnion"}, {"city-county-long": -94.62568, "open-search": [], "rss": ["http://www.kckansan.com/feeds/posts/default", "https://www.blogger.com/feeds/5889492072824068476/posts/default", "http://www.kckansan.com/feeds/posts/default?alt=rss"], "media-class": "newspaper", "media-subclass": "city-county", "facebook": "https://www.facebook.com/KansasCityKansan", "website": "http://www.kckansan.com/", "city-county-lat": 39.118054, "city-county-name": "Kansas City", "twitter": "http://www.twitter.com/kckansan", "name": "Kansas City Kansan", "video": ""}, {"city-county-long": -94.62568, "open-search": [], "rss": ["http://www.kansascity.com/?widgetName=rssfeed&widgetContentId=6199&getXmlFeed=true"], "media-class": "newspaper", "media-subclass": "city-county", "facebook": "https://www.facebook.com/kansascitystar", "website": "http://www.kcstar.com/", "city-county-lat": 39.118054, "city-county-name": "Kansas City", "twitter": "http://www.twitter.com/KCStar", "name": "Kansas City Star", "video": "http://www.youtube.com/user/KansasCityStarVideo"}, {"city-county-long": -98.10612, "open-search": [], "rss": ["http://www.kcnonline.com/feed/atom/", "http://www.kcnonline.com/comments/feed/", "http://www.kcnonline.com/feed/"], "media-class": "newspaper", "media-subclass": "city-county", "facebook": "https://www.facebook.com/KCNOnline", "website": "http://www.kcnonline.com/", "city-county-lat": 37.618339, "city-county-name": "Kingman", "twitter": "", "name": "Kingman Leader-Courier", "video": ""}, {"city-county-long": -98.49342, "open-search": [], "rss": ["http://kiowanews.com/index.php/feed/"], "media-class": "newspaper", "media-subclass": "city-county", "facebook": "", "website": "http://www.kiowanews.com/", "city-county-lat": 37.037218, "city-county-name": "Kiowa", "twitter": "", "name": "Kiowa News", "video": ""}, {"city-county-long": -101.2722, "open-search": [], "rss": [], "media-class": "newspaper", "media-subclass": "city-county", "facebook": "", "website": "http://www.lakinindependent.com/", "city-county-lat": 37.995238, "city-county-name": "Lakin", "twitter": "", "name": "Lakin Independent", "video": ""}, {"city-county-long": -94.89859, "open-search": [], "rss": [""], "media-class": "newspaper", "media-subclass": "city-county", "facebook": "https://www.facebook.com/thebasehorsentinel", "website": "http://www.basehorinfo.com/news/lansing/", "city-county-lat": 39.258624, "city-county-name": "Lansing", "twitter": "http://www.twitter.com/basehorsentinel", "name": "Lansing Current", "video": ""}, {"city-county-long": -95.23202, "open-search": [], "rss": ["http://www2.ljworld.com/rss/headlines/news/"], "media-class": "newspaper", "media-subclass": "city-county", "facebook": "https://www.facebook.com/LJWorld", "website": "http://www.ljworld.com/", "city-county-lat": 38.983551, "city-county-name": "Lawrence", "twitter": "http://www.twitter.com/ljworld", "name": "Journal World", "video": "http://www.youtube.com/user/LJWorldLawrence"}, {"city-county-long": -94.93555, "open-search": [], "rss": [], "media-class": "newspaper", "media-subclass": "city-county", "facebook": "https://www.facebook.com/leavenworth.lamp", "website": "http://www.ftleavenworthlamp.com/", "city-county-lat": 39.298776, "city-county-name": "Leavenworth", "twitter": "http://www.twitter.com/fortleavenworth", "name": "Fort Leavenworth Lamp", "video": ""}, {"city-county-long": -94.93555, "open-search": [], "rss": [], "media-class": "newspaper", "media-subclass": "city-county", "facebook": "https://www.facebook.com/the.leavenworth.times", "website": "http://www.leavenworthtimes.com/", "city-county-lat": 39.298776, "city-county-name": "Leavenworth", "twitter": "http://www.twitter.com/LVTimesNews", "name": "Leavenworth Times", "video": ""}, {"city-county-long": -100.92813, "open-search": [], "rss": ["/index.php?option=com_fpss&task=module&id=121&format=feed&type=atom", "/index.php?format=feed&type=rss", "/index.php?format=feed&type=atom", "/index.php?option=com_fpss&task=module&id=121&format=feed&type=rss"], "media-class": "newspaper", "media-subclass": "city-county", "facebook": "https://www.facebook.com/LeaderandTimes", "website": "http://www.leaderandtimes.com/", "city-county-lat": 37.067979, "city-county-name": "Liberal", "twitter": "", "name": "High Plains Daily Leader", "video": ""}, {"city-county-long": -94.654599, "open-search": ["http://www.lincolnsentinel.com/index.php/component/search/?id=1&Itemid=435&format=opensearch"], "rss": [], "media-class": "newspaper", "media-subclass": "city-county", "facebook": "https://www.facebook.com/pages/Lincoln-Sentinel/311063592250312", "website": "http://www.lincolnsentinel.com/", "city-county-lat": 37.57189, "city-county-name": "Lincoln", "twitter": "", "name": "Lincoln Sentinel-Republican", "video": ""}, {"city-county-long": -94.68121, "open-search": ["http://www.republic-online.com/search/opensearch/generic.xml"], "rss": [], "media-class": "newspaper", "media-subclass": "city-county", "facebook": "https://www.facebook.com/LouisburgHerald", "website": "http://www.herald-online.com/", "city-county-lat": 38.602219, "city-county-name": "Louisburg", "twitter": "http://www.twitter.com/louisburgherald", "name": "Louisburg Herald", "video": ""}, {"city-county-long": -98.2025, "open-search": [], "rss": ["http://www.midksnews.com/feed/", "http://www.midksnews.com/comments/feed/"], "media-class": "newspaper", "media-subclass": "city-county", "facebook": "https://www.facebook.com/TheLyonsNews", "website": "http://www.midksnews.com/", "city-county-lat": 38.356474, "city-county-name": "Lyons", "twitter": "", "name": "Lyons News", "video": ""}, {"city-county-long": -96.56932, "open-search": [], "rss": [], "media-class": "newspaper", "media-subclass": "city-county", "facebook": "", "website": "http://www.manhattanfreepress.com/", "city-county-lat": 39.184986, "city-county-name": "Manhattan", "twitter": "", "name": "Manhattan Free Press", "video": ""}, {"city-county-long": -96.56932, "open-search": [], "rss": [], "media-class": "newspaper", "media-subclass": "city-county", "facebook": "https://www.facebook.com/TheManhattanMercury", "website": "http://themercury.com/", "city-county-lat": 39.184986, "city-county-name": "Manhattan", "twitter": "http://www.twitter.com/MERCnewsroom ", "name": "Mercury", "video": "https://www.youtube.com/channel/UCrijVzgp5lzjA15BWPkqVZw"}, {"city-county-long": -97.01768, "open-search": [], "rss": ["http://marionrecord.com/rss.cgi"], "media-class": "newspaper", "media-subclass": "city-county", "facebook": "https://www.facebook.com/MarionCoRecord", "website": "http://www.marionrecord.com/", "city-county-lat": 38.359189, "city-county-name": "Marion", "twitter": "http://www.twitter.com/marionrecord", "name": "Marion County Record", "video": ""}, {"city-county-long": -96.63963, "open-search": ["http://www.marysvilleonline.net/search/opensearch/generic.xml"], "rss": [], "media-class": "newspaper", "media-subclass": "city-county", "facebook": "https://www.facebook.com/marysvilleonline", "website": "http://www.marysvilleonline.net/", "city-county-lat": 39.852696, "city-county-name": "Marysville", "twitter": "http://www.twitter.com/MarysvilleTweet", "name": "Marysville Advocate", "video": ""}, {"city-county-long": -97.6642, "open-search": [], "rss": [], "media-class": "newspaper", "media-subclass": "city-county", "facebook": "https://www.facebook.com/pages/The-McPherson-Sentinel/121845353350", "website": "http://www.mcphersonsentinel.com/", "city-county-lat": 38.3708, "city-county-name": "McPherson", "twitter": "http://www.twitter.com/macsentinel", "name": "McPherson Sentinel", "video": "http://www.youtube.com/user/McPhersonSentinel"}, {"city-county-long": -100.34464, "open-search": [], "rss": ["https://mcnewsonline.com/comments/feed", "https://mcnewsonline.com/feed/atom", "https://mcnewsonline.com/feed", "https://mcnewsonline.com/home/feed"], "media-class": "newspaper", "media-subclass": "city-county", "facebook": "https://www.facebook.com/meade.countynews.1", "website": "http://mcnewsonline.com/", "city-county-lat": 37.21313, "city-county-name": "Meade", "twitter": "", "name": "Meade County News", "video": ""}, {"city-county-long": -98.60271, "open-search": [], "rss": [], "media-class": "newspaper", "media-subclass": "city-county", "facebook": "https://www.facebook.com/pages/The-Gyp-Hill-Premiere/201939456539625", "website": "http://www.gyphillpremiere.com/", "city-county-lat": 37.286936, "city-county-name": "Medicine Lodge", "twitter": "", "name": "Gyp Hill Premiere", "video": ""}, {"city-county-long": -99.96723, "open-search": [], "rss": ["https://www.clarkcountygazette.com/feed/atom", "https://www.clarkcountygazette.com/feed", "https://www.clarkcountygazette.com/comments/feed", "https://www.clarkcountygazette.com/home/feed"], "media-class": "newspaper", "media-subclass": "city-county", "facebook": "https://www.facebook.com/clarkcounty.gazette", "website": "http://clarkcountygazette.com/", "city-county-lat": 37.394383, "city-county-name": "Minneola", "twitter": "", "name": "Clark County Gazette", "video": ""}, {"city-county-long": -97.67462, "open-search": [], "rss": ["http://clarionpaper.com/comments/feed/", "http://clarionpaper.com/feed/"], "media-class": "newspaper", "media-subclass": "city-county", "facebook": "https://www.facebook.com/ClarionKansas", "website": "http://clarionpaper.com/", "city-county-lat": 37.831684, "city-county-name": "Mount Hope", "twitter": "http://www.twitter.com/ClarionPaper", "name": "Mount Hope Clarion", "video": ""}, {"city-county-long": -97.323, "open-search": [], "rss": [], "media-class": "newspaper", "media-subclass": "city-county", "facebook": "https://www.facebook.com/TheNewtonKansan", "website": "http://www.thekansan.com/", "city-county-lat": 38.051679, "city-county-name": "Newton", "twitter": "http://www.twitter.com/ChadFrey", "name": "Newton Kansan", "video": "http://www.youtube.com/user/NewtonKansanSports"}, {"city-county-long": -99.93288, "open-search": [], "rss": [], "media-class": "newspaper", "media-subclass": "city-county", "facebook": "https://www.facebook.com/pages/Norton-Telegram/393371464033872", "website": "http://www.nwkansas.com/NCTwebpages/ntmain.html", "city-county-lat": 39.822766, "city-county-name": "Norton", "twitter": "", "name": "Norton Telegram", "video": ""}, {"city-county-long": -94.831991, "open-search": [], "rss": ["/home/v-highlights/index.rss", "/home/index.rss"], "media-class": "newspaper", "media-subclass": "city-county", "facebook": "", "website": "http://www.theolathenews.com/", "city-county-lat": 38.899901, "city-county-name": "Olathe", "twitter": "", "name": "Olathe Daily News", "video": ""}, {"city-county-long": -95.83132, "open-search": [], "rss": ["http://www.och-c.com/?q=rss.xml"], "media-class": "newspaper", "media-subclass": "city-county", "facebook": "https://www.facebook.com/ochcnews", "website": "http://www.och-c.com/", "city-county-lat": 38.611619, "city-county-name": "Osage City", "twitter": "http://www.twitter.com/OsageCounty", "name": "Herald-Chronicle", "video": "http://www.youtube.com/channel/UCsP3lFEldjSN0JrzAGI-cgQ"}, {"city-county-long": -94.96465, "open-search": ["http://www.republic-online.com/search/opensearch/generic.xml"], "rss": [], "media-class": "newspaper", "media-subclass": "city-county", "facebook": "https://www.facebook.com/OsawatomieGraphic", "website": "http://www.graphic-online.com/", "city-county-lat": 38.489733, "city-county-name": "Osawatomie", "twitter": "", "name": "Osawatomie Graphic", "video": ""}, {"city-county-long": -95.32501, "open-search": [], "rss": ["http://www.jeffcountynews.com/category/oskaloosa-independent/feed/", "http://www.jeffcountynews.com/feed/atom/", "http://www.jeffcountynews.com/feed/"], "media-class": "newspaper", "media-subclass": "city-county", "facebook": "", "website": "http://www.jeffcountynews.com/category/oskaloosa-independent/", "city-county-lat": 39.214825, "city-county-name": "Oskaloosa", "twitter": "", "name": "Oskaloosa Independent", "video": ""}, {"city-county-long": -95.27355, "open-search": [], "rss": ["http://www.ottawaherald.com/search/?f=rss&t=article&l=50&s=start_time&sd=desc&k[]=%23topstory"], "media-class": "newspaper", "media-subclass": "city-county", "facebook": "https://www.facebook.com/OttawaHerald", "website": "http://www.ottawaherald.com/", "city-county-lat": 38.614986, "city-county-name": "Ottawa", "twitter": "http://www.twitter.com/oheraldnews", "name": "Ottawa Herald", "video": "http://www.youtube.com/user/TheOttawaHerald"}, {"city-county-long": -94.86706, "open-search": ["http://www.republic-online.com/search/opensearch/generic.xml"], "rss": [], "media-class": "newspaper", "media-subclass": "city-county", "facebook": "https://www.facebook.com/micorepublic", "website": "http://www.republic-online.com/", "city-county-lat": 38.574804, "city-county-name": "Paola", "twitter": "http://www.twitter.com/micorepublic", "name": "Miami County Republic", "video": ""}, {"city-county-long": -95.25834, "open-search": ["http://www.parsonssun.com/search/opensearch/generic.xml"], "rss": [], "media-class": "newspaper", "media-subclass": "city-county", "facebook": "https://www.facebook.com/pages/Parsons-Sun/132277526817483", "website": "http://www.parsonssun.com/", "city-county-lat": 37.339913, "city-county-name": "Parsons", "twitter": "http://www.twitter.com/ParsonsSun", "name": "Parsons Sun", "video": "https://www.youtube.com/channel/UCLwAOcKUB1gzerRE-EAjf7w"}, {"city-county-long": -97.1049, "open-search": [], "rss": ["http://peabodykansas.com/rss.cgi"], "media-class": "newspaper", "media-subclass": "city-county", "facebook": "", "website": "http://peabodykansas.com/", "city-county-lat": 38.175115, "city-county-name": "Peabody", "twitter": "", "name": "Gazette-Bulletin", "video": ""}, {"city-county-long": -99.32852, "open-search": [], "rss": [], "media-class": "newspaper", "media-subclass": "city-county", "facebook": "", "website": "http://www.phillipscountyreview.com/", "city-county-lat": 39.799834, "city-county-name": "Phillipsburg", "twitter": "", "name": "Phillips County Review", "video": ""}, {"city-county-long": -94.70414, "open-search": [], "rss": [], "media-class": "newspaper", "media-subclass": "city-county", "facebook": "https://www.facebook.com/pages/The-Morning-Sun/75042554148", "website": "http://www.morningsun.net/", "city-county-lat": 37.408511, "city-county-name": "Pittsburg", "twitter": "http://www.twitter.com/The_Morning_Sun", "name": "Morning Sun", "video": "http://www.youtube.com/user/PittMorningSun"}, {"city-county-long": -94.70142, "open-search": [], "rss": [], "media-class": "newspaper", "media-subclass": "city-county", "facebook": "https://www.facebook.com/linncountynews", "website": "http://linncountynews.net/", "city-county-lat": 38.184882, "city-county-name": "Pleasanton", "twitter": "", "name": "Linn County News", "video": ""}, {"city-county-long": -98.75394, "open-search": [], "rss": [], "media-class": "newspaper", "media-subclass": "city-county", "facebook": "https://www.facebook.com/pages/The-Pratt-Tribune/86131669052", "website": "http://www.pratttribune.com/", "city-county-lat": 37.642738, "city-county-name": "Pratt", "twitter": "http://www.twitter.com/pratttribune", "name": "Pratt Tribune", "video": "https://www.youtube.com/user/PrattTribune"}, {"city-county-long": -95.82289, "open-search": [], "rss": ["http://sabethaherald.com/comments/feed/", "http://sabethaherald.com/feed/"], "media-class": "newspaper", "media-subclass": "city-county", "facebook": "https://www.facebook.com/sabethaherald", "website": "http://sabethaherald.com/", "city-county-lat": 39.889544, "city-county-name": "Sabetha", "twitter": "http://www.twitter.com/sabethaherald", "name": "Sabetha Herald", "video": "https://www.youtube.com/channel/UCUIdf6119nHH48H_t4l-9PQ"}, {"city-county-long": -98.79487, "open-search": [], "rss": [], "media-class": "newspaper", "media-subclass": "city-county", "facebook": "https://www.facebook.com/pages/St-John-News/125832347442459", "website": "http://www.sjnewsonline.com/", "city-county-lat": 38.014216, "city-county-name": "Saint John", "twitter": "", "name": "St. John News", "video": ""}, {"city-county-long": -96.07148, "open-search": [], "rss": [], "media-class": "newspaper", "media-subclass": "city-county", "facebook": "https://www.facebook.com/TheSt.MarysStar", "website": "http://thesmstar.com/", "city-county-lat": 39.200733, "city-county-name": "Saint Marys", "twitter": "", "name": "Saint Marys Star", "video": ""}, {"city-county-long": -97.61553, "open-search": [], "rss": ["http://salina.com/search/?f=rss&t=article&l=50&s=start_time&sd=desc&k[]=%23topstory"], "media-class": "newspaper", "media-subclass": "city-county", "facebook": "https://www.facebook.com/pages/Salina-Journal/108241099200760", "website": "http://www.salina.com/", "city-county-lat": 38.827875, "city-county-name": "Salina", "twitter": "http://www.twitter.com/salinajournal", "name": "Salina Journal", "video": "http://www.youtube.com/user/salinajournal"}, {"city-county-long": -96.04833, "open-search": [], "rss": [], "media-class": "newspaper", "media-subclass": "city-county", "facebook": "https://www.facebook.com/pages/The-Courier-Tribune/306094159437551", "website": "http://www.couriertribuneonline.com/", "city-county-lat": 39.840496, "city-county-name": "Seneca", "twitter": "", "name": "Seneca Courier-Tribune", "video": ""}, {"city-county-long": -101.73575, "open-search": [], "rss": [], "media-class": "newspaper", "media-subclass": "city-county", "facebook": "", "website": "http://www.thewesterntimes.com/", "city-county-lat": 38.865428, "city-county-name": "Sharon Springs", "twitter": "", "name": "Western Times", "video": ""}, {"city-county-long": -94.7152, "open-search": [], "rss": ["http://www.shawneedispatch.com/rss/headlines/"], "media-class": "newspaper", "media-subclass": "city-county", "facebook": "https://www.facebook.com/theshawneedispatch", "website": "http://www.shawneedispatch.com/", "city-county-lat": 39.0228, "city-county-name": "Shawnee", "twitter": "http://www.twitter.com/shawneedispatch", "name": "Shawnee Dispatch", "video": ""}, {"city-county-long": -98.20222, "open-search": [], "rss": [], "media-class": "newspaper", "media-subclass": "city-county", "facebook": "https://www.facebook.com/SterlingBulletin", "website": "http://sterlingbulletin.net/", "city-county-lat": 38.19784, "city-county-name": "Sterling", "twitter": "", "name": "Sterling Bulletin", "video": ""}, {"city-county-long": -101.80781, "open-search": [], "rss": [], "media-class": "newspaper", "media-subclass": "city-county", "facebook": "https://www.facebook.com/pages/The-Syracuse-Journal/137511306292379", "website": "http://www.thesyracusejournal.com/", "city-county-lat": 38.022874, "city-county-name": "Syracuse", "twitter": "", "name": "Syracuse Journal", "video": ""}, {"city-county-long": -95.08112, "open-search": [], "rss": ["http://www.tonganoxiemirror.com/rss/headlines/"], "media-class": "newspaper", "media-subclass": "city-county", "facebook": "https://www.facebook.com/TonganoxieMirror", "website": "http://www.tonganoxiemirror.com/", "city-county-lat": 39.112379, "city-county-name": "Tonganoxie", "twitter": "http://www.twitter.com/tonganoxie", "name": "Mirror", "video": ""}, {"city-county-long": -95.780662, "open-search": [], "rss": [], "media-class": "newspaper", "media-subclass": "city-county", "facebook": "https://www.facebook.com/TopekaCapitalJournal", "website": "http://cjonline.com/", "city-county-lat": 38.988075, "city-county-name": "Topeka", "twitter": "http://www.twitter.com/CJ_news", "name": "Topeka Cap. Journal", "video": "https://www.youtube.com/user/CJOnlineMedia"}, {"city-county-long": -101.7871, "open-search": [], "rss": [], "media-class": "newspaper", "media-subclass": "city-county", "facebook": "", "website": "http://www.gcrnews.com/", "city-county-lat": 38.478369, "city-county-name": "Tribune", "twitter": "", "name": "Greeley County Republican", "video": ""}, {"city-county-long": -97.33059, "open-search": [], "rss": [], "media-class": "newspaper", "media-subclass": "city-county", "facebook": "https://www.facebook.com/pages/Ark-Valley-News/113017225378942", "website": "http://www.arkvalleynews.com/", "city-county-lat": 37.853935, "city-county-name": "Valley Center", "twitter": "", "name": "Ark Valley News", "video": ""}, {"city-county-long": -95.45781, "open-search": [], "rss": ["http://www.jeffcountynews.com/feed/atom/", "http://www.jeffcountynews.com/category/valley-falls-vindicator/feed/", "http://www.jeffcountynews.com/feed/"], "media-class": "newspaper", "media-subclass": "city-county", "facebook": "", "website": "http://www.jeffcountynews.com/category/valley-falls-vindicator/", "city-county-lat": 39.339975, "city-county-name": "Valley Falls", "twitter": "", "name": "Valley Falls Vindicator", "video": ""}, {"city-county-long": -96.31279, "open-search": [], "rss": [], "media-class": "newspaper", "media-subclass": "city-county", "facebook": "https://www.facebook.com/pages/Smoke-Signal/241394545936654", "website": "http://www.thewamegosmokesignal.com/", "city-county-lat": 39.220965, "city-county-name": "Wamego", "twitter": "", "name": "Wamego Smoke Signal", "video": "https://www.youtube.com/user/WamegoSmokeSignal"}, {"city-county-long": -97.06111, "open-search": [], "rss": [], "media-class": "newspaper", "media-subclass": "city-county", "facebook": "https://www.facebook.com/washingtoncountynews", "website": "http://www.backroadsnews.com/", "city-county-lat": 39.815522, "city-county-name": "Washington", "twitter": "", "name": "Washington County News", "video": "https://www.youtube.com/user/wcnews1"}, {"city-county-long": -97.41247, "open-search": [], "rss": [], "media-class": "newspaper", "media-subclass": "city-county", "facebook": "https://www.facebook.com/WellingtonDailyNews", "website": "http://www.wellingtondailynews.com/", "city-county-lat": 37.268972, "city-county-name": "Wellington", "twitter": "http://www.twitter.com/wgtndailynews", "name": "Daily News", "video": ""}, {"city-county-long": -97.258997, "open-search": [], "rss": ["http://www.communityvoiceks.com/search/?f=rss&t=article&l=50&s=start_time&sd=desc&k[]=%23topstory"], "media-class": "newspaper", "media-subclass": "city-county", "facebook": "https://www.facebook.com/TheCommunityVoice", "website": "http://www.communityvoiceks.com/", "city-county-lat": 37.651974, "city-county-name": "Wichita", "twitter": "http://www.twitter.com/voiceitwichita", "name": "Community Voice", "video": ""}, {"city-county-long": -97.258997, "open-search": [], "rss": [], "media-class": "newspaper", "media-subclass": "city-county", "facebook": "https://www.facebook.com/ICTBizJournal", "website": "http://www.bizjournals.com/wichita/", "city-county-lat": 37.651974, "city-county-name": "Wichita", "twitter": "http://www.twitter.com/ICTBizJournal", "name": "Wichita Business Journal", "video": ""}, {"city-county-long": -97.258997, "open-search": [], "rss": ["http://www.kansas.com/?widgetName=rssfeed&widgetContentId=543268&getXmlFeed=true"], "media-class": "newspaper", "media-subclass": "city-county", "facebook": "https://www.facebook.com/wichitaeagle", "website": "http://www.kansas.com/", "city-county-lat": 37.651974, "city-county-name": "Wichita", "twitter": "http://www.twitter.com/kansasdotcom", "name": "Wichita Eagle", "video": "http://www.youtube.com/channel/UC5lKJCWHxy9nORbFL_E4iTQ"}, {"city-county-long": -96.97885, "open-search": [], "rss": ["http://www.ctnewsonline.com/search/?f=rss&t=article&l=50&s=start_time&sd=desc&k[]=%23topstory"], "media-class": "newspaper", "media-subclass": "city-county", "facebook": "https://www.facebook.com/winfieldcourier", "website": "http://www.winfieldcourier.com/", "city-county-lat": 37.256575, "city-county-name": "Winfield", "twitter": "http://www.twitter.com/winfieldcourier", "name": "Winfield Daily Courier", "video": ""}, {"city-county-long": -96.1801, "open-search": [], "rss": ["http://esubulletin.com/feed/atom/", "http://esubulletin.com/feed/"], "media-class": "newspaper", "media-subclass": "college", "facebook": "https://www.facebook.com/esubulletin", "website": "http://www.esubulletin.com/", "city-county-lat": 38.4139, "city-county-name": "Emporia State Univ", "twitter": "http://www.twitter.com/esubulletin", "name": "Bulletin", "video": "http://www.youtube.com/user/ESUBulletin"}, {"city-county-long": -99.3402, "open-search": [], "rss": ["http://tmn.fhsu.edu/?feed=comments-rss2", "http://tmn.fhsu.edu/?feed=rss2&page_id=14364", "http://tmn.fhsu.edu/?feed=rss2"], "media-class": "newspaper", "media-subclass": "college", "facebook": "https://www.facebook.com/tigermedianet", "website": "http://tmn.fhsu.edu/", "city-county-lat": 38.8731, "city-county-name": "Ft. Hays State", "twitter": "http://www.twitter.com/TigerMediaNet", "name": "University Leader", "video": ""}, {"city-county-long": -96.5847, "open-search": [], "rss": ["//www.kstatecollegian.com/new-home/feed/", "//www.kstatecollegian.com/feed/", "//www.kstatecollegian.com/comments/feed/"], "media-class": "newspaper", "media-subclass": "college", "facebook": "http://www.facebook.com/kstatecollegian", "website": "http://www.kstatecollegian.com/", "city-county-lat": 39.1974, "city-county-name": "Kansas State University", "twitter": "http://www.twitter.com/kstatecollegian", "name": "Collegian", "video": "https://www.youtube.com/user/Ecollegian/videos"}, {"city-county-long": -95.2558, "open-search": ["http://www.kansan.com/search/opensearch/generic.xml"], "rss": [], "media-class": "newspaper", "media-subclass": "college", "facebook": "https://www.facebook.com/thekansan", "website": "http://www.kansan.com/", "city-county-lat": 38.9543, "city-county-name": "Kansas Univ Lawrence", "twitter": "", "name": "Daily Kansan", "video": ""}, {"city-county-long": -94.6961, "open-search": [], "rss": ["http://www.psucollegio.com/search/?f=rss&t=article&l=50&s=start_time&sd=desc&k[]=%23topstory"], "media-class": "newspaper", "media-subclass": "college", "facebook": "http://www.facebook.com/psucollegio", "website": "http://psucollegio.com/", "city-county-lat": 37.3918, "city-county-name": "Pittsburg State", "twitter": "http://www.twitter.com/PSU_Collegio", "name": "Collegio", "video": "https://www.youtube.com/user/collegiopsu/videos"}, {"city-county-long": -97.2938, "open-search": ["http://www.thesunflower.com/search/opensearch/generic.xml"], "rss": [], "media-class": "newspaper", "media-subclass": "college", "facebook": "http://www.facebook.com/sunflowerwsu", "website": "http://www.thesunflower.com/", "city-county-lat": 37.719, "city-county-name": "Wichita State", "twitter": "http://www.twitter.com/sunflowernews", "name": "Sunflower", "video": ""}], "radio": [{"city-county-long": -100.02632, "open-search": [], "rss": ["http://khymfm.org/home-page/feed/"], "media-class": "radio", "media-subclass": "Inspirational", "facebook": "https://www.facebook.com/pages/KHYM/138659247991", "website": "http://khymfm.org/", "city-county-lat": 37.755267, "city-county-name": "Dodge City", "twitter": "", "name": "KHYM 103.9 FM", "video": ""}, {"city-county-long": -100.02632, "open-search": [], "rss": ["http://kjil991.com/home-page/feed/"], "media-class": "radio", "media-subclass": "Inspirational", "facebook": "http://www.facebook.com/radioforlife", "website": "http://www.kjil991.com/", "city-county-lat": 37.755267, "city-county-name": "Dodge City", "twitter": "http://www.twitter.com/livelifewithus", "name": "KJIL 103.9 FM", "video": "http://www.youtube.com/user/KJILRadio"}, {"city-county-long": -100.82503, "open-search": [], "rss": ["http://hppr.org/rss.xml"], "media-class": "radio", "media-subclass": "Public Radio", "facebook": "https://www.facebook.com/HighPlainsPublicRadio", "website": "http://hppr.org/", "city-county-lat": 37.976008, "city-county-name": "Garden City", "twitter": "http://www.twitter.com/hppr", "name": "KANZ 91.1 FM", "video": ""}, {"city-county-long": -99.32559, "open-search": [], "rss": ["http://www.hayspost.com/feed/", "http://www.hayspost.com/comments/feed/"], "media-class": "radio", "media-subclass": "Adult Top 40", "facebook": "https://www.facebook.com/hayspost", "website": "http://www.hayspost.com/mix-103-home-of-the-no-repeat-workday/", "city-county-lat": 38.881082, "city-county-name": "Hays", "twitter": "http://www.twitter.com/hayspost", "name": "KJLS 103.3 FM", "video": ""}, {"city-county-long": -97.92382, "open-search": [], "rss": [], "media-class": "radio", "media-subclass": "Public Radio", "facebook": "https://www.facebook.com/pages/Radio-Kansas/259278949674", "website": "http://www.radiokansas.org/", "city-county-lat": 38.034292, "city-county-name": "Hutchinson", "twitter": "http://www.twitter.com/RadioKansas", "name": "KHCC 90.1 FM", "video": ""}, {"city-county-long": -94.62568, "open-search": [], "rss": ["http://www.101thefox.net/comments/feed/", "http://www.101thefox.net/home/feed/", "http://www.101thefox.net/feed/"], "media-class": "radio", "media-subclass": "Classic Rock", "facebook": "https://www.facebook.com/101.1thefox", "website": "http://www.101thefox.net/", "city-county-lat": 39.118054, "city-county-name": "Kansas City", "twitter": "http://www.twitter.com/101theFoxKC", "name": "KCFX 101.1 FM", "video": ""}, {"city-county-long": -95.23202, "open-search": [], "rss": [], "media-class": "radio", "media-subclass": "Jazz", "facebook": "https://www.facebook.com/KansasPublicRadio", "website": "http://kansaspublicradio.org/", "city-county-lat": 38.983551, "city-county-name": "Lawrence", "twitter": "http://www.twitter.com/kprkoranda", "name": "KANU 91.5 FM", "video": "https://www.youtube.com/user/KansasPublicRadio/videos"}, {"city-county-long": -95.23202, "open-search": [], "rss": ["http://kjhk.org/web/feed/", "http://kjhk.org/web/comments/feed/"], "media-class": "radio", "media-subclass": "Jazz", "facebook": "https://www.facebook.com/KJHK907", "website": "http://kjhk.org/", "city-county-lat": 38.983551, "city-county-name": "Lawrence", "twitter": "http://www.twitter.com/kjhk", "name": "KJHK 91.5 FM", "video": "https://www.youtube.com/user/KJHKLive/videos"}, {"city-county-long": -100.92813, "open-search": [], "rss": ["/rmg-theme2/kscb-news-rss/"], "media-class": "radio", "media-subclass": "News/Talk", "facebook": "https://www.facebook.com/pages/KSCBThe-Legend/131484653589714", "website": "http://www.kscbnews.net/", "city-county-lat": 37.067979, "city-county-name": "Liberal", "twitter": "", "name": "KSCB 1270 AM", "video": ""}, {"city-county-long": -96.56932, "open-search": [], "rss": ["http://ksdbfm.org/comments/feed/", "http://ksdbfm.org/feed/"], "media-class": "radio", "media-subclass": "Kansas St Univ", "facebook": "https://www.facebook.com/wildcat919", "website": "http://www.wildcat919.com/", "city-county-lat": 39.184986, "city-county-name": "Manhattan", "twitter": "http://www.twitter.com/Wildcat919", "name": "KSDB 91.9 FM", "video": "https://www.youtube.com/user/TheWildcat919/videos"}, {"city-county-long": -99.32852, "open-search": [], "rss": ["http://www.kkankqma.com/?feed=comments-rss2", "http://www.kkankqma.com/?feed=rss2"], "media-class": "radio", "media-subclass": "Variety", "facebook": "https://www.facebook.com/pages/KKANKQMA-Radio/89023450302", "website": "http://www.kkankqma.com/", "city-county-lat": 39.799834, "city-county-name": "Phillipsburg", "twitter": "", "name": "KQMA 92.5 FM", "video": ""}, {"city-county-long": -95.780662, "open-search": [], "rss": [], "media-class": "radio", "media-subclass": "Adult Top 40", "facebook": "https://www.facebook.com/1059kiss", "website": "http://www.1059kissfm.com/", "city-county-lat": 38.988075, "city-county-name": "Topeka", "twitter": "http://www.twitter.com/1059kissfm", "name": "KKSW 105.9 FM", "video": "http://www.youtube.com/user/kissfm1059"}, {"city-county-long": -97.258997, "open-search": [], "rss": [], "media-class": "radio", "media-subclass": "Country", "facebook": "https://www.facebook.com/kfdifm", "website": "http://www.kfdi.com/", "city-county-lat": 37.651974, "city-county-name": "Wichita", "twitter": "http://www.twitter.com/kfdinews", "name": "KFDI 101.3 FM", "video": "https://www.youtube.com/user/KFDINews/videos"}, {"city-county-long": -97.258997, "open-search": [], "rss": [], "media-class": "radio", "media-subclass": "Country", "facebook": "https://www.facebook.com/t95rocks", "website": "http://www.t95.com/", "city-county-lat": 37.651974, "city-county-name": "Wichita", "twitter": "http://www.twitter.com/T95", "name": "KICT 101.3 FM", "video": ""}, {"city-county-long": -97.258997, "open-search": [], "rss": ["http://kmuw.org/rss.xml"], "media-class": "radio", "media-subclass": "Country", "facebook": "https://www.facebook.com/KMUW89", "website": "http://kmuw.org/", "city-county-lat": 37.651974, "city-county-name": "Wichita", "twitter": "http://www.twitter.com/kmuw", "name": "KMUW 101.3 FM", "video": "http://www.youtube.com/user/kmuwfm89"}, {"city-county-long": -97.258997, "open-search": [], "rss": [], "media-class": "radio", "media-subclass": "Country", "facebook": "https://www.facebook.com/B98FM", "website": "http://www.b98fm.com/", "city-county-lat": 37.651974, "city-county-name": "Wichita", "twitter": "http://www.twitter.com/b98wichita", "name": "KRBB 101.3 FM", "video": ""}, {"city-county-long": -97.258997, "open-search": [], "rss": [], "media-class": "radio", "media-subclass": "Country", "facebook": "http://www.facebook.com/KSOKRadio", "website": "http://www.ksokradio.com/", "city-county-lat": 37.651974, "city-county-name": "Wichita", "twitter": "http://www.twitter.com/ksokradio", "name": "KSOK 101.3 FM", "video": ""}], "state-name": "Kansas_KS", "tv": [{"city-county-long": -98.70904, "open-search": [], "rss": [], "media-class": "tv", "media-subclass": "", "facebook": "https://www.facebook.com/SmokyHillsPublicTelevision", "website": "http://www.shptv.org/", "city-county-lat": 38.86913, "city-county-name": "Bunker Hill", "twitter": "http://www.twitter.com/SmokyHillsPTV", "name": "KOOD", "video": ""}, {"city-county-long": -100.02632, "open-search": [], "rss": [], "media-class": "tv", "media-subclass": "", "facebook": "https://www.facebook.com/kwchnews", "website": "http://www.kwch.com/", "city-county-lat": 37.755267, "city-county-name": "Dodge City", "twitter": "http://www.twitter.com/kwch12", "name": "KBSD", "video": "http://www.youtube.com/user/kwch12"}, {"city-county-long": -100.82503, "open-search": ["http://ksn.com/osd.xml", "https://s1.wp.com/opensearch.xml"], "rss": ["http://ksn.com/comments/feed/", "http://ksn.com/feed/"], "media-class": "tv", "media-subclass": "", "facebook": "https://www.facebook.com/KSNNews", "website": "http://ksn.com/", "city-county-lat": 37.976008, "city-county-name": "Garden City", "twitter": "http://www.twitter.com/KSNNews", "name": "KSNG", "video": "https://www.instagram.com/ksnnews3/"}, {"city-county-long": -98.78495, "open-search": ["http://ksn.com/osd.xml", "https://s1.wp.com/opensearch.xml"], "rss": ["http://ksn.com/comments/feed/", "http://ksn.com/feed/"], "media-class": "tv", "media-subclass": "", "facebook": "https://www.facebook.com/KSNNews", "website": "http://ksn.com/", "city-county-lat": 38.363151, "city-county-name": "Great Bend", "twitter": "http://www.twitter.com/KSNNews", "name": "KSNC", "video": "https://www.instagram.com/ksnnews3/"}, {"city-county-long": -97.92382, "open-search": [], "rss": [], "media-class": "tv", "media-subclass": "", "facebook": "https://www.facebook.com/KPTS.TV8", "website": "http://www.kpts.org/", "city-county-lat": 38.034292, "city-county-name": "Hutchinson", "twitter": "http://www.twitter.com/kpts", "name": "KPTS", "video": "http://www.youtube.com/user/kptspromotions"}, {"city-county-long": -97.92382, "open-search": [], "rss": [], "media-class": "tv", "media-subclass": "", "facebook": "https://www.facebook.com/kwchnews", "website": "http://www.kwch.com/", "city-county-lat": 38.034292, "city-county-name": "Hutchinson", "twitter": "http://www.twitter.com/kwch12", "name": "KWCH", "video": "http://www.youtube.com/user/kwch12"}, {"city-county-long": -94.62568, "open-search": [], "rss": [], "media-class": "tv", "media-subclass": "", "facebook": "https://www.facebook.com/KCTV5", "website": "http://www.kctv5.com/", "city-county-lat": 39.118054, "city-county-name": "Kansas City", "twitter": "http://www.twitter.com/KCTV5", "name": "KCTV", "video": ""}, {"city-county-long": -101.2722, "open-search": [], "rss": [], "media-class": "tv", "media-subclass": "", "facebook": "https://www.facebook.com/SmokyHillsPublicTelevision", "website": "http://www.shptv.org/", "city-county-lat": 37.995238, "city-county-name": "Lakin", "twitter": "http://www.twitter.com/smokyhillsptv", "name": "KSWK", "video": ""}, {"city-county-long": -95.23202, "open-search": [], "rss": [], "media-class": "tv", "media-subclass": "", "facebook": "https://www.facebook.com/kshbtv", "website": "http://www.kshb.com/subindex/entertainment/38_the_spot_kmci", "city-county-lat": 38.983551, "city-county-name": "Lawrence", "twitter": "http://www.twitter.com/41ActionNews", "name": "KMCI", "video": ""}, {"city-county-long": -100.53872, "open-search": ["http://ksn.com/osd.xml", "https://s1.wp.com/opensearch.xml"], "rss": ["http://ksn.com/comments/feed/", "http://ksn.com/feed/"], "media-class": "tv", "media-subclass": "", "facebook": "https://www.facebook.com/KSNNews", "website": "http://ksn.com/", "city-county-lat": 39.832075, "city-county-name": "Oberlin", "twitter": "http://www.twitter.com/KSNNews", "name": "KSNK", "video": "https://www.instagram.com/ksnnews3/"}, {"city-county-long": -94.70414, "open-search": [], "rss": [], "media-class": "tv", "media-subclass": "", "facebook": "https://www.facebook.com/koamfox14", "website": "http://www.koamtv.com/", "city-county-lat": 37.408511, "city-county-name": "Pittsburg", "twitter": "http://www.twitter.com/koamnews", "name": "KOAM", "video": "https://www.youtube.com/channel/UCOIy_NcDHSk4uLnpSXMIiDA"}, {"city-county-long": -95.780662, "open-search": ["http://ksnt.com/osd.xml", "https://s1.wp.com/opensearch.xml"], "rss": ["http://ksnt.com/feed/", "http://ksnt.com/comments/feed/"], "media-class": "tv", "media-subclass": "", "facebook": "https://www.facebook.com/27Ksnt", "website": "http://ksnt.com/", "city-county-lat": 38.988075, "city-county-name": "Topeka", "twitter": "http://www.twitter.com/KSNTNews", "name": "KSNT", "video": "http://www.youtube.com/user/27NEWSKSNTKTMJ"}, {"city-county-long": -95.780662, "open-search": ["http://ksnt.com/osd.xml", "https://s1.wp.com/opensearch.xml"], "rss": ["http://ksnt.com/feed/", "http://ksnt.com/comments/feed/"], "media-class": "tv", "media-subclass": "", "facebook": "https://www.facebook.com/KTKA49ABC", "website": "http://ksnt.com/", "city-county-lat": 38.988075, "city-county-name": "Topeka", "twitter": "http://www.twitter.com/KSNTNews", "name": "KTKA", "video": "http://www.youtube.com/user/27NEWSKSNTKTMJ"}, {"city-county-long": -95.780662, "open-search": [], "rss": ["http://www.ktwu.org/home/feed/"], "media-class": "tv", "media-subclass": "", "facebook": "https://www.facebook.com/ktwu11", "website": "http://www.ktwu.org/", "city-county-lat": 38.988075, "city-county-name": "Topeka", "twitter": "http://www.twitter.com/ktwu11", "name": "KTWU", "video": "http://www.youtube.com/user/KTWUProductions"}, {"city-county-long": -95.780662, "open-search": [], "rss": [], "media-class": "tv", "media-subclass": "", "facebook": "https://www.facebook.com/WIBWTV", "website": "http://www.wibw.com/", "city-county-lat": 38.988075, "city-county-name": "Topeka", "twitter": "http://www.twitter.com/wibw", "name": "WIBW", "video": "http://www.youtube.com/user/wibwtvvideo"}, {"city-county-long": -97.258997, "open-search": [], "rss": [], "media-class": "tv", "media-subclass": "", "facebook": "https://www.facebook.com/KAKETV", "website": "http://www.kake.com/", "city-county-lat": 37.651974, "city-county-name": "Wichita", "twitter": "http://www.twitter.com/kakenews", "name": "KAKE", "video": "http://www.youtube.com/user/TVNewsKakeland"}, {"city-county-long": -97.258997, "open-search": [], "rss": [], "media-class": "tv", "media-subclass": "", "facebook": "https://www.facebook.com/pages/KCTU-TV-43/120877922783", "website": "http://kctu.com/", "city-county-lat": 37.651974, "city-county-name": "Wichita", "twitter": "", "name": "KCTU", "video": ""}, {"city-county-long": -97.258997, "open-search": [], "rss": [], "media-class": "tv", "media-subclass": "", "facebook": "https://www.facebook.com/FOXKansas", "website": "http://www.foxkansas.com/", "city-county-lat": 37.651974, "city-county-name": "Wichita", "twitter": "http://www.twitter.com/foxkansas", "name": "KSAS", "video": "http://www.youtube.com/user/FOXKansas"}, {"city-county-long": -97.258997, "open-search": [], "rss": [], "media-class": "tv", "media-subclass": "", "facebook": "https://www.facebook.com/myTVwichita", "website": "http://www.mytvwichita.com/", "city-county-lat": 37.651974, "city-county-name": "Wichita", "twitter": "http://www.twitter.com/mytvwichita", "name": "KSCC", "video": ""}, {"city-county-long": -97.258997, "open-search": [], "rss": ["http://www.ksmi30.com/comments/feed/", "http://www.ksmi30.com/feed/"], "media-class": "tv", "media-subclass": "", "facebook": "https://www.facebook.com/KSMI30TV/", "website": "http://www.ksmi30.com/", "city-county-lat": 37.651974, "city-county-name": "Wichita", "twitter": "http://www.twitter.com/KSMI30", "name": "KSMI", "video": ""}, {"city-county-long": -97.258997, "open-search": ["http://ksn.com/osd.xml", "https://s1.wp.com/opensearch.xml"], "rss": ["http://ksn.com/comments/feed/", "http://ksn.com/feed/"], "media-class": "tv", "media-subclass": "", "facebook": "https://www.facebook.com/KSNNews", "website": "http://ksn.com/", "city-county-lat": 37.651974, "city-county-name": "Wichita", "twitter": "http://www.twitter.com/KSNNews", "name": "KSNW", "video": "https://www.instagram.com/ksnnews3/"}, {"city-county-long": -97.258997, "open-search": [], "rss": [], "media-class": "tv", "media-subclass": "", "facebook": "https://www.facebook.com/kwchnews", "website": "http://www.kwch.com/", "city-county-lat": 37.651974, "city-county-name": "Wichita", "twitter": "http://www.twitter.com/kwch12", "name": "KWCH", "video": "http://www.youtube.com/user/kwch12"}]}