{"newspaper": [{"city-county-long": -123.0896, "open-search": [], "rss": ["http://democratherald.com/search/?f=rss&t=article&l=50&s=start_time&sd=desc&k[]=%23topstory"], "media-class": "newspaper", "media-subclass": "city-county", "facebook": "https://www.facebook.com/dhnews", "website": "http://democratherald.com/", "city-county-lat": 44.635395, "city-county-name": "Albany", "twitter": "http://www.twitter.com/dhnews", "name": "Democrat-Herald", "video": ""}, {"city-county-long": -122.61772, "open-search": [], "rss": [], "media-class": "newspaper", "media-subclass": "city-county", "facebook": "https://www.facebook.com/dailytidings", "website": "http://www.dailytidings.com/", "city-county-lat": 42.169751, "city-county-name": "Ashland", "twitter": "http://www.twitter.com/dailytidings", "name": "Ashland Daily Tidings", "video": "http://www.youtube.com/user/ashlanddailytidings"}, {"city-county-long": -123.7417, "open-search": [], "rss": [], "media-class": "newspaper", "media-subclass": "city-county", "facebook": "https://www.facebook.com/DailyAstorian", "website": "http://www.dailyastorian.com/", "city-county-lat": 46.155007, "city-county-name": "Astoria", "twitter": "http://www.twitter.com/dailyastorian", "name": "Daily Astorian", "video": "http://www.youtube.com/user/DailyAstorian"}, {"city-county-long": -117.82092, "open-search": ["http://statics.bendbulletin.com/opensearch.xml"], "rss": [], "media-class": "newspaper", "media-subclass": "city-county", "facebook": "https://www.facebook.com/pages/Baker-City-Herald/114015861975478", "website": "http://www.bakercityherald.com/", "city-county-lat": 44.796517, "city-county-name": "Baker City", "twitter": "http://www.twitter.com/bakercityherald", "name": "Baker City Herald", "video": ""}, {"city-county-long": -122.80359, "open-search": [], "rss": ["http://feeds.feedburner.com/"], "media-class": "newspaper", "media-subclass": "city-county", "facebook": "https://www.facebook.com/pages/Beaverton-Valley-Times/1412416682310946", "website": "http://portlandtribune.com/beaverton-valley-times-news/", "city-county-lat": 45.49106, "city-county-name": "Beaverton", "twitter": "http://www.twitter.com/valleytimes", "name": "Beaverton Valley Times", "video": ""}, {"city-county-long": -121.29769, "open-search": ["http://statics.bendbulletin.com/opensearch.xml"], "rss": [], "media-class": "newspaper", "media-subclass": "city-county", "facebook": "https://www.facebook.com/bendbulletin", "website": "http://www.bendbulletin.com/", "city-county-lat": 44.091256, "city-county-name": "Bend", "twitter": "http://www.twitter.com/thebulletin", "name": "Bulletin", "video": "http://www.youtube.com/user/bulletinwebmaster"}, {"city-county-long": -121.29769, "open-search": [], "rss": ["http://cascadebusnews.com/feed/", "http://cascadebusnews.com/comments/feed/", "http://cascadebusnews.com/home-test/feed/"], "media-class": "newspaper", "media-subclass": "city-county", "facebook": "https://www.facebook.com/CascadeBusinessNews", "website": "http://www.cascadebusnews.com/", "city-county-lat": 44.091256, "city-county-name": "Bend", "twitter": "http://www.twitter.com/cascadebusnews", "name": "Cascade Business News", "video": ""}, {"city-county-long": -121.29769, "open-search": [], "rss": ["http://www.bendsource.com/bend/Rss.xml", "http://www.bendsource.com/bend/Rss.xml?id=comments"], "media-class": "newspaper", "media-subclass": "city-county", "facebook": "https://www.facebook.com/sourceweekly", "website": "http://www.bendsource.com/", "city-county-lat": 44.091256, "city-county-name": "Bend", "twitter": "http://www.twitter.com/sourceweekly", "name": "Source Weekly", "video": ""}, {"city-county-long": -124.27265, "open-search": ["http://statics.bendbulletin.com/opensearch.xml"], "rss": [], "media-class": "newspaper", "media-subclass": "city-county", "facebook": "https://www.facebook.com/currypilot", "website": "http://www.currypilot.com/", "city-county-lat": 42.098285, "city-county-name": "Brookings", "twitter": "http://www.twitter.com/currypilot", "name": "Curry Coastal Pilot", "video": "http://www.youtube.com/user/currycoastalpilot"}, {"city-county-long": -118.96382, "open-search": [], "rss": ["http://btimesherald.com/feed/", "http://btimesherald.com/comments/feed/"], "media-class": "newspaper", "media-subclass": "city-county", "facebook": "https://www.facebook.com/burnstimesherald", "website": "http://btimesherald.com/", "city-county-lat": 43.600795, "city-county-name": "Burns", "twitter": "", "name": "Burns Times Herald", "video": ""}, {"city-county-long": -122.68208, "open-search": [], "rss": ["http://feeds.feedburner.com/"], "media-class": "newspaper", "media-subclass": "city-county", "facebook": "https://www.facebook.com/canbyherald", "website": "http://www.pamplinmedia.com/canby-herald-news", "city-county-lat": 45.247004, "city-county-name": "Canby", "twitter": "", "name": "Canby Herald", "video": ""}, {"city-county-long": -123.961, "open-search": [], "rss": [], "media-class": "newspaper", "media-subclass": "city-county", "facebook": "https://www.facebook.com/cannonbeachgazette", "website": "http://www.dailyastorian.com/gazette", "city-county-lat": 45.894287, "city-county-name": "Cannon Beach", "twitter": "http://www.twitter.com/thecbgazette", "name": "Cannon Beach Gazette", "video": "http://www.youtube.com/user/CannonBeachGazette"}, {"city-county-long": -123.26993, "open-search": ["http://www.thechiefnews.com/search/opensearch/generic.xml"], "rss": [], "media-class": "newspaper", "media-subclass": "city-county", "facebook": "https://www.facebook.com/thechiefnews", "website": "http://www.thechiefnews.com/", "city-county-lat": 46.078338, "city-county-name": "Clatskanie", "twitter": "http://www.twitter.com/thechiefnews", "name": "Clatskanie Chief", "video": "https://www.youtube.com/channel/UCMVo_uAQO5rcbM_-VbFCgUQ"}, {"city-county-long": -124.21086, "open-search": [], "rss": ["http://theworldlink.com/search/?f=rss&t=article&l=50&s=start_time&sd=desc&k[]=%23topstory"], "media-class": "newspaper", "media-subclass": "city-county", "facebook": "https://www.facebook.com/theworldnewspaper", "website": "http://theworldlink.com/", "city-county-lat": 43.357357, "city-county-name": "Coos Bay", "twitter": "http://www.twitter.com/TheWorldLink", "name": "World", "video": ""}, {"city-county-long": -123.2752, "open-search": [], "rss": ["http://www.gazettetimes.com/search/?f=rss&t=article&l=50&s=start_time&sd=desc&k[]=%23topstory"], "media-class": "newspaper", "media-subclass": "city-county", "facebook": "https://www.facebook.com/gtnews", "website": "http://www.gazettetimes.com/", "city-county-lat": 44.608694, "city-county-name": "Corvallis", "twitter": "http://www.twitter.com/gtnews", "name": "Corvallis Gazette Times", "video": ""}, {"city-county-long": -123.05667, "open-search": [], "rss": [], "media-class": "newspaper", "media-subclass": "city-county", "facebook": "https://www.facebook.com/pages/Cottage-Grove-Sentinel/277918985580804", "website": "http://www.cgsentinel.com/", "city-county-lat": 43.77182, "city-county-name": "Cottage Grove", "twitter": "http://www.twitter.com/CGSentinel", "name": "Cottage Grove Sentinel", "video": ""}, {"city-county-long": -123.33432, "open-search": [], "rss": ["/rss/headlines/"], "media-class": "newspaper", "media-subclass": "city-county", "facebook": "https://www.facebook.com/pages/Polk-County-Itemizer-Observer/205062686252209", "website": "http://www.polkio.com/", "city-county-lat": 44.920815, "city-county-name": "Dallas", "twitter": "http://www.twitter.com/PolkIONews", "name": "Polk County Itemizer-Observer", "video": ""}, {"city-county-long": -117.26823, "open-search": [], "rss": [], "media-class": "newspaper", "media-subclass": "city-county", "facebook": "https://www.facebook.com/Wallowa", "website": "http://wallowa.com/", "city-county-lat": 45.547098, "city-county-name": "Enterprise", "twitter": "http://www.twitter.com/wcchieftain", "name": "Wallowa County Chieftain", "video": "http://www.youtube.com/user/WallowaNews"}, {"city-county-long": -123.08275, "open-search": [], "rss": ["http://www.eugeneweekly.com/rss/articles/all"], "media-class": "newspaper", "media-subclass": "city-county", "facebook": "https://www.facebook.com/eugeneweekly", "website": "http://www.eugeneweekly.com/", "city-county-lat": 44.06092, "city-county-name": "Eugene", "twitter": "http://www.twitter.com/eugeneweekly", "name": "Eugene Weekly", "video": "http://www.youtube.com/user/eugeneweekly"}, {"city-county-long": -123.08275, "open-search": [], "rss": [], "media-class": "newspaper", "media-subclass": "city-county", "facebook": "https://www.facebook.com/registerguard", "website": "http://www.registerguard.com/", "city-county-lat": 44.06092, "city-county-name": "Eugene", "twitter": "http://www.twitter.com/registerguard", "name": "The Register-Guard", "video": "http://www.youtube.com/user/registerguard"}, {"city-county-long": -124.39036, "open-search": [], "rss": [], "media-class": "newspaper", "media-subclass": "city-county", "facebook": "", "website": "http://www.currycountyreporter.com/", "city-county-lat": 42.451203, "city-county-name": "Gold Beach", "twitter": "", "name": "Curry County Reporter", "video": ""}, {"city-county-long": -123.33749, "open-search": [], "rss": [], "media-class": "newspaper", "media-subclass": "city-county", "facebook": "https://www.facebook.com/pages/Grants-Pass-Daily-Courier/64393391305", "website": "http://www.thedailycourier.com/", "city-county-lat": 42.421567, "city-county-name": "Grants Pass", "twitter": "http://www.twitter.com/DailyCourier", "name": "Daily Courier", "video": "http://www.youtube.com/user/gpdailycourier"}, {"city-county-long": -122.4323, "open-search": [], "rss": ["http://feeds.feedburner.com/"], "media-class": "newspaper", "media-subclass": "city-county", "facebook": "https://www.facebook.com/pages/Gresham-Outlook-sports-page/301040080734", "website": "http://portlandtribune.com/gresham-outlook-news/", "city-county-lat": 45.507752, "city-county-name": "Gresham", "twitter": "http://www.twitter.com/gresham_outlook", "name": "Outlook", "video": ""}, {"city-county-long": -119.28423, "open-search": [], "rss": [], "media-class": "newspaper", "media-subclass": "city-county", "facebook": "https://www.facebook.com/HermistonHerald", "website": "http://www.hermistonherald.com/", "city-county-lat": 45.846442, "city-county-name": "Hermiston", "twitter": "http://www.twitter.com/HermistonHerald", "name": "Hermiston Herald", "video": "http://www.youtube.com/user/HermistonHerald"}, {"city-county-long": -122.928208, "open-search": [], "rss": [], "media-class": "newspaper", "media-subclass": "city-county", "facebook": "", "website": "http://www.oregonlive.com/argus/", "city-county-lat": 45.546914, "city-county-name": "Hillsboro", "twitter": "", "name": "Hillsboro Argus", "video": ""}, {"city-county-long": -121.5368, "open-search": [], "rss": ["/rss/headlines/"], "media-class": "newspaper", "media-subclass": "city-county", "facebook": "https://www.facebook.com/hoodrivernews", "website": "http://www.hoodrivernews.com/", "city-county-lat": 45.673147, "city-county-name": "Hood River", "twitter": "http://www.twitter.com/HoodRiverNews", "name": "Hood River News", "video": "http://www.youtube.com/user/hrnvideo"}, {"city-county-long": -118.95122, "open-search": [], "rss": [], "media-class": "newspaper", "media-subclass": "city-county", "facebook": "https://www.facebook.com/MyEagleNews", "website": "http://www.bluemountaineagle.com/", "city-county-lat": 44.408646, "city-county-name": "John Day", "twitter": "http://www.twitter.com/myeaglenews", "name": "Blue Mountain Eagle", "video": ""}, {"city-county-long": -122.457024, "open-search": [], "rss": ["http://keizertimes.com/feed/", "http://keizertimes.com/feed/atom/"], "media-class": "newspaper", "media-subclass": "city-county", "facebook": "https://www.facebook.com/Keizertimes", "website": "http://keizertimes.com/", "city-county-lat": 44.984465, "city-county-name": "Keizer", "twitter": "http://www.twitter.com/Keizertimes", "name": "Keizertimes", "video": "http://www.youtube.com/user/keizertimes"}, {"city-county-long": -121.88447, "open-search": [], "rss": ["http://www.heraldandnews.com/search/?f=rss&t=article&l=50&s=start_time&sd=desc&k[]=%23topstory"], "media-class": "newspaper", "media-subclass": "city-county", "facebook": "https://www.facebook.com/HandN", "website": "http://www.heraldandnews.com/", "city-county-lat": 42.282428, "city-county-name": "Klamath Falls", "twitter": "http://www.twitter.com/HeraldandNews", "name": "Herald and News", "video": "https://www.youtube.com/user/HeraldandNews"}, {"city-county-long": -118.08197, "open-search": ["http://statics.bendbulletin.com/opensearch.xml"], "rss": [], "media-class": "newspaper", "media-subclass": "city-county", "facebook": "https://www.facebook.com/pages/La-Grande-Observer/105392516175605", "website": "http://www.lagrandeobserver.com/", "city-county-lat": 45.32627, "city-county-name": "La Grande", "twitter": "http://www.twitter.com/lagrandenews", "name": "La Grande Observer", "video": "https://www.youtube.com/user/lagrandeobserver"}, {"city-county-long": -122.6811, "open-search": [], "rss": ["http://feeds.feedburner.com/"], "media-class": "newspaper", "media-subclass": "city-county", "facebook": "https://www.facebook.com/westlinntidings", "website": "http://portlandtribune.com/west-linn-tidings-news/", "city-county-lat": 45.40765, "city-county-name": "Lake Oswego", "twitter": "http://www.twitter.com/WestLinnTidings", "name": "West Linn Tidings", "video": ""}, {"city-county-long": -120.42459, "open-search": [], "rss": ["http://www.lakecountyexam.com/search/?f=rss&t=article&l=50&s=start_time&sd=desc&k[]=%23topstory"], "media-class": "newspaper", "media-subclass": "city-county", "facebook": "https://www.facebook.com/pages/Lake-County-Examiner/212834488746074", "website": "http://lakecountyexam.com/", "city-county-lat": 42.199446, "city-county-name": "Lakeview", "twitter": "", "name": "Lake County Examiner", "video": "http://www.youtube.com/user/LakeCountyExaminer"}, {"city-county-long": -122.85512, "open-search": [], "rss": ["http://lebanon-express.com/search/?f=rss&t=article&l=50&s=start_time&sd=desc&k[]=%23topstory"], "media-class": "newspaper", "media-subclass": "city-county", "facebook": "https://www.facebook.com/LebanonExpress", "website": "http://lebanon-express.com/", "city-county-lat": 44.527304, "city-county-name": "Lebanon", "twitter": "http://www.twitter.com/LebanonExpress", "name": "Lebanon Express", "video": "https://www.youtube.com/channel/UCUF5A7gqqFU1jznnTQINoEA"}, {"city-county-long": -124.00655, "open-search": [], "rss": ["http://www.thenewsguard.com/search/?f=rss&t=article&l=50&s=start_time&sd=desc&k[]=%23topstory"], "media-class": "newspaper", "media-subclass": "city-county", "facebook": "https://www.facebook.com/thenewsguard", "website": "http://www.thenewsguard.com/", "city-county-lat": 44.950573, "city-county-name": "Lincoln City", "twitter": "http://www.twitter.com/TheNewsGuard", "name": "News Guard", "video": "https://www.youtube.com/user/thenewsguard"}, {"city-county-long": -121.12506, "open-search": [], "rss": ["http://feeds.feedburner.com/"], "media-class": "newspaper", "media-subclass": "city-county", "facebook": "https://www.facebook.com/madras.pioneer", "website": "http://pamplinmedia.com/madras-pioneer-news/", "city-county-lat": 44.64079, "city-county-name": "Madras", "twitter": "", "name": "Madras Pioneer", "video": ""}, {"city-county-long": -123.93471, "open-search": [], "rss": ["http://www.northcoastcitizen.com/feed/", "http://www.northcoastcitizen.com/comments/feed/"], "media-class": "newspaper", "media-subclass": "city-county", "facebook": "https://www.facebook.com/northcoastcitizen", "website": "http://northcoastcitizen.com/", "city-county-lat": 45.720836, "city-county-name": "Manzanita", "twitter": "http://www.twitter.com/nccitizen", "name": "North Coast Citizen", "video": "http://www.youtube.com/channel/UCZtNyE2oP-5meINheUbWNDg"}, {"city-county-long": -122.1639, "open-search": [], "rss": ["http://mckenzieriverreflectionsnewspaper.com/articles.xml"], "media-class": "newspaper", "media-subclass": "city-county", "facebook": "https://www.facebook.com/McKenzieRiverReflections", "website": "http://mckenzieriverreflectionsnewspaper.com/", "city-county-lat": 44.1751, "city-county-name": "McKenzie Bridge", "twitter": "http://www.twitter.com/McKReflections", "name": "River Reflections", "video": "https://www.youtube.com/channel/UCvhHSpm4VMSQYrwNIPbIcWA"}, {"city-county-long": -123.1987, "open-search": [], "rss": ["./index.php?rss=Article,1latest-sports", "./index.php?rss=Article,viewpoints", "./index.php?rss=Article,z-sports-oregon", "./index.php?rss=Article,jimwalker", "./index.php?rss=Article,z-sports-community", "./index.php?rss=Article,special-section", "./index.php?rss=Article,internal", "./index.php?rss=Article,sports", "./index.php?rss=Article,yamhill-carlton", "./index.php?rss=Product,The Poster Site", "./index.php?rss=Article,editorials", "./index.php?rss=Article,z-more community", "./index.php?rss=Product,online-subscribe", "./index.php?rss=Event,3-Premium", "./index.php?rss=Article,State/Region", "./index.php?rss=Article,z-McMinnville Attorneys", "./index.php?rss=Article,Women's Healthcare", "./index.php?rss=Article,AP-Sports", "./index.php?rss=Article,zz-all-news-home", "./index.php?rss=Article,reviews", "./index.php?rss=Article,U.S./World", "./index.php?rss=Product", "./index.php?rss=Article", "./index.php?rss=Product,kiosk", "./index.php?rss=Event,1-Free", "./index.php?rss=Product,gift-subscriptions", "./index.php?rss=Article,commentary", "./index.php?rss=Article,mcminnville", "./index.php?rss=Event,2-Basic", "./index.php?rss=Article,bladine", "./index.php?rss=Article,dayton", "./index.php?rss=Article,news", "./index.php?rss=Article,z-cat-special-sections", "./index.php?rss=Event", "./index.php?rss=Article,newsregister", "./index.php?rss=Article,reprints", "./index.php?rss=Article,support", "./index.php?rss=Article,z-chadwick", "./index.php?rss=Article,rohse", "./index.php?rss=Article,west-valley", "./index.php?rss=Article,pointer", "./index.php?rss=Product,half-crazy-deals", "./index.php?rss=Article,montesano", "./index.php?rss=Product,give-a-little-foundation", "./index.php?rss=Product,News-Register Subscriptions", "./index.php?rss=Article,amity", "./index.php?rss=Article,Community", "./index.php?rss=Article,finnjohn", "./index.php?rss=Article,columnistS", "./index.php?rss=Article,breaking-news", "./index.php?rss=Product,Posters", "./index.php?rss=Product,christmas", "./index.php?rss=Product,out-of-county-subscribe", "./index.php?rss=Article,subscriber", "./index.php?rss=Product,in-county-subscribe", "./index.php?rss=Article,hall of fame", "./index.php?rss=Article,z-carl-dubois", "./index.php?rss=Article,z-Elections-2014", "./index.php?rss=Article,organizations", "./index.php?rss=Article,henderson", "./index.php?rss=Article,dundee-newberg", "./index.php?rss=Article,garage-sales", "./index.php?rss=Article,karlklooster", "./index.php?rss=Article,nancycarlson", "./index.php?rss=Article,z-OPB", "./index.php?rss=Article,lafayette", "./index.php?rss=Article,letters", "./index.php?rss=Article,z-empty - don't use", "./index.php?rss=Article,news-register-staff", "./index.php?rss=Article,z-opinions", "./index.php?rss=Article,miller-savvy-senior", "./index.php?rss=Article,1home-news", "./index.php?rss=Article,yamhillvalley"], "media-class": "newspaper", "media-subclass": "city-county", "facebook": "https://www.facebook.com/newsregister", "website": "http://www.newsregister.com/", "city-county-lat": 45.2101, "city-county-name": "McMinnville", "twitter": "http://www.twitter.com/newsregister", "name": "News-Register", "video": "http://www.youtube.com/user/MacNewsRegister"}, {"city-county-long": -122.87944, "open-search": [], "rss": [], "media-class": "newspaper", "media-subclass": "city-county", "facebook": "https://www.facebook.com/mailtribune", "website": "http://www.mailtribune.com/", "city-county-lat": 42.313498, "city-county-name": "Medford", "twitter": "http://www.twitter.com/mailtribune", "name": "Mail Tribune", "video": "http://www.youtube.com/user/MailTribunenews"}, {"city-county-long": -122.56555, "open-search": [], "rss": ["http://feeds.feedburner.com/"], "media-class": "newspaper", "media-subclass": "city-county", "facebook": "https://www.facebook.com/molallapioneer", "website": "http://www.pamplinmedia.com/molalla-pioneer-news", "city-county-lat": 45.10799, "city-county-name": "Molalla", "twitter": "", "name": "Molalla Pioneer", "video": "http://www.youtube.com/user/MolallaPioneer"}, {"city-county-long": -122.972, "open-search": [], "rss": ["http://feeds.feedburner.com/"], "media-class": "newspaper", "media-subclass": "city-county", "facebook": "https://www.facebook.com/newberggraphic", "website": "http://www.pamplinmedia.com/newberg-graphic-news", "city-county-lat": 45.310304, "city-county-name": "Newberg", "twitter": "http://www.twitter.com/newberggraphic", "name": "Newberg Graphic", "video": ""}, {"city-county-long": -124.05039, "open-search": [], "rss": [], "media-class": "newspaper", "media-subclass": "city-county", "facebook": "https://www.facebook.com/newportnewstimes", "website": "http://www.newportnewstimes.com/", "city-county-lat": 44.649252, "city-county-name": "Newport", "twitter": "", "name": "News Times", "video": ""}, {"city-county-long": -116.99148, "open-search": [], "rss": ["http://www.argusobserver.com/search/?f=rss&t=article&l=50&s=start_time&sd=desc&k[]=%23topstory"], "media-class": "newspaper", "media-subclass": "city-county", "facebook": "https://www.facebook.com/ArgusObserver", "website": "http://www.argusobserver.com/", "city-county-lat": 44.057074, "city-county-name": "Ontario", "twitter": "http://www.twitter.com/argusobserver", "name": "Argus Observer", "video": "http://www.youtube.com/user/argusobserver"}, {"city-county-long": -123.95999, "open-search": [], "rss": [], "media-class": "newspaper", "media-subclass": "city-county", "facebook": "https://www.facebook.com/pacificcitysun", "website": "http://pacificcitysun.com/", "city-county-lat": 45.201302, "city-county-name": "Pacific City", "twitter": "", "name": "Pacific City Sun", "video": ""}, {"city-county-long": -118.789, "open-search": [], "rss": [], "media-class": "newspaper", "media-subclass": "city-county", "facebook": "https://www.facebook.com/EastOregonian", "website": "http://www.eastoregonian.com/", "city-county-lat": 45.665146, "city-county-name": "Pendleton", "twitter": "http://www.twitter.com/EastOregonian", "name": "East Oregonian", "video": "http://www.youtube.com/user/EastOregonian"}, {"city-county-long": -122.68781, "open-search": [], "rss": [], "media-class": "newspaper", "media-subclass": "city-county", "facebook": "https://www.facebook.com/pages/The-Asian-Reporter/151059854934104", "website": "http://www.asianreporter.com/", "city-county-lat": 45.49894, "city-county-name": "Portland", "twitter": "", "name": "Asian Reporter", "video": ""}, {"city-county-long": -122.68781, "open-search": [], "rss": ["http://midcountymemo.com/comments/feed/", "http://midcountymemo.com/feed/"], "media-class": "newspaper", "media-subclass": "city-county", "facebook": "https://www.facebook.com/midcountymemo", "website": "http://www.midcountymemo.com/", "city-county-lat": 45.49894, "city-county-name": "Portland", "twitter": "http://www.twitter.com/MidcountyMemo", "name": "Mid-County Memo", "video": "https://www.youtube.com/user/midcountymemopdx/videos"}, {"city-county-long": -122.68781, "open-search": [], "rss": [], "media-class": "newspaper", "media-subclass": "city-county", "facebook": "", "website": "http://www.oregonherald.com/", "city-county-lat": 45.49894, "city-county-name": "Portland", "twitter": "", "name": "Oregon Herald", "video": ""}, {"city-county-long": -122.68781, "open-search": [], "rss": [], "media-class": "newspaper", "media-subclass": "city-county", "facebook": "https://www.facebook.com/theoregonian", "website": "http://www.oregonlive.com/", "city-county-lat": 45.49894, "city-county-name": "Portland", "twitter": "http://www.twitter.com/oregonian", "name": "Oregonian", "video": "http://www.youtube.com/user/oregoniannews"}, {"city-county-long": -122.68781, "open-search": [], "rss": [], "media-class": "newspaper", "media-subclass": "city-county", "facebook": "https://www.facebook.com/PortlandBizJournal", "website": "http://www.bizjournals.com/portland/", "city-county-lat": 45.49894, "city-county-name": "Portland", "twitter": "http://www.twitter.com/pdxbizjournal", "name": "Portland Business Journal", "video": "http://www.youtube.com/user/PDXBizJournal"}, {"city-county-long": -122.68781, "open-search": [], "rss": ["/portland/Rss.xml"], "media-class": "newspaper", "media-subclass": "city-county", "facebook": "https://www.facebook.com/portlandmercury", "website": "http://www.portlandmercury.com/", "city-county-lat": 45.49894, "city-county-name": "Portland", "twitter": "http://www.twitter.com/portlandmercury", "name": "Portland Mercury", "video": "https://www.youtube.com/channel/UCsjyazB0t70DnDyGyjPqxSw"}, {"city-county-long": -122.68781, "open-search": [], "rss": [], "media-class": "newspaper", "media-subclass": "city-county", "facebook": "", "website": "http://portlandobserver.com/", "city-county-lat": 45.49894, "city-county-name": "Portland", "twitter": "http://www.twitter.com/pdxobserver", "name": "Portland Observer", "video": ""}, {"city-county-long": -122.68781, "open-search": [], "rss": ["http://feeds.feedburner.com/"], "media-class": "newspaper", "media-subclass": "city-county", "facebook": "https://www.facebook.com/pages/Portland-Tribune/89942648552", "website": "http://portlandtribune.com/", "city-county-lat": 45.49894, "city-county-name": "Portland", "twitter": "http://www.twitter.com/ThePortlandTrib", "name": "Portland Tribune", "video": ""}, {"city-county-long": -122.68781, "open-search": [], "rss": ["/?format=feed&type=rss", "/?format=feed&type=atom"], "media-class": "newspaper", "media-subclass": "city-county", "facebook": "https://www.facebook.com/pages/The-Skanner-News-Group/176585345334", "website": "http://www.theskanner.com/", "city-county-lat": 45.49894, "city-county-name": "Portland", "twitter": "http://www.twitter.com/TheSkannerNews", "name": "Skanner", "video": "http://www.youtube.com/user/TheSkannerNews"}, {"city-county-long": -122.68781, "open-search": [], "rss": [], "media-class": "newspaper", "media-subclass": "city-county", "facebook": "https://www.facebook.com/wweek", "website": "http://www.wweek.com/", "city-county-lat": 45.49894, "city-county-name": "Portland", "twitter": "http://www.twitter.com/wweek", "name": "Willamette Week", "video": "https://www.youtube.com/channel/UCJc6b2Bf2olt5_XfQpZ5GJA"}, {"city-county-long": -120.75682, "open-search": [], "rss": ["http://feeds.feedburner.com/"], "media-class": "newspaper", "media-subclass": "city-county", "facebook": "https://www.facebook.com/centraloregonian", "website": "http://www.pamplinmedia.com/central-oregonian-news", "city-county-lat": 44.238306, "city-county-name": "Prineville", "twitter": "", "name": "Central Oregonian", "video": ""}, {"city-county-long": -123.1515, "open-search": [], "rss": [], "media-class": "newspaper", "media-subclass": "city-county", "facebook": "https://www.facebook.com/RRPress", "website": "http://www.rogueriverpress.com/", "city-county-lat": 42.528269, "city-county-name": "Rogue River", "twitter": "", "name": "Rogue River Press", "video": ""}, {"city-county-long": -123.35138, "open-search": [], "rss": ["http://www.nrtoday.com/search/?f=rss&t=article&l=50&s=start_time&sd=desc&k[]=%23topstory"], "media-class": "newspaper", "media-subclass": "city-county", "facebook": "https://www.facebook.com/thenewsreview", "website": "http://www.nrtoday.com/", "city-county-lat": 43.227287, "city-county-name": "Roseburg", "twitter": "http://www.twitter.com/nrtoday", "name": "News-Review", "video": ""}, {"city-county-long": -122.84824, "open-search": [], "rss": ["http://www.thechronicleonline.com/search/?f=rss&t=article&l=50&s=start_time&sd=desc&k[]=%23topstory"], "media-class": "newspaper", "media-subclass": "city-county", "facebook": "https://www.facebook.com/sthelenschronicle", "website": "http://www.thechronicleonline.com/", "city-county-lat": 45.862489, "city-county-name": "Saint Helens", "twitter": "http://www.twitter.com/SHChronicle", "name": "St. Helens Chronicle", "video": ""}, {"city-county-long": -122.98694, "open-search": [], "rss": [], "media-class": "newspaper", "media-subclass": "city-county", "facebook": "https://www.facebook.com/capitalpress", "website": "http://www.capitalpress.com/", "city-county-lat": 44.926644, "city-county-name": "Salem", "twitter": "http://www.twitter.com/capitalpress", "name": "Capital Press Agriculture Weekly", "video": "http://www.youtube.com/user/capitalpressvideo"}, {"city-county-long": -122.98694, "open-search": [], "rss": ["/rss/rss.xml"], "media-class": "newspaper", "media-subclass": "city-county", "facebook": "", "website": "http://salem-news.com/", "city-county-lat": 44.926644, "city-county-name": "Salem", "twitter": "http://www.twitter.com/oregonnews", "name": "Salem News", "video": ""}, {"city-county-long": -122.98694, "open-search": [], "rss": ["http://salemweeklynews.com/comments/feed/", "http://salemweeklynews.com/feed/"], "media-class": "newspaper", "media-subclass": "city-county", "facebook": "https://www.facebook.com/salem.weekly", "website": "http://www.willamettelive.com/", "city-county-lat": 44.926644, "city-county-name": "Salem", "twitter": "http://www.twitter.com/salemweekly", "name": "Salem Weekly", "video": "https://www.youtube.com/user/Salempapernews"}, {"city-county-long": -122.98694, "open-search": [], "rss": [], "media-class": "newspaper", "media-subclass": "city-county", "facebook": "https://www.facebook.com/statesmanjournal", "website": "http://www.statesmanjournal.com/", "city-county-lat": 44.926644, "city-county-name": "Salem", "twitter": "http://www.twitter.com/Salem_Statesman", "name": "Statesman Journal", "video": "http://www.youtube.com/user/StatesmanJournalCom"}, {"city-county-long": -122.92065, "open-search": [], "rss": ["http://feeds.feedburner.com/"], "media-class": "newspaper", "media-subclass": "city-county", "facebook": "https://www.facebook.com/SouthCountySpotlight", "website": "http://portlandtribune.com/south-county-spotlight-news/", "city-county-lat": 45.778892, "city-county-name": "Scappoose", "twitter": "", "name": "South County Spotlight", "video": ""}, {"city-county-long": -123.81524, "open-search": [], "rss": [], "media-class": "newspaper", "media-subclass": "city-county", "facebook": "https://www.facebook.com/seasidesignal", "website": "http://www.dailyastorian.com/signal", "city-county-lat": 45.926112, "city-county-name": "Seaside", "twitter": "http://www.twitter.com/SeasideSignal", "name": "Seaside Signal", "video": "http://www.youtube.com/user/TheSeasideSignal"}, {"city-county-long": -122.78012, "open-search": [], "rss": [], "media-class": "newspaper", "media-subclass": "city-county", "facebook": "https://www.facebook.com/SilvertonAppealTribune", "website": "http://www.statesmanjournal.com/news/silverton/", "city-county-lat": 45.003489, "city-county-name": "Silverton", "twitter": "", "name": "Appeal Tribune", "video": ""}, {"city-county-long": -121.54897, "open-search": [], "rss": [], "media-class": "newspaper", "media-subclass": "city-county", "facebook": "https://www.facebook.com/NuggetNews", "website": "http://www.nuggetnews.com/", "city-county-lat": 44.322689, "city-county-name": "Sisters", "twitter": "http://www.twitter.com/Nuggetnewspaper", "name": "Nugget Newspaper", "video": "https://www.youtube.com/user/sistersnuggetnews"}, {"city-county-long": -122.7601, "open-search": [], "rss": [], "media-class": "newspaper", "media-subclass": "city-county", "facebook": "https://www.facebook.com/StaytonMail", "website": "http://www.statesmanjournal.com/news/stayton/", "city-county-lat": 44.798379, "city-county-name": "Stayton", "twitter": "", "name": "Stayton Mail", "video": ""}, {"city-county-long": -122.72856, "open-search": [], "rss": ["http://sweethomenews.com/clients/sweethomenews/headlines.rss"], "media-class": "newspaper", "media-subclass": "city-county", "facebook": "https://www.facebook.com/sweethomenews", "website": "http://sweethomenews.com/", "city-county-lat": 44.391863, "city-county-name": "Sweet Home", "twitter": "", "name": "New Era", "video": ""}, {"city-county-long": -121.18944, "open-search": [], "rss": ["/rss/headlines/"], "media-class": "newspaper", "media-subclass": "city-county", "facebook": "https://www.facebook.com/TheDallesChronicle", "website": "http://www.thedalleschronicle.com/", "city-county-lat": 45.594257, "city-county-name": "The Dalles", "twitter": "http://www.twitter.com/tdchronicle", "name": "Dalles Chronicle", "video": ""}, {"city-county-long": -123.80389, "open-search": [], "rss": ["http://www.tillamookheadlightherald.com/search/?f=rss&t=article&l=50&s=start_time&sd=desc&k[]=%23topstory"], "media-class": "newspaper", "media-subclass": "city-county", "facebook": "https://www.facebook.com/tillamookheadlightherald", "website": "http://www.tillamookheadlightherald.com/", "city-county-lat": 45.459109, "city-county-name": "Tillamook", "twitter": "http://www.twitter.com/headlightherald", "name": "Headlight-Herald", "video": "http://www.youtube.com/user/TheHeadlightHerald"}, {"city-county-long": -122.77266, "open-search": [], "rss": ["http://feeds.feedburner.com/"], "media-class": "newspaper", "media-subclass": "city-county", "facebook": "https://www.facebook.com/wilsonvillespokesman", "website": "http://www.pamplinmedia.com/wilsonville-spokesman-news", "city-county-lat": 45.308105, "city-county-name": "Wilsonville", "twitter": "http://www.twitter.com/wspokesman", "name": "Wilsonville Spokesman", "video": "http://www.youtube.com/user/wspokesman"}, {"city-county-long": -122.84521, "open-search": [], "rss": ["http://feeds.feedburner.com/"], "media-class": "newspaper", "media-subclass": "city-county", "facebook": "https://www.facebook.com/WoodburnIndependent", "website": "http://www.pamplinmedia.com/woodburn-independent-news", "city-county-lat": 45.144415, "city-county-name": "Woodburn", "twitter": "http://www.twitter.com/WBIndependent", "name": "Woodburn Independent", "video": "http://www.youtube.com/user/woodburnindependent"}, {"city-county-long": -122.9705, "open-search": [], "rss": [], "media-class": "newspaper", "media-subclass": "college", "facebook": "https://www.facebook.com/thecrescent.georgefox", "website": "http://www.gfucrescent.com/", "city-county-lat": 45.3028, "city-county-name": "George Fox University", "twitter": "http://www.twitter.com/gfucrescent", "name": "The Crescent", "video": ""}, {"city-county-long": -122.6774, "open-search": [], "rss": ["http://www.piolog.com/feed/", "http://www.piolog.com/comments/feed/"], "media-class": "newspaper", "media-subclass": "college", "facebook": "http://www.facebook.com/pages/The-Pioneer-Log/497419460570", "website": "http://www.piolog.com/", "city-county-lat": 45.4524, "city-county-name": "Lewis and Clark", "twitter": "http://www.twitter.com/ThePioneerLog", "name": "The Pioneer Log", "video": ""}, {"city-county-long": -123.1992, "open-search": [], "rss": ["http://thelinfieldreview.com/feed/", "http://thelinfieldreview.com/feed/atom/"], "media-class": "newspaper", "media-subclass": "college", "facebook": "http://www.facebook.com/linfieldreview", "website": "http://www.linfield.edu/linfield-review/", "city-county-lat": 45.2006, "city-county-name": "Linfield College", "twitter": "http://www.twitter.com/linfieldreview", "name": "Linfield Review", "video": "http://www.youtube.com/user/TheLinfieldReview"}, {"city-county-long": -123.1136, "open-search": [], "rss": [], "media-class": "newspaper", "media-subclass": "college", "facebook": "https://www.facebook.com/LBCCTheCommuter", "website": "http://commuter.linnbenton.edu/", "city-county-lat": 44.5881, "city-county-name": "Linn Benton Community", "twitter": "http://www.twitter.com/LBCommuter", "name": "The Commuter", "video": ""}, {"city-county-long": -122.3962, "open-search": [], "rss": ["http://www.advocate-online.net/comments/feed/", "http://www.advocate-online.net/feed/", "http://www.advocate-online.net/homepage/feed/"], "media-class": "newspaper", "media-subclass": "college", "facebook": "http://www.facebook.com/TheAdvocateOnline", "website": "http://www.advocate-online.net/", "city-county-lat": 45.5165, "city-county-name": "Mt. Hood Community College", "twitter": "http://www.twitter.com/mhccadvocate", "name": "The Advocate", "video": "http://www.youtube.com/user/MHCCAdvocate"}, {"city-county-long": -123.2794, "open-search": ["http://www.orangemedianetwork.com/search/opensearch/generic.xml"], "rss": [], "media-class": "newspaper", "media-subclass": "college", "facebook": "http://www.facebook.com/DailyBarometer", "website": "http://www.dailybarometer.com/", "city-county-lat": 44.5638, "city-county-name": "Oregon State", "twitter": "http://www.twitter.com/baronews", "name": "Daily Barometer", "video": ""}, {"city-county-long": -122.6836, "open-search": [], "rss": ["//psuvanguard.com/comments/feed/", "//psuvanguard.com/feed/"], "media-class": "newspaper", "media-subclass": "college", "facebook": "http://www.facebook.com/portlandstatevanguard", "website": "http://psuvanguard.com/", "city-county-lat": 45.5113, "city-county-name": "Portland State", "twitter": "http://www.twitter.com/psuvanguard", "name": "Daily Vanguard", "video": "http://www.youtube.com/user/vanguardonline"}, {"city-county-long": -123.3929, "open-search": [], "rss": [], "media-class": "newspaper", "media-subclass": "college", "facebook": "http://www.facebook.com/roguebyline", "website": "http://roguebyline.com/", "city-county-lat": 42.4131, "city-county-name": "Rogue Community", "twitter": "http://www.twitter.com/roguebyline", "name": "The Byline", "video": "http://www.youtube.com/user/RogueByline"}, {"city-county-long": -123.0726, "open-search": [], "rss": ["http://www.dailyemerald.com/comments/feed/", "http://www.dailyemerald.com/feed/"], "media-class": "newspaper", "media-subclass": "college", "facebook": "http://www.facebook.com/dailyemerald", "website": "http://dailyemerald.com/", "city-county-lat": 44.0448, "city-county-name": "Univ of Oregon", "twitter": "http://www.twitter.com/DailyEmerald", "name": "Oregon Daily Emerald", "video": "http://www.youtube.com/user/dailyemerald"}, {"city-county-long": -123.2401, "open-search": [], "rss": [], "media-class": "newspaper", "media-subclass": "college", "facebook": "http://www.facebook.com/woujournal", "website": "http://www.westernoregonjournal.com/", "city-county-lat": 44.8508, "city-county-name": "Western Oregon Univ", "twitter": "", "name": "Journal", "video": ""}, {"city-county-long": -123.0318, "open-search": [], "rss": [], "media-class": "newspaper", "media-subclass": "college", "facebook": "http://www.facebook.com/pages/Willamette-Collegian/162751513777063", "website": "http://www.willamettecollegian.com/", "city-county-lat": 44.9371, "city-county-name": "Willamette University", "twitter": "http://www.twitter.com/WUCollegian", "name": "Collegian", "video": ""}], "radio": [{"city-county-long": -123.08275, "open-search": [], "rss": ["http://klcc.org/rss.xml"], "media-class": "radio", "media-subclass": "Variety", "facebook": "https://www.facebook.com/KLCCEugeneOR", "website": "http://klcc.org/", "city-county-lat": 44.06092, "city-county-name": "Eugene", "twitter": "http://www.twitter.com/KLCCEugeneOR", "name": "KLCC 89.7 FM", "video": ""}, {"city-county-long": -123.08275, "open-search": [], "rss": ["http://krvm.org/home/feed/", "http://krvm.org/feed/", "http://krvm.org/comments/feed/"], "media-class": "radio", "media-subclass": "Variety", "facebook": "https://www.facebook.com/pages/KRVM-919-FM-Public-Radio-in-Eugene-OR-USA/49985567581", "website": "http://www.krvm.org/", "city-county-lat": 44.06092, "city-county-name": "Eugene", "twitter": "", "name": "KRVM 89.7 FM", "video": ""}, {"city-county-long": -123.08275, "open-search": [], "rss": [], "media-class": "radio", "media-subclass": "Variety", "facebook": "", "website": "http://www.kwax.com/", "city-county-lat": 44.06092, "city-county-name": "Eugene", "twitter": "", "name": "KWAX 89.7 FM", "video": ""}, {"city-county-long": -121.88447, "open-search": [], "rss": ["http://www.mybasin.com/feed/", "http://www.mybasin.com/comments/feed/", "http://www.mybasin.com/home/feed/"], "media-class": "radio", "media-subclass": "News and Weather", "facebook": "https://www.facebook.com/KLADFM", "website": "http://www.mybasin.com/", "city-county-lat": 42.282428, "city-county-name": "Klamath Falls", "twitter": "", "name": "KLAD 92.5 FM", "video": ""}, {"city-county-long": -122.87944, "open-search": [], "rss": [], "media-class": "radio", "media-subclass": "Christian", "facebook": "", "website": "http://www.kaplradio.org/", "city-county-lat": 42.313498, "city-county-name": "Medford", "twitter": "", "name": "KAPL 1300 AM", "video": ""}, {"city-county-long": -122.68781, "open-search": [], "rss": [], "media-class": "radio", "media-subclass": "Business", "facebook": "", "website": "http://www.kbnp.com/", "city-county-lat": 45.49894, "city-county-name": "Portland", "twitter": "", "name": "KBNP 1410 AM", "video": ""}, {"city-county-long": -122.68781, "open-search": [], "rss": [], "media-class": "radio", "media-subclass": "Business", "facebook": "https://www.facebook.com/kbooradio", "website": "http://www.kboo.fm/", "city-county-lat": 45.49894, "city-county-name": "Portland", "twitter": "http://www.twitter.com/KBOO", "name": "KBOO 1410 AM", "video": "http://www.youtube.com/user/KBOOradio"}, {"city-county-long": -122.68781, "open-search": [], "rss": [], "media-class": "radio", "media-subclass": "Business", "facebook": "https://www.facebook.com/newsradio1190kex", "website": "http://www.1190kex.com/", "city-county-lat": 45.49894, "city-county-name": "Portland", "twitter": "http://www.twitter.com/1190KEX", "name": "KEX 1410 AM", "video": "http://www.youtube.com/user/NewsRadio1190KEX"}, {"city-county-long": -122.68781, "open-search": [], "rss": [], "media-class": "radio", "media-subclass": "Business", "facebook": "https://www.facebook.com/1041thefish", "website": "http://www.1041thefish.com/", "city-county-lat": 45.49894, "city-county-name": "Portland", "twitter": "http://www.twitter.com/1041thefish", "name": "KFIS 1410 AM", "video": "http://www.youtube.com/user/1041thefish"}, {"city-county-long": -122.68781, "open-search": [], "rss": [], "media-class": "radio", "media-subclass": "Business", "facebook": "https://www.facebook.com/92.3KGONPortland", "website": "http://www.kgon.com/", "city-county-lat": 45.49894, "city-county-name": "Portland", "twitter": "http://www.twitter.com/kgon", "name": "KGON 1410 AM", "video": ""}, {"city-county-long": -122.68781, "open-search": [], "rss": ["http://www.kink.fm/comments/feed/", "http://www.kink.fm/feed/"], "media-class": "radio", "media-subclass": "Business", "facebook": "https://www.facebook.com/KINK", "website": "http://kink.fm/", "city-county-lat": 45.49894, "city-county-name": "Portland", "twitter": "http://www.twitter.com/kinkradio", "name": "KINK 1410 AM", "video": "http://www.youtube.com/kinkradio"}, {"city-county-long": -122.68781, "open-search": [], "rss": [], "media-class": "radio", "media-subclass": "Business", "facebook": "", "website": "http://www.k103.com/ ", "city-county-lat": 45.49894, "city-county-name": "Portland", "twitter": "http://www.twitter.com/k103portland", "name": "KKCW 1410 AM", "video": ""}, {"city-county-long": -122.68781, "open-search": [], "rss": [], "media-class": "radio", "media-subclass": "Business", "facebook": "", "website": "http://www.sunny1550.com/", "city-county-lat": 45.49894, "city-county-name": "Portland", "twitter": "", "name": "KKOV 1410 AM", "video": ""}, {"city-county-long": -122.68781, "open-search": [], "rss": [], "media-class": "radio", "media-subclass": "Business", "facebook": "https://www.facebook.com/Z100Portland", "website": "http://www.z100portland.com/", "city-county-lat": 45.49894, "city-county-name": "Portland", "twitter": "http://www.twitter.com/Z100Portland", "name": "KKRZ 1410 AM", "video": "http://www.youtube.com/z100pdx/"}, {"city-county-long": -122.68781, "open-search": [], "rss": [], "media-class": "radio", "media-subclass": "Business", "facebook": "https://www.facebook.com/oldies1067", "website": "http://www.portlandoldies.com/", "city-county-lat": 45.49894, "city-county-name": "Portland", "twitter": "http://www.twitter.com/Oldies1067", "name": "KLTH 1410 AM", "video": ""}, {"city-county-long": -122.68781, "open-search": [], "rss": [], "media-class": "radio", "media-subclass": "Business", "facebook": "https://www.facebook.com/KMHDjazz", "website": "http://www.opb.org/kmhd/", "city-county-lat": 45.49894, "city-county-name": "Portland", "twitter": "http://www.twitter.com/kmhd_jazz_radio", "name": "KMHD 1410 AM", "video": ""}, {"city-county-long": -122.68781, "open-search": [], "rss": [], "media-class": "radio", "media-subclass": "Business", "facebook": "https://www.facebook.com/1080TheFAN", "website": "http://www.1080thefan.com/", "city-county-lat": 45.49894, "city-county-name": "Portland", "twitter": "http://www.twitter.com/1080TheFAN", "name": "KMTT 1410 AM", "video": ""}, {"city-county-long": -122.68781, "open-search": [], "rss": [], "media-class": "radio", "media-subclass": "Business", "facebook": "https://www.facebook.com/947fm", "website": "http://www.947.fm/", "city-county-lat": 45.49894, "city-county-name": "Portland", "twitter": "http://www.twitter.com/947fm", "name": "KNRK 1410 AM", "video": ""}, {"city-county-long": -122.68781, "open-search": [], "rss": [], "media-class": "radio", "media-subclass": "Business", "facebook": "https://www.facebook.com/oregonpublicbroadcasting", "website": "http://www.opb.org/", "city-county-lat": 45.49894, "city-county-name": "Portland", "twitter": "http://www.twitter.com/OPB", "name": "KOPB 1410 AM", "video": "http://www.youtube.com/user/OPBWeb"}, {"city-county-long": -122.68781, "open-search": [], "rss": [], "media-class": "radio", "media-subclass": "Business", "facebook": "https://www.facebook.com/AM860", "website": "http://www.kpam.com/", "city-county-lat": 45.49894, "city-county-name": "Portland", "twitter": "http://www.twitter.com/kpam860", "name": "KPAM 1410 AM", "video": "http://www.youtube.com/user/am860kpam"}, {"city-county-long": -122.68781, "open-search": [], "rss": [], "media-class": "radio", "media-subclass": "Business", "facebook": "https://www.facebook.com/kpojmornings", "website": "http://www.foxsportsradio620.com/", "city-county-lat": 45.49894, "city-county-name": "Portland", "twitter": "http://www.twitter.com/FoxSportsPDX", "name": "KPOJ 1410 AM", "video": "http://www.youtube.com/user/620kpoj"}, {"city-county-long": -122.68781, "open-search": [], "rss": ["http://www.allclassical.org/feed/", "http://www.allclassical.org/comments/feed/"], "media-class": "radio", "media-subclass": "Business", "facebook": "https://www.facebook.com/AllClassicalPortland", "website": "http://www.allclassical.org/", "city-county-lat": 45.49894, "city-county-name": "Portland", "twitter": "http://www.twitter.com/AllClassicalFM", "name": "KQAC 1410 AM", "video": "http://www.youtube.com/user/allclassical899"}, {"city-county-long": -122.68781, "open-search": [], "rss": [], "media-class": "radio", "media-subclass": "Business", "facebook": "https://www.facebook.com/105.1TheBuzz", "website": "http://www.1051thebuzz.com/", "city-county-lat": 45.49894, "city-county-name": "Portland", "twitter": "", "name": "KRSK 1410 AM", "video": ""}, {"city-county-long": -122.68781, "open-search": [], "rss": ["http://www.987thebull.com/comments/feed/", "http://www.987thebull.com/feed/"], "media-class": "radio", "media-subclass": "Business", "facebook": "https://www.facebook.com/987TheBull", "website": "http://www.987thebull.com/", "city-county-lat": 45.49894, "city-county-name": "Portland", "twitter": "http://www.twitter.com/987thebull", "name": "KUPL 1410 AM", "video": "http://www.youtube.com/user/987TheBull"}, {"city-county-long": -122.68781, "open-search": [], "rss": [], "media-class": "radio", "media-subclass": "Business", "facebook": "https://www.facebook.com/wolfportland", "website": "http://www.thewolfonline.com/", "city-county-lat": 45.49894, "city-county-name": "Portland", "twitter": "http://www.twitter.com/995thewolf", "name": "KWJJ 1410 AM", "video": ""}, {"city-county-long": -122.68781, "open-search": [], "rss": ["http://www.750thegame.com/comments/feed/", "http://www.750thegame.com/feed/"], "media-class": "radio", "media-subclass": "Business", "facebook": "https://www.facebook.com/750TheGame", "website": "http://750thegame.com/", "city-county-lat": 45.49894, "city-county-name": "Portland", "twitter": "http://www.twitter.com/750TheGame", "name": "KXTG 1410 AM", "video": "http://www.youtube.com/user/750TheGame"}, {"city-county-long": -122.68781, "open-search": [], "rss": [], "media-class": "radio", "media-subclass": "Business", "facebook": "https://www.facebook.com/MyCharliePortland", "website": "http://www.charliefm.com/", "city-county-lat": 45.49894, "city-county-name": "Portland", "twitter": "http://www.twitter.com/971CharlieFM", "name": "KYCH 1410 AM", "video": ""}, {"city-county-long": -123.35138, "open-search": [], "rss": [], "media-class": "radio", "media-subclass": "News Talk", "facebook": "https://www.facebook.com/541Radio", "website": "http://www.541radio.com/", "city-county-lat": 43.227287, "city-county-name": "Roseburg", "twitter": "http://www.twitter.com/541RadioCom", "name": "KQEN 1240 AM", "video": ""}, {"city-county-long": -122.98694, "open-search": [], "rss": [], "media-class": "radio", "media-subclass": "Oldies", "facebook": "http://www.facebook.com/pages/KBZY-Fan-Page/83199415207", "website": "http://www.kbzy.com/", "city-county-lat": 44.926644, "city-county-name": "Salem", "twitter": "", "name": "KBZY 1490 AM", "video": ""}, {"city-county-long": -122.98694, "open-search": [], "rss": [], "media-class": "radio", "media-subclass": "Oldies", "facebook": "https://www.facebook.com/1430KYKN", "website": "http://www.kykn.com/", "city-county-lat": 44.926644, "city-county-name": "Salem", "twitter": "http://www.twitter.com/1430KYKN", "name": "KYKN 1490 AM", "video": ""}], "state-name": "Oregon_OR", "tv": [{"city-county-long": -122.80359, "open-search": [], "rss": ["/index.php?format=feed&type=rss", "/index.php?format=feed&type=atom"], "media-class": "tv", "media-subclass": "", "facebook": "https://www.facebook.com/MACC.TVCTV", "website": "http://www.tvctv.org/", "city-county-lat": 45.49106, "city-county-name": "Beaverton", "twitter": "http://www.twitter.com/MACCTVCTV", "name": "TVCTV", "video": "http://www.youtube.com/user/MACCTVCTV"}, {"city-county-long": -121.29769, "open-search": [], "rss": [], "media-class": "tv", "media-subclass": "", "facebook": "https://www.facebook.com/oregonpublicbroadcasting", "website": "http://www.opb.org/", "city-county-lat": 44.091256, "city-county-name": "Bend", "twitter": "http://www.twitter.com/opb", "name": "KOAB", "video": "http://www.youtube.com/user/OPBWeb"}, {"city-county-long": -121.29769, "open-search": [], "rss": [], "media-class": "tv", "media-subclass": "", "facebook": "https://www.facebook.com/KTVZ21", "website": "http://www.ktvz.com/", "city-county-lat": 44.091256, "city-county-name": "Bend", "twitter": "http://www.twitter.com/KTVZ", "name": "KTVZ", "video": "https://www.youtube.com/user/NC21CentralOregon/videos"}, {"city-county-long": -124.21086, "open-search": [], "rss": [], "media-class": "tv", "media-subclass": "", "facebook": "https://www.facebook.com/KCBYTV", "website": "http://www.kcby.com/", "city-county-lat": 43.357357, "city-county-name": "Coos Bay", "twitter": "http://www.twitter.com/KCBYNews", "name": "KCBY", "video": ""}, {"city-county-long": -123.2752, "open-search": [], "rss": [], "media-class": "tv", "media-subclass": "", "facebook": "https://www.facebook.com/oregonpublicbroadcasting", "website": "http://www.opb.org/", "city-county-lat": 44.608694, "city-county-name": "Corvallis", "twitter": "http://www.twitter.com/opb", "name": "KOAC", "video": "http://www.youtube.com/user/OPBWeb"}, {"city-county-long": -123.08275, "open-search": [], "rss": [], "media-class": "tv", "media-subclass": "", "facebook": "https://www.facebook.com/oregonpublicbroadcasting", "website": "http://www.opb.org/", "city-county-lat": 44.06092, "city-county-name": "Eugene", "twitter": "http://www.twitter.com/opb", "name": "KEPB", "video": "http://www.youtube.com/user/OPBWeb"}, {"city-county-long": -123.08275, "open-search": [], "rss": [], "media-class": "tv", "media-subclass": "", "facebook": "https://www.facebook.com/kezi9", "website": "http://www.kezi.com/", "city-county-lat": 44.06092, "city-county-name": "Eugene", "twitter": "http://www.twitter.com/kezi9", "name": "KEZI", "video": "https://www.youtube.com/user/KEZITV/videos"}, {"city-county-long": -123.08275, "open-search": [], "rss": [], "media-class": "tv", "media-subclass": "", "facebook": "https://www.facebook.com/KMTRNews", "website": "http://www.kmtr.com/", "city-county-lat": 44.06092, "city-county-name": "Eugene", "twitter": "http://www.twitter.com/KMTR", "name": "KMTR", "video": ""}, {"city-county-long": -123.08275, "open-search": [], "rss": [], "media-class": "tv", "media-subclass": "", "facebook": "https://www.facebook.com/KVALnews", "website": "http://www.kval.com/", "city-county-lat": 44.06092, "city-county-name": "Eugene", "twitter": "http://www.twitter.com/kvalnews", "name": "KVAL", "video": "https://www.youtube.com/user/Videos4KVAL/videos"}, {"city-county-long": -121.88447, "open-search": [], "rss": [], "media-class": "tv", "media-subclass": "", "facebook": "https://www.facebook.com/KDRV12", "website": "http://www.kdrv.com/", "city-county-lat": 42.282428, "city-county-name": "Klamath Falls", "twitter": "http://www.twitter.com/KDRV", "name": "KDKF", "video": "http://www.youtube.com/user/KDRV12"}, {"city-county-long": -121.88447, "open-search": [], "rss": ["https://kobi5.com/comments/feed/", "https://kobi5.com/feed/"], "media-class": "tv", "media-subclass": "", "facebook": "https://www.facebook.com/kobitv", "website": "http://www.kobi5.com/", "city-county-lat": 42.282428, "city-county-name": "Klamath Falls", "twitter": "http://www.twitter.com/kobitv", "name": "KOTI", "video": "https://www.youtube.com/user/KOBITVWebsite/featured"}, {"city-county-long": -118.08197, "open-search": [], "rss": [], "media-class": "tv", "media-subclass": "", "facebook": "https://www.facebook.com/oregonpublicbroadcasting", "website": "http://www.opb.org/", "city-county-lat": 45.32627, "city-county-name": "La Grande", "twitter": "http://www.twitter.com/opb", "name": "KTVR", "video": "https://www.youtube.com/user/OPBWeb/videos"}, {"city-county-long": -122.87944, "open-search": [], "rss": [], "media-class": "tv", "media-subclass": "", "facebook": "https://www.facebook.com/KDRV12", "website": "http://www.kdrv.com/", "city-county-lat": 42.313498, "city-county-name": "Medford", "twitter": "http://www.twitter.com/KDRV", "name": "KDRV", "video": "http://www.youtube.com/user/KDRV12"}, {"city-county-long": -122.87944, "open-search": [], "rss": ["http://www.soptv.org/feed/"], "media-class": "tv", "media-subclass": "", "facebook": "https://www.facebook.com/SOPTV", "website": "http://www.soptv.org/", "city-county-lat": 42.313498, "city-county-name": "Medford", "twitter": "", "name": "KFTS", "video": ""}, {"city-county-long": -122.87944, "open-search": [], "rss": ["https://kobi5.com/comments/feed/", "https://kobi5.com/feed/"], "media-class": "tv", "media-subclass": "", "facebook": "https://www.facebook.com/kobitv", "website": "http://www.kobi5.com/", "city-county-lat": 42.313498, "city-county-name": "Medford", "twitter": "http://www.twitter.com/kobitv", "name": "KOBI", "video": "https://www.youtube.com/user/KOBITVWebsite/featured"}, {"city-county-long": -122.87944, "open-search": [], "rss": [], "media-class": "tv", "media-subclass": "", "facebook": "https://www.facebook.com/pages/KTVL-News-10/180780400322", "website": "http://www.ktvl.com/", "city-county-lat": 42.313498, "city-county-name": "Medford", "twitter": "http://www.twitter.com/ktvl", "name": "KTVL", "video": "http://www.youtube.com/user/news10ktvl1"}, {"city-county-long": -122.68781, "open-search": [], "rss": [], "media-class": "tv", "media-subclass": "", "facebook": "https://www.facebook.com/katunews", "website": "http://www.katu.com/", "city-county-lat": 45.49894, "city-county-name": "Portland", "twitter": "http://www.twitter.com/katunews", "name": "KATU", "video": "http://www.youtube.com/user/KATUPromotions"}, {"city-county-long": -122.68781, "open-search": [], "rss": [], "media-class": "tv", "media-subclass": "", "facebook": "https://www.facebook.com/KGWTV8", "website": "http://www.kgw.com/", "city-county-lat": 45.49894, "city-county-name": "Portland", "twitter": "http://www.twitter.com/KGWNews", "name": "KGW", "video": "https://www.youtube.com/channel/UCpkCumQYCx8obnagJz7wRjA"}, {"city-county-long": -122.68781, "open-search": ["http://koin.com/osd.xml", "https://s1.wp.com/opensearch.xml"], "rss": ["http://koin.com/feed/", "http://koin.com/comments/feed/"], "media-class": "tv", "media-subclass": "", "facebook": "https://www.facebook.com/koin6", "website": "http://www.koin.com/", "city-county-lat": 45.49894, "city-county-name": "Portland", "twitter": "http://www.twitter.com/koindesk", "name": "KOIN", "video": "http://www.youtube.com/user/KOINLOCAL6"}, {"city-county-long": -122.68781, "open-search": [], "rss": [], "media-class": "tv", "media-subclass": "", "facebook": "https://www.facebook.com/oregonpublicbroadcasting", "website": "http://www.opb.org/", "city-county-lat": 45.49894, "city-county-name": "Portland", "twitter": "http://www.twitter.com/opb", "name": "KOPB", "video": "https://www.youtube.com/user/OPBWeb/videos"}, {"city-county-long": -122.68781, "open-search": [], "rss": [], "media-class": "tv", "media-subclass": "", "facebook": "https://www.facebook.com/fox12oregon", "website": "http://www.kptv.com/category/210090/pdx-tv", "city-county-lat": 45.49894, "city-county-name": "Portland", "twitter": "http://www.twitter.com/fox12oregon", "name": "KPDX", "video": "http://www.youtube.com/user/Fox12oregon"}, {"city-county-long": -122.68781, "open-search": [], "rss": [], "media-class": "tv", "media-subclass": "", "facebook": "https://www.facebook.com/fox12oregon", "website": "http://www.kptv.com/", "city-county-lat": 45.49894, "city-county-name": "Portland", "twitter": "http://www.twitter.com/fox12oregon", "name": "KPTV", "video": "http://www.youtube.com/user/Fox12oregon"}, {"city-county-long": -123.35138, "open-search": [], "rss": [], "media-class": "tv", "media-subclass": "", "facebook": "https://www.facebook.com/kpicnews", "website": "http://www.kpic.com/", "city-county-lat": 43.227287, "city-county-name": "Roseburg", "twitter": "http://www.twitter.com/KPICNews1", "name": "KPIC", "video": ""}, {"city-county-long": -122.98694, "open-search": [], "rss": [], "media-class": "tv", "media-subclass": "", "facebook": "https://www.facebook.com/kwvt.television", "website": "http://www.kwvtsalem.com/", "city-county-lat": 44.926644, "city-county-name": "Salem", "twitter": "", "name": "KWVT", "video": "https://www.youtube.com/user/kwvtsalem"}]}