{"NJ": {"state-name": "New Jersey_NJ", "tv": [{"video": "http://www.youtube.com/user/NJNPublicTelevision", "city-county-name": "Camden", "city-county-lat": 39.80237, "website": "http://www.njtvonline.org/", "twitter": "", "name": "WNJS", "media-type": "tv", "open-search": [], "media-kind": "", "facebook": "https://www.facebook.com/NJTVonline", "rss": ["http://www.njtvonline.org/feed/", "http://www.njtvonline.org/comments/feed/"], "city-county-long": -74.938259}, {"video": "http://www.youtube.com/user/NJNPublicTelevision", "city-county-name": "Montclair", "city-county-lat": 40.81315, "website": "http://www.njtvonline.org/", "twitter": "", "name": "WNJN", "media-type": "tv", "open-search": [], "media-kind": "", "facebook": "https://www.facebook.com/NJTVonline", "rss": ["http://www.njtvonline.org/feed/", "http://www.njtvonline.org/comments/feed/"], "city-county-long": -74.21576}, {"video": "http://www.youtube.com/user/NJNPublicTelevision", "city-county-name": "New Brunswick", "city-county-lat": 40.488304, "website": "http://www.njtvonline.org/", "twitter": "", "name": "WNJB", "media-type": "tv", "open-search": [], "media-kind": "", "facebook": "https://www.facebook.com/NJTVonline", "rss": ["http://www.njtvonline.org/feed/", "http://www.njtvonline.org/comments/feed/"], "city-county-long": -74.44775}, {"video": "http://www.youtube.com/user/ThirteenWNET", "city-county-name": "Newark", "city-county-lat": 40.736101, "website": "http://www.wnet.org/", "twitter": "http://www.twitter.com/ThirteenWNET", "name": "WNET", "media-type": "tv", "open-search": [], "media-kind": "", "facebook": "https://www.facebook.com/thirteenwnet/", "rss": ["http://www.wnet.org/feed/atom/", "http://www.wnet.org/feed/"], "city-county-long": -74.22509}, {"video": "", "city-county-name": "Secaucus", "city-county-lat": 40.7885, "website": "http://www.my9nj.com/", "twitter": "http://www.twitter.com/My9NJ", "name": "WWOR", "media-type": "tv", "open-search": [], "media-kind": "", "facebook": "https://www.facebook.com/my9tv", "rss": [], "city-county-long": -74.06}, {"video": "http://www.youtube.com/user/NJNPublicTelevision", "city-county-name": "Trenton", "city-county-lat": 40.280531, "website": "http://www.njtvonline.org/", "twitter": "", "name": "WNJT", "media-type": "tv", "open-search": [], "media-kind": "", "facebook": "https://www.facebook.com/NJTVonline", "rss": ["http://www.njtvonline.org/feed/", "http://www.njtvonline.org/comments/feed/"], "city-county-long": -74.712018}], "newspaper": [{"video": "https://www.youtube.com/user/NorthJersey", "city-county-name": "Allendale", "city-county-lat": 41.031505, "website": "http://www.northjersey.com/towns/town-journal", "twitter": "", "name": "Town Journal", "media-type": "newspaper", "open-search": [], "media-kind": "city-county", "facebook": "https://www.facebook.com/northjerseycom", "rss": [], "city-county-long": -74.13409}, {"video": "http://www.youtube.com/user/GreaterMediaNews", "city-county-name": "Allentown", "city-county-lat": 40.164556, "website": "http://www.gmnews.com/exa/", "twitter": "http://www.twitter.com/greatermedia", "name": "Examiner", "media-type": "newspaper", "open-search": [], "media-kind": "city-county", "facebook": "https://www.facebook.com/pages/Greater-Media-Inc/81530194088", "rss": ["http://www.gmnews.com/comments/feed/", "http://www.gmnews.com/feed/"], "city-county-long": -74.57785}, {"video": "", "city-county-name": "Andover", "city-county-lat": 40.966308, "website": "http://www.townshipjournal.com/", "twitter": "http://www.twitter.com/thetjnews", "name": "Township Journal", "media-type": "newspaper", "open-search": [], "media-kind": "city-county", "facebook": "https://www.facebook.com/thetownshipjournal", "rss": [], "city-county-long": -74.74298}, {"video": "", "city-county-name": "Bayonne", "city-county-lat": 40.666552, "website": "http://hudsonreporter.com/pages/bayonne", "twitter": "http://www.twitter.com/hudson_reporter", "name": "Bayonne Community News", "media-type": "newspaper", "open-search": [], "media-kind": "city-county", "facebook": "https://www.facebook.com/thehudsonreporter", "rss": [], "city-county-long": -74.11768}, {"video": "", "city-county-name": "Belle Mead", "city-county-lat": 40.460137, "website": "http://www.montynews.com/", "twitter": "", "name": "Montgomery News", "media-type": "newspaper", "open-search": [], "media-kind": "city-county", "facebook": "https://www.facebook.com/pages/The-Montgomery-News/374476073676", "rss": [], "city-county-long": -74.63592}, {"video": "https://www.youtube.com/user/NorthJersey", "city-county-name": "Belleville", "city-county-lat": 40.7935, "website": "http://www.northjersey.com/towns/belleville", "twitter": "http://www.twitter.com/bellevilletimes", "name": "Belleville Times", "media-type": "newspaper", "open-search": [], "media-kind": "city-county", "facebook": "https://www.facebook.com/BellevilleTimes", "rss": [], "city-county-long": -74.16144}, {"video": "https://www.youtube.com/user/NorthJersey", "city-county-name": "Bergenfield", "city-county-lat": 40.923748, "website": "http://www.northjersey.com/towns/twin-boro-news", "twitter": "", "name": "Twin Boro News", "media-type": "newspaper", "open-search": [], "media-kind": "city-county", "facebook": "https://www.facebook.com/northjerseycom", "rss": [], "city-county-long": -73.99879}, {"video": "", "city-county-name": "Berkeley", "city-county-lat": 39.907488, "website": "http://micromediapubs.com/category/berkeley/", "twitter": "http://www.twitter.com/micromediapubs", "name": "Berkeley Times", "media-type": "newspaper", "open-search": [], "media-kind": "city-county", "facebook": "http://www.facebook.com/theberkeleytimes/", "rss": ["http://micromediapubs.com/category/berkeley/feed/", "http://www.micromediapubs.com/feed"], "city-county-long": -74.081074}, {"video": "", "city-county-name": "Bernardsville", "city-county-lat": 40.72344, "website": "http://newjerseyhills.com/bernardsville_news/", "twitter": "http://www.twitter.com/Bville_News", "name": "Bernardsville News", "media-type": "newspaper", "open-search": [], "media-kind": "city-county", "facebook": "https://www.facebook.com/bernardsvillenews", "rss": ["http://www.newjerseyhills.com/search/?f=rss&t=article&c=bernardsville_news&l=50&s=start_time&sd=desc"], "city-county-long": -74.57753}, {"video": "https://www.youtube.com/user/NorthJersey", "city-county-name": "Bloomfield", "city-county-lat": 40.803, "website": "http://www.northjersey.com/towns/bloomfield", "twitter": "http://www.twitter.com/bloomfieldlife", "name": "Bloomfield Life", "media-type": "newspaper", "open-search": [], "media-kind": "city-county", "facebook": "https://www.facebook.com/BloomfieldLife", "rss": [], "city-county-long": -74.18895}, {"video": "", "city-county-name": "Boonton", "city-county-lat": 40.912798, "website": "http://www.northjersey.com/towns/neighbor-news", "twitter": "", "name": "Boonton Neighbor News", "media-type": "newspaper", "open-search": [], "media-kind": "city-county", "facebook": "https://www.facebook.com/NeighborNews", "rss": [], "city-county-long": -74.41516}, {"video": "", "city-county-name": "Brick", "city-county-lat": 40.042479, "website": "http://micromediapubs.com/category/brick/", "twitter": "http://www.twitter.com/micromediapubs", "name": "Brick Times", "media-type": "newspaper", "open-search": [], "media-kind": "city-county", "facebook": "https://www.facebook.com/thebricktimes", "rss": ["http://micromediapubs.com/category/brick/feed/", "http://www.micromediapubs.com/feed"], "city-county-long": -74.123}, {"video": "", "city-county-name": "Bridgeton", "city-county-lat": 39.445164, "website": "http://www.nj.com/south/", "twitter": "http://www.twitter.com/njdotcom", "name": "South Jersey Times", "media-type": "newspaper", "open-search": [], "media-kind": "city-county", "facebook": "https://www.facebook.com/SouthJerseyTimes", "rss": [], "city-county-long": -75.24215}, {"video": "", "city-county-name": "Bridgewater", "city-county-lat": 40.588097, "website": "http://www.mycentraljersey.com/", "twitter": "http://www.twitter.com/MyCentralJersey", "name": "Courier-News", "media-type": "newspaper", "open-search": [], "media-kind": "city-county", "facebook": "https://www.facebook.com/MyCentralJersey", "rss": [], "city-county-long": -74.62253}, {"video": "https://www.youtube.com/user/shorenewstoday", "city-county-name": "Brigantine", "city-county-lat": 39.401801, "website": "http://www.shorenewstoday.com/brigantine/", "twitter": "http://www.twitter.com/BrigantineNews", "name": "Brigantine Beachcomber News", "media-type": "newspaper", "open-search": [], "media-kind": "city-county", "facebook": "https://www.facebook.com/BrigantineBeachcomber", "rss": ["http://www.shorenewstoday.com/search/?f=rss&t=article&c=brigantine&l=50&s=start_time&sd=desc"], "city-county-long": -74.38017}, {"video": "", "city-county-name": "Caldwell", "city-county-lat": 40.848999, "website": "http://newjerseyhills.com/the_progress/", "twitter": "http://www.twitter.com/TheProgressNJ", "name": "Progress", "media-type": "newspaper", "open-search": [], "media-kind": "city-county", "facebook": "https://www.facebook.com/TheProgressNJ", "rss": ["http://www.newjerseyhills.com/search/?f=rss&t=article&c=the_progress&l=50&s=start_time&sd=desc"], "city-county-long": -74.27917}, {"video": "https://www.youtube.com/user/shorenewstoday", "city-county-name": "Cape May", "city-county-lat": 38.963652, "website": "http://www.shorenewstoday.com/cape_may/", "twitter": "http://www.twitter.com/capemaygazette", "name": "Cape May Gazette", "media-type": "newspaper", "open-search": [], "media-kind": "city-county", "facebook": "https://www.facebook.com/capemaygazette", "rss": ["http://www.shorenewstoday.com/search/?f=rss&t=article&c=cape_may&l=50&s=start_time&sd=desc"], "city-county-long": -74.92319}, {"video": "", "city-county-name": "Cape May", "city-county-lat": 38.963652, "website": "http://www.starandwave.com/", "twitter": "", "name": "Cape May Star and Wave", "media-type": "newspaper", "open-search": [], "media-kind": "city-county", "facebook": "https://www.facebook.com/capemay.newspaper", "rss": [], "city-county-long": -74.92319}, {"video": "", "city-county-name": "Cedar Grove", "city-county-lat": 40.855854, "website": "http://newjerseyhills.com/cg-v_observers/", "twitter": "http://www.twitter.com/CGVObserver", "name": "Cedar Grove Observer", "media-type": "newspaper", "open-search": [], "media-kind": "city-county", "facebook": "https://www.facebook.com/pages/CedarGroveVeronaObserver/110770215713982", "rss": ["http://www.newjerseyhills.com/search/?f=rss&t=article&c=cg-v_observers&l=50&s=start_time&sd=desc"], "city-county-long": -74.22898}, {"video": "", "city-county-name": "Chatham", "city-county-lat": 40.7332, "website": "http://newjerseyhills.com/chatham_courier/", "twitter": "http://www.twitter.com/ChathamCourier", "name": "Chatham Courier", "media-type": "newspaper", "open-search": [], "media-kind": "city-county", "facebook": "https://www.facebook.com/chathamcourier", "rss": ["http://www.newjerseyhills.com/search/?f=rss&t=article&c=chatham_courier&l=50&s=start_time&sd=desc"], "city-county-long": -74.39736}, {"video": "", "city-county-name": "Cherry Hill", "city-county-lat": 39.932279, "website": "http://www.courierpostonline.com/", "twitter": "http://www.twitter.com/cpsj", "name": "Courier-Post", "media-type": "newspaper", "open-search": [], "media-kind": "city-county", "facebook": "https://www.facebook.com/courierpost", "rss": [], "city-county-long": -75.02266}, {"video": "", "city-county-name": "Cherry Hill", "city-county-lat": 39.932279, "website": "http://www.jewishvoicesnj.org/", "twitter": "", "name": "Jewish Community Voice", "media-type": "newspaper", "open-search": [], "media-kind": "city-county", "facebook": "https://www.facebook.com/pages/Jewish-Community-Voice/89810678358", "rss": ["/news.xml"], "city-county-long": -75.02266}, {"video": "", "city-county-name": "Chester", "city-county-lat": 40.786549, "website": "http://newjerseyhills.com/observer-tribune/", "twitter": "http://www.twitter.com/ObserverTribune", "name": "Observer Tribune", "media-type": "newspaper", "open-search": [], "media-kind": "city-county", "facebook": "https://www.facebook.com/ObserverTribune", "rss": ["http://www.newjerseyhills.com/search/?f=rss&t=article&c=observer-tribune&l=50&s=start_time&sd=desc"], "city-county-long": -74.68799}, {"video": "", "city-county-name": "Clark", "city-county-lat": 40.620336, "website": "http://www.northjersey.com/towns/clifton", "twitter": "http://www.twitter.com/CliftonJournal", "name": "Clifton Journal", "media-type": "newspaper", "open-search": [], "media-kind": "city-county", "facebook": "https://www.facebook.com/pages/Clifton-Journal/137774546288262", "rss": [], "city-county-long": -74.30934}, {"video": "", "city-county-name": "Clinton", "city-county-lat": 40.639546, "website": "http://newjerseyhills.com/hunterdon_review/", "twitter": "http://www.twitter.com/HunterdonReview", "name": "Hunterdon Review", "media-type": "newspaper", "open-search": [], "media-kind": "city-county", "facebook": "https://www.facebook.com/HunterdonReview", "rss": ["http://www.newjerseyhills.com/search/?f=rss&t=article&c=hunterdon_review&l=50&s=start_time&sd=desc"], "city-county-long": -74.91292}, {"video": "http://www.youtube.com/user/retrospectvideo", "city-county-name": "Collingswood", "city-county-lat": 39.915263, "website": "http://theretrospect.com/", "twitter": "http://www.twitter.com/theretrospect", "name": "Retrospect", "media-type": "newspaper", "open-search": [], "media-kind": "city-county", "facebook": "https://www.facebook.com/pages/The-Retrospect/102243110324", "rss": [], "city-county-long": -75.06401}, {"video": "", "city-county-name": "Cranbury", "city-county-lat": 40.306286, "website": "http://www.centraljersey.com/news/the_cranbury_press/", "twitter": "http://www.twitter.com/cranburypress", "name": "Cranbury Press", "media-type": "newspaper", "open-search": [], "media-kind": "city-county", "facebook": "https://www.facebook.com/CranburyPress", "rss": ["http://www.centraljersey.com/search/?f=rss&t=article&c=news/the_cranbury_press&l=50&s=start_time&sd=desc"], "city-county-long": -74.52627}, {"video": "", "city-county-name": "Denville", "city-county-lat": 40.886149, "website": "http://newjerseyhills.com/the_citizen/", "twitter": "", "name": "Citizen", "media-type": "newspaper", "open-search": [], "media-kind": "city-county", "facebook": "https://www.facebook.com/TheCitizenofMorrisCounty", "rss": ["http://www.newjerseyhills.com/search/?f=rss&t=article&c=the_citizen&l=50&s=start_time&sd=desc"], "city-county-long": -74.48704}, {"video": "", "city-county-name": "East Brunswick", "city-county-lat": 40.434239, "website": "http://www.mycentraljersey.com/", "twitter": "http://www.twitter.com/mycentraljersey", "name": "Home News & Tribune", "media-type": "newspaper", "open-search": [], "media-kind": "city-county", "facebook": "https://www.facebook.com/MyCentralJersey", "rss": [], "city-county-long": -74.40504}, {"video": "http://www.youtube.com/user/GreaterMediaNews", "city-county-name": "East Brunswick", "city-county-lat": 40.434239, "website": "http://www.gmnews.com/eb/", "twitter": "http://www.twitter.com/greatermedia", "name": "Sentinel", "media-type": "newspaper", "open-search": [], "media-kind": "city-county", "facebook": "https://www.facebook.com/pages/Greater-Media-Inc/81530194088", "rss": ["http://www.gmnews.com/comments/feed/", "http://www.gmnews.com/feed/"], "city-county-long": -74.40504}, {"video": "https://www.youtube.com/user/NorthJersey", "city-county-name": "Edgewater", "city-county-lat": 40.830733, "website": "http://www.northjersey.com/towns/edgewater", "twitter": "", "name": "Edgewater View", "media-type": "newspaper", "open-search": [], "media-kind": "city-county", "facebook": "https://www.facebook.com/northjerseycom", "rss": [], "city-county-long": -73.97334}, {"video": "http://www.youtube.com/user/GreaterMediaNews", "city-county-name": "Edison", "city-county-lat": 40.516104, "website": "http://www.gmnews.com/em/", "twitter": "http://www.twitter.com/greatermedia", "name": "Sentinel", "media-type": "newspaper", "open-search": [], "media-kind": "city-county", "facebook": "https://www.facebook.com/GM.EMSentinel", "rss": ["http://www.gmnews.com/comments/feed/", "http://www.gmnews.com/feed/"], "city-county-long": -74.39754}, {"video": "https://www.youtube.com/user/shorenewstoday", "city-county-name": "Egg Harbor Township", "city-county-lat": 39.398172, "website": "http://www.shorenewstoday.com", "twitter": "http://www.twitter.com/shorenewstoday", "name": "Shore News", "media-type": "newspaper", "open-search": [], "media-kind": "city-county", "facebook": "https://www.facebook.com/TheCurrentNewspapers", "rss": ["http://www.shorenewstoday.com/search/?f=rss&t=article&l=50&s=start_time&sd=desc&k[]=%23topstory"], "city-county-long": -74.59667}, {"video": "http://www.youtube.com/user/GreaterMediaNews", "city-county-name": "Farmingdale", "city-county-lat": 40.205367, "website": "http://www.gmnews.com/nt/", "twitter": "http://www.twitter.com/greatermedia", "name": "News Transcript", "media-type": "newspaper", "open-search": [], "media-kind": "city-county", "facebook": "https://www.facebook.com/pages/Greater-Media-Inc/81530194088", "rss": ["http://www.gmnews.com/comments/feed/", "http://www.gmnews.com/feed/"], "city-county-long": -74.15767}, {"video": "", "city-county-name": "Flemington", "city-county-lat": 40.515645, "website": "http://www.nj.com/hunterdon-county-democrat/", "twitter": "http://www.twitter.com/njdotcom", "name": "Hunterdon Co Democrat", "media-type": "newspaper", "open-search": [], "media-kind": "city-county", "facebook": "https://www.facebook.com/NJ.com", "rss": [], "city-county-long": -74.85319}, {"video": "", "city-county-name": "Florham Park", "city-county-lat": 40.77835, "website": "http://newjerseyhills.com/florham_park_eagle/", "twitter": "http://www.twitter.com/FlorhamPEagle", "name": "Florham Park Eagle", "media-type": "newspaper", "open-search": [], "media-kind": "city-county", "facebook": "https://www.facebook.com/florhamparkeagle", "rss": ["http://www.newjerseyhills.com/search/?f=rss&t=article&c=florham_park_eagle&l=50&s=start_time&sd=desc"], "city-county-long": -74.39009}, {"video": "", "city-county-name": "Franklinville", "city-county-lat": 39.618222, "website": "http://thenjsentinel.com/", "twitter": "", "name": "Franklin Township Sentinel", "media-type": "newspaper", "open-search": [], "media-kind": "city-county", "facebook": "https://www.facebook.com/Sentinel-of-Gloucester-County-Newspaper-1571498843071075/posts_to_page?ref=page_internal", "rss": ["http://thenjsentinel.com/comments/feed/", "http://thenjsentinel.com/feed/"], "city-county-long": -75.0618}, {"video": "https://www.youtube.com/user/shorenewstoday", "city-county-name": "Galloway Township", "city-county-lat": 39.4928, "website": "http://www.shorenewstoday.com/galloway_township/", "twitter": "http://www.twitter.com/GallowayCurrent", "name": "Current", "media-type": "newspaper", "open-search": [], "media-kind": "city-county", "facebook": "https://www.facebook.com/gallowaycurrent", "rss": ["http://www.shorenewstoday.com/search/?f=rss&t=article&c=galloway_township&l=50&s=start_time&sd=desc"], "city-county-long": -74.5597}, {"video": "http://www.youtube.com/user/NowyDziennik", "city-county-name": "Garfield", "city-county-lat": 40.879858, "website": "http://www.dziennik.com/", "twitter": "http://www.twitter.com/NowyDziennik", "name": "Nowy Dziennik", "media-type": "newspaper", "open-search": [], "media-kind": "city-county", "facebook": "https://www.facebook.com/nowydziennik", "rss": [], "city-county-long": -74.10807}, {"video": "https://www.youtube.com/user/NorthJersey", "city-county-name": "Glen Ridge", "city-county-lat": 40.80495, "website": "http://www.northjersey.com/towns/glen-ridge", "twitter": "http://www.twitter.com/glenridgevoice", "name": "Glen Ridge Voice", "media-type": "newspaper", "open-search": [], "media-kind": "city-county", "facebook": "https://www.facebook.com/GlenRidgeVoice", "rss": [], "city-county-long": -74.2047}, {"video": "https://www.youtube.com/user/NorthJersey", "city-county-name": "Glen Rock", "city-county-lat": 40.961109, "website": "http://www.northjersey.com/towns/glen-rock", "twitter": "", "name": "Glen Rock Gazette", "media-type": "newspaper", "open-search": [], "media-kind": "city-county", "facebook": "https://www.facebook.com/northjerseycom", "rss": [], "city-county-long": -74.12576}, {"video": "https://www.youtube.com/user/NorthJersey", "city-county-name": "Hackensack", "city-county-lat": 40.888678, "website": "http://www.northjersey.com/towns/hackensack", "twitter": "", "name": "Hackensack Chronicle", "media-type": "newspaper", "open-search": [], "media-kind": "city-county", "facebook": "https://www.facebook.com/northjerseycom", "rss": [], "city-county-long": -74.0488}, {"video": "http://www.youtube.com/user/NorthJersey", "city-county-name": "Hackensack", "city-county-lat": 40.888678, "website": "http://www.northjersey.com/", "twitter": "http://www.twitter.com/northjerseybrk", "name": "The Record", "media-type": "newspaper", "open-search": [], "media-kind": "city-county", "facebook": "https://www.facebook.com/northjerseycom", "rss": [], "city-county-long": -74.0488}, {"video": "", "city-county-name": "Haddonfield", "city-county-lat": 39.895213, "website": "http://www.haddonfieldsun.com/", "twitter": "http://www.twitter.com/HaddonfieldSun", "name": "Haddonfield Sun", "media-type": "newspaper", "open-search": [], "media-kind": "city-county", "facebook": "https://www.facebook.com/haddonfieldsun", "rss": ["http://www.haddonfieldsun.com/home/feed/"], "city-county-long": -75.04019}, {"video": "https://www.youtube.com/channel/UCKWXedobxwbr2IPHNRPzUDw", "city-county-name": "Hammonton", "city-county-lat": 39.625291, "website": "http://www.hammontongazette.com/", "twitter": "http://www.twitter.com/HammGazette", "name": "Hammonton Gazette", "media-type": "newspaper", "open-search": [], "media-kind": "city-county", "facebook": "https://www.facebook.com/HammontonGazette/", "rss": [], "city-county-long": -74.77705}, {"video": "", "city-county-name": "Hammonton", "city-county-lat": 39.625291, "website": "http://www.thehammontonnews.com/", "twitter": "", "name": "Hammonton News", "media-type": "newspaper", "open-search": [], "media-kind": "city-county", "facebook": "", "rss": [], "city-county-long": -74.77705}, {"video": "", "city-county-name": "Hanover Township", "city-county-lat": 40.8258, "website": "http://newjerseyhills.com/hanover_eagle/", "twitter": "http://www.twitter.com/hanovereagle", "name": "Hanover Eagle", "media-type": "newspaper", "open-search": [], "media-kind": "city-county", "facebook": "https://www.facebook.com/HanoverEagle", "rss": ["http://www.newjerseyhills.com/search/?f=rss&t=article&c=hanover_eagle&l=50&s=start_time&sd=desc"], "city-county-long": -74.4174}, {"video": "", "city-county-name": "Hawthorne", "city-county-lat": 40.957498, "website": "http://www.northjersey.com/towns/hawthorne", "twitter": "", "name": "Hawthorne Gazette", "media-type": "newspaper", "open-search": [], "media-kind": "city-county", "facebook": "", "rss": [], "city-county-long": -74.15627}, {"video": "", "city-county-name": "Hillsborough", "city-county-lat": 40.5106, "website": "http://www.centraljersey.com/news/hillsborough_beacon/", "twitter": "http://www.twitter.com/HillsBeacon", "name": "Hillsborough Beacon", "media-type": "newspaper", "open-search": [], "media-kind": "city-county", "facebook": "https://www.facebook.com/HillsboroughBeacon", "rss": ["http://www.centraljersey.com/search/?f=rss&t=article&c=news/hillsborough_beacon&l=50&s=start_time&sd=desc"], "city-county-long": -74.6473}, {"video": "", "city-county-name": "Hoboken", "city-county-lat": 40.744851, "website": "http://hudsonreporter.com/pages/hoboken", "twitter": "http://www.twitter.com/hudson_reporter", "name": "Hoboken Reporter", "media-type": "newspaper", "open-search": [], "media-kind": "city-county", "facebook": "https://www.facebook.com/thehudsonreporter", "rss": [], "city-county-long": -74.03294}, {"video": "http://www.youtube.com/user/GreaterMediaNews", "city-county-name": "Holmdel", "city-county-lat": 40.384832, "website": "http://www.gmnews.com/ind/", "twitter": "http://www.twitter.com/greatermedia", "name": "Independent", "media-type": "newspaper", "open-search": [], "media-kind": "city-county", "facebook": "https://www.facebook.com/pages/Greater-Media-Inc/81530194088", "rss": ["http://www.gmnews.com/comments/feed/", "http://www.gmnews.com/feed/"], "city-county-long": -74.17194}, {"video": "", "city-county-name": "Hopewell", "city-county-lat": 40.386902, "website": "http://www.centraljersey.com/news/hopewell_valley_news/", "twitter": "http://www.twitter.com/HopewellValley", "name": "Hopewell Valley News", "media-type": "newspaper", "open-search": [], "media-kind": "city-county", "facebook": "https://www.facebook.com/HopewellValleyNews", "rss": ["http://www.centraljersey.com/search/?f=rss&t=article&c=news/hopewell_valley_news&l=50&s=start_time&sd=desc"], "city-county-long": -74.78112}, {"video": "", "city-county-name": "Howell", "city-county-lat": 40.146597, "website": "http://micromediapubs.com/the-howell-times/", "twitter": "http://www.twitter.com/micromediapubs", "name": "Howell Times", "media-type": "newspaper", "open-search": [], "media-kind": "city-county", "facebook": "https://www.facebook.com/thehowelltimes", "rss": ["http://www.micromediapubs.com/feed"], "city-county-long": -74.20815}, {"video": "http://www.youtube.com/user/GreaterMediaNews", "city-county-name": "Howell", "city-county-lat": 40.146597, "website": "http://www.gmnews.com/tri/", "twitter": "http://www.twitter.com/greatermedia", "name": "Tri-Town News", "media-type": "newspaper", "open-search": [], "media-kind": "city-county", "facebook": "https://www.facebook.com/pages/Greater-Media-Inc/81530194088", "rss": ["http://www.gmnews.com/comments/feed/", "http://www.gmnews.com/feed/"], "city-county-long": -74.20815}, {"video": "", "city-county-name": "Jackson", "city-county-lat": 40.11597, "website": "http://micromediapubs.com/the-jackson-times/", "twitter": "http://www.twitter.com/micromediapubs", "name": "Jackson Times", "media-type": "newspaper", "open-search": [], "media-kind": "city-county", "facebook": "http://www.facebook.com/thejacksontimes", "rss": ["http://www.micromediapubs.com/feed"], "city-county-long": -74.32251}, {"video": "https://www.youtube.com/user/NorthJersey", "city-county-name": "Jefferson Township", "city-county-lat": 41.003, "website": "http://www.northjersey.com/towns/jefferson-township", "twitter": "", "name": "Aim Jefferson", "media-type": "newspaper", "open-search": [], "media-kind": "city-county", "facebook": "https://www.facebook.com/AIM-Jefferson-175979832438233/", "rss": [], "city-county-long": -74.558}, {"video": "", "city-county-name": "Jersey City", "city-county-lat": 40.73276, "website": "http://hudsonreporter.com/pages/jersey_city", "twitter": "http://www.twitter.com/hudson_reporter", "name": "Jersey City Reporter", "media-type": "newspaper", "open-search": [], "media-kind": "city-county", "facebook": "https://www.facebook.com/thehudsonreporter", "rss": [], "city-county-long": -74.075485}, {"video": "", "city-county-name": "Jersey City", "city-county-lat": 40.73276, "website": "http://www.nj.com/jjournal/", "twitter": "http://www.twitter.com/jerseyjournal", "name": "Jersey Journal", "media-type": "newspaper", "open-search": [], "media-kind": "city-county", "facebook": "https://www.facebook.com/JerseyJournal", "rss": [], "city-county-long": -74.075485}, {"video": "https://www.youtube.com/user/tvjersey", "city-county-name": "Jersey City", "city-county-lat": 40.73276, "website": "http://www.nj.com/", "twitter": "http://www.twitter.com/njdotcom", "name": "NJ.com", "media-type": "newspaper", "open-search": [], "media-kind": "city-county", "facebook": "https://www.facebook.com/NJ.com", "rss": [], "city-county-long": -74.075485}, {"video": "", "city-county-name": "Kearny", "city-county-lat": 40.763051, "website": "http://www.theobserver.com/", "twitter": "http://www.twitter.com/theobservernj", "name": "Kearny Observer", "media-type": "newspaper", "open-search": [], "media-kind": "city-county", "facebook": "https://www.facebook.com/TheObserverNewspaper", "rss": ["http://www.theobserver.com/comments/feed/", "http://www.theobserver.com/feed/"], "city-county-long": -74.13718}, {"video": "", "city-county-name": "Kinnelon", "city-county-lat": 41.0018, "website": "http://www.northjersey.com/towns/kinnelon", "twitter": "http://www.twitter.com/suburban_trends", "name": "Kinnelon Suburban Trends", "media-type": "newspaper", "open-search": [], "media-kind": "city-county", "facebook": "https://www.facebook.com/suburbantrendsNJ", "rss": [], "city-county-long": -74.3671}, {"video": "https://www.youtube.com/user/NorthJersey", "city-county-name": "Leonia", "city-county-lat": 40.862685, "website": "http://www.northjersey.com/towns/leonia", "twitter": "", "name": "Leonia Life", "media-type": "newspaper", "open-search": [], "media-kind": "city-county", "facebook": "https://www.facebook.com/northjerseycom", "rss": [], "city-county-long": -73.98551}, {"video": "", "city-county-name": "Livingston", "city-county-lat": 40.788733, "website": "http://www.westessextribune.net/", "twitter": "", "name": "West Essex Tribune", "media-type": "newspaper", "open-search": [], "media-kind": "city-county", "facebook": "https://www.facebook.com/WestEssexTribune", "rss": [], "city-county-long": -74.32134}, {"video": "http://www.youtube.com/user/GreaterMediaNews", "city-county-name": "Long Branch", "city-county-lat": 40.297932, "website": "http://www.gmnews.com/atl/", "twitter": "http://www.twitter.com/greatermedia", "name": "Atlanticville", "media-type": "newspaper", "open-search": [], "media-kind": "city-county", "facebook": "https://www.facebook.com/pages/Greater-Media-Inc/81530194088", "rss": ["http://www.gmnews.com/comments/feed/", "http://www.gmnews.com/feed/"], "city-county-long": -73.99097}, {"video": "https://www.youtube.com/channel/UCX9A50gEVTvleF3FimtdhbA", "city-county-name": "Longport", "city-county-lat": 39.314766, "website": "http://www.shorenewstoday.com/downbeach/", "twitter": "http://www.twitter.com/DBCurrent", "name": "Downbeach Current", "media-type": "newspaper", "open-search": [], "media-kind": "city-county", "facebook": "https://www.facebook.com/DownbeachCurrent", "rss": ["http://www.shorenewstoday.com/search/?f=rss&t=article&c=downbeach&l=50&s=start_time&sd=desc"], "city-county-long": -74.52675}, {"video": "", "city-county-name": "Madison", "city-county-lat": 40.75875, "website": "http://newjerseyhills.com/madison_eagle/", "twitter": "http://www.twitter.com/MadisonEagleNJ", "name": "Madison Eagle", "media-type": "newspaper", "open-search": [], "media-kind": "city-county", "facebook": "https://www.facebook.com/madisoneagle", "rss": ["http://www.newjerseyhills.com/search/?f=rss&t=article&c=madison_eagle&l=50&s=start_time&sd=desc"], "city-county-long": -74.41609}, {"video": "https://www.youtube.com/user/NorthJersey", "city-county-name": "Mahwah", "city-county-lat": 41.077102, "website": "http://www.northjersey.com/towns/mahwah", "twitter": "", "name": "Mahwah Suburban News", "media-type": "newspaper", "open-search": [], "media-kind": "city-county", "facebook": "https://www.facebook.com/northjerseycom", "rss": [], "city-county-long": -74.16147}, {"video": "", "city-county-name": "Manahawkin", "city-county-lat": 39.707575, "website": "http://micromediapubs.com/the-southern-ocean-times/", "twitter": "http://www.twitter.com/micromediapubs", "name": "Southern Ocean Times", "media-type": "newspaper", "open-search": [], "media-kind": "city-county", "facebook": "http://www.facebook.com/thesouthernoceantimes", "rss": ["http://www.micromediapubs.com/feed"], "city-county-long": -74.25933}, {"video": "", "city-county-name": "Manasquan", "city-county-lat": 40.120261, "website": "http://starnewsgroup.com/", "twitter": "http://www.twitter.com/coaststar", "name": "Coast Star", "media-type": "newspaper", "open-search": [], "media-kind": "city-county", "facebook": "https://www.facebook.com/pages/Star-News-Group-The-Coast-Star-The-Ocean-Star-Starnewsgroupcom/221050765448", "rss": ["http://starnewsgroup.com/rss/SNG_Top.xml"], "city-county-long": -74.05765}, {"video": "", "city-county-name": "Manchester", "city-county-lat": 39.9712, "website": "http://micromediapubs.com/category/manchester/", "twitter": "http://www.twitter.com/micromediapubs", "name": "Manchester Times", "media-type": "newspaper", "open-search": [], "media-kind": "city-county", "facebook": "https://www.facebook.com/pages/Manchester-Times/207465582644398", "rss": ["http://micromediapubs.com/category/manchester/feed/", "http://www.micromediapubs.com/feed"], "city-county-long": -74.3393}, {"video": "http://www.southjerseylocalnews.com/video/news/", "city-county-name": "Maple Shade", "city-county-lat": 39.952212, "website": "http://www.southjerseylocalnews.com/", "twitter": "http://www.twitter.com/CentralRecord", "name": "South Jersey Local News", "media-type": "newspaper", "open-search": [], "media-kind": "city-county", "facebook": "https://www.facebook.com/southjersey", "rss": [], "city-county-long": -74.99464}, {"video": "", "city-county-name": "Maywood", "city-county-lat": 40.90503, "website": "http://www.ourtownnewsonline.com/", "twitter": "", "name": "Maywood Our Town", "media-type": "newspaper", "open-search": [], "media-kind": "city-county", "facebook": "", "rss": [], "city-county-long": -74.06279}, {"video": "http://www.southjerseylocalnews.com/video/news/", "city-county-name": "Medford", "city-county-lat": 39.865272, "website": "http://www.southjerseylocalnews.com/", "twitter": "http://www.twitter.com/CentralRecord", "name": "Central Record", "media-type": "newspaper", "open-search": [], "media-kind": "city-county", "facebook": "https://www.facebook.com/CentralRecord", "rss": [], "city-county-long": -74.8185}, {"video": "https://www.spobserver.com/index.php/links", "city-county-name": "Middlesex", "city-county-lat": 40.574552, "website": "https://www.spobserver.com/", "twitter": "http://www.twitter.com/SPObserver", "name": "South Plainfield Observer", "media-type": "newspaper", "open-search": [], "media-kind": "city-county", "facebook": "", "rss": ["//spobserver.com/comments/feed/", "//spobserver.com/feed/"], "city-county-long": -74.50187}, {"video": "https://www.youtube.com/user/NorthJersey", "city-county-name": "Midland Park", "city-county-lat": 40.99312, "website": "http://www.northjersey.com/towns/midland-park", "twitter": "", "name": "Midland Park Suburban News", "media-type": "newspaper", "open-search": [], "media-kind": "city-county", "facebook": "https://www.facebook.com/northjerseycom", "rss": [], "city-county-long": -74.14286}, {"video": "", "city-county-name": "Millburn", "city-county-lat": 40.724168, "website": "http://www.northjersey.com/towns/millburn-short-hills", "twitter": "http://www.twitter.com/Millburn_Item", "name": "Millburn and Short Hills Item", "media-type": "newspaper", "open-search": [], "media-kind": "city-county", "facebook": "https://www.facebook.com/itemofmillburn", "rss": [], "city-county-long": -74.29913}, {"video": "", "city-county-name": "Millville", "city-county-lat": 39.379382, "website": "http://reminderusa.net/", "twitter": "", "name": "Cumberland County Reminder", "media-type": "newspaper", "open-search": [], "media-kind": "city-county", "facebook": "https://www.facebook.com/pages/Reminder-Newspaper/275807152504727", "rss": [], "city-county-long": -75.03923}, {"video": "", "city-county-name": "Montclair", "city-county-lat": 40.81315, "website": "http://www.northjersey.com/towns/montclair", "twitter": "http://www.twitter.com/MontclairTimes", "name": "Montclair Times", "media-type": "newspaper", "open-search": [], "media-kind": "city-county", "facebook": "https://www.facebook.com/TheMontclairTimes", "rss": [], "city-county-long": -74.21576}, {"video": "", "city-county-name": "Morristown", "city-county-lat": 40.79215, "website": "http://www.newjerseyhills.com/morris_news_bee/", "twitter": "http://www.twitter.com/MorrisNewsBee", "name": "Morris Newsbee", "media-type": "newspaper", "open-search": [], "media-kind": "city-county", "facebook": "https://www.facebook.com/MorrisNewsBee", "rss": ["http://www.newjerseyhills.com/search/?f=rss&t=article&c=morris_news_bee&l=50&s=start_time&sd=desc"], "city-county-long": -74.48559}, {"video": "", "city-county-name": "Mount Olive", "city-county-lat": 40.8515, "website": "http://www.newjerseyhills.com/mt_olive_chronicle/", "twitter": "http://www.twitter.com/MtOliveChron", "name": "Mount Olive Chronicle", "media-type": "newspaper", "open-search": [], "media-kind": "city-county", "facebook": "https://www.facebook.com/MountOliveChronicle", "rss": ["http://www.newjerseyhills.com/search/?f=rss&t=article&c=mt_olive_chronicle&l=50&s=start_time&sd=desc"], "city-county-long": -74.7329}, {"video": "http://www.youtube.com/user/APPvideo", "city-county-name": "Neptune", "city-county-lat": 40.208945, "website": "http://www.app.com/", "twitter": "http://www.twitter.com/AsburyParkPress", "name": "Asbury Park Press", "media-type": "newspaper", "open-search": [], "media-kind": "city-county", "facebook": "https://www.facebook.com/asburyparkpress", "rss": [], "city-county-long": -74.05261}, {"video": "http://www.youtube.com/user/NJBIZ1", "city-county-name": "New Brunswick", "city-county-lat": 40.488304, "website": "http://www.njbiz.com/", "twitter": "http://www.twitter.com/NJBIZ", "name": "NJBIZ", "media-type": "newspaper", "open-search": [], "media-kind": "city-county", "facebook": "https://www.facebook.com/njbiz", "rss": [], "city-county-long": -74.44775}, {"video": "http://www.youtube.com/user/tvjersey", "city-county-name": "Newark", "city-county-lat": 40.736101, "website": "http://www.nj.com/starledger/", "twitter": "http://www.twitter.com/starledger", "name": "Star-Ledger", "media-type": "newspaper", "open-search": [], "media-kind": "city-county", "facebook": "https://www.facebook.com/Star.Ledger", "rss": [], "city-county-long": -74.22509}, {"video": "https://www.youtube.com/channel/UCTJpOvxKtQU59WU6uHjlnBA", "city-county-name": "Newton", "city-county-lat": 41.0714, "website": "http://www.njherald.com/", "twitter": "http://www.twitter.com/NJHerald", "name": "New Jersey Herald", "media-type": "newspaper", "open-search": [], "media-kind": "city-county", "facebook": "https://www.facebook.com/NewJerseyHerald", "rss": [], "city-county-long": -74.80199}, {"video": "", "city-county-name": "North Bergen", "city-county-lat": 40.7946, "website": "http://hudsonreporter.com/pages/north_bergen", "twitter": "http://www.twitter.com/hudson_reporter", "name": "North Bergen Reporter", "media-type": "newspaper", "open-search": [], "media-kind": "city-county", "facebook": "https://www.facebook.com/thehudsonreporter", "rss": [], "city-county-long": -74.01963}, {"video": "http://www.youtube.com/user/GreaterMediaNews", "city-county-name": "North Brunswick", "city-county-lat": 40.453131, "website": "http://www.gmnews.com/ns/", "twitter": "http://www.twitter.com/greatermedia", "name": "Sentinel", "media-type": "newspaper", "open-search": [], "media-kind": "city-county", "facebook": "https://www.facebook.com/GM.NSBSentinel", "rss": ["http://www.gmnews.com/comments/feed/", "http://www.gmnews.com/feed/"], "city-county-long": -74.48287}, {"video": "https://www.youtube.com/user/NorthJersey", "city-county-name": "Nutley", "city-county-lat": 40.8196, "website": "http://www.northjersey.com/towns/nutley", "twitter": "http://www.twitter.com/nutleysun", "name": "Nutley Sun", "media-type": "newspaper", "open-search": [], "media-kind": "city-county", "facebook": "https://www.facebook.com/NutleySun", "rss": [], "city-county-long": -74.15877}, {"video": "https://www.youtube.com/user/NorthJersey", "city-county-name": "Oakland", "city-county-lat": 41.028884, "website": "http://www.northjersey.com/towns/franklin-lakes", "twitter": "", "name": "Franklin Lakes Suburban News", "media-type": "newspaper", "open-search": [], "media-kind": "city-county", "facebook": "https://www.facebook.com/northjerseycom", "rss": [], "city-county-long": -74.23727}, {"video": "", "city-county-name": "Ocean City", "city-county-lat": 39.265371, "website": "http://www.ocsentinel.com/", "twitter": "", "name": "Ocean City Sentinel", "media-type": "newspaper", "open-search": ["http://www.ocsentinel.com/search/opensearch/generic.xml"], "media-kind": "city-county", "facebook": "https://www.facebook.com/OCSentinel", "rss": [], "city-county-long": -74.59381}, {"video": "https://www.youtube.com/user/shorenewstoday", "city-county-name": "Ocean View", "city-county-lat": 39.20877, "website": "http://www.shorenewstoday.com/ocean_city/", "twitter": "http://www.twitter.com/ocgazette", "name": "Ocean City Gazette", "media-type": "newspaper", "open-search": [], "media-kind": "city-county", "facebook": "https://www.facebook.com/oceancitygazette", "rss": ["http://www.shorenewstoday.com/search/?f=rss&t=article&c=ocean_city&l=50&s=start_time&sd=desc"], "city-county-long": -74.70438}, {"video": "", "city-county-name": "Parsippany", "city-county-lat": 40.860149, "website": "http://www.dailyrecord.com/", "twitter": "http://www.twitter.com/dailyrecord", "name": "Daily Record", "media-type": "newspaper", "open-search": [], "media-kind": "city-county", "facebook": "https://www.facebook.com/dailyrecordnews", "rss": [], "city-county-long": -74.4171}, {"video": "https://www.youtube.com/user/parsippanyfocus", "city-county-name": "Parsippany", "city-county-lat": 40.860149, "website": "http://parsippanyfocus.com/", "twitter": "http://www.twitter.com/parsippanyfocus", "name": "Parsippany Focus", "media-type": "newspaper", "open-search": [], "media-kind": "city-county", "facebook": "https://www.facebook.com/parsippanyfocus/", "rss": ["http://parsippanyfocus.com/feed/", "http://parsippanyfocus.com/comments/feed/"], "city-county-long": -74.4171}, {"video": "", "city-county-name": "Parsippany", "city-county-lat": 40.860149, "website": "http://www.northjersey.com/towns/parsippany-troy-hills", "twitter": "", "name": "Parsippany Life", "media-type": "newspaper", "open-search": [], "media-kind": "city-county", "facebook": "https://www.facebook.com/ParsippanyLife", "rss": [], "city-county-long": -74.4171}, {"video": "", "city-county-name": "Paterson", "city-county-lat": 40.912198, "website": "http://www.northjersey.com/towns/passaic-valley", "twitter": "", "name": "Passaic Valley Today", "media-type": "newspaper", "open-search": [], "media-kind": "city-county", "facebook": "https://www.facebook.com/PVToday", "rss": [], "city-county-long": -74.16863}, {"video": "", "city-county-name": "Pennington", "city-county-lat": 40.32315, "website": "http://www.buckslocalnews.com/pennington_post/", "twitter": "http://www.twitter.com/Pennington_Post", "name": "Pennington Post", "media-type": "newspaper", "open-search": [], "media-kind": "city-county", "facebook": "https://www.facebook.com/pages/Pennington-Post/422148705721", "rss": [], "city-county-long": -74.78364}, {"video": "http://www.youtube.com/user/pressofAtlanticCity", "city-county-name": "Pleasantville", "city-county-lat": 39.394616, "website": "http://www.pressofatlanticcity.com/", "twitter": "http://www.twitter.com/ACpressACnews", "name": "Press of Atlantic City", "media-type": "newspaper", "open-search": ["http://www.pressofatlanticcity.com/search/opensearch/generic.xml"], "media-kind": "city-county", "facebook": "https://www.facebook.com/PressofAC", "rss": ["http://www.pressofatlanticcity.com/search/?f=rss&t=article&l=50&s=start_time&sd=desc&k[]=%23topstory"], "city-county-long": -74.52212}, {"video": "", "city-county-name": "Princeton", "city-county-lat": 40.357439, "website": "http://www.centraljersey.com/news/the_princeton_packet/", "twitter": "http://www.twitter.com/PrincetonPacket", "name": "Princeton Packet", "media-type": "newspaper", "open-search": [], "media-kind": "city-county", "facebook": "https://www.facebook.com/princetonpacket", "rss": ["http://www.centraljersey.com/search/?f=rss&t=article&c=news/the_princeton_packet&l=50&s=start_time&sd=desc"], "city-county-long": -74.64922}, {"video": "", "city-county-name": "Princeton", "city-county-lat": 40.357439, "website": "http://www.towntopics.com/", "twitter": "http://www.twitter.com/TownTopics", "name": "Town Topics", "media-type": "newspaper", "open-search": [], "media-kind": "city-county", "facebook": "https://www.facebook.com/towntopics", "rss": [], "city-county-long": -74.64922}, {"video": "", "city-county-name": "Rahway", "city-county-lat": 40.607103, "website": "http://njtoday.net/", "twitter": "http://www.twitter.com/NJTODAY", "name": "NJToday.net", "media-type": "newspaper", "open-search": [], "media-kind": "city-county", "facebook": "", "rss": ["http://njtoday.net/comments/feed/", "http://njtoday.net/feed/"], "city-county-long": -74.28099}, {"video": "", "city-county-name": "Ramsey", "city-county-lat": 41.058819, "website": "http://www.ourtownnews.com/", "twitter": "", "name": "Our Town Northern Bergen", "media-type": "newspaper", "open-search": [], "media-kind": "city-county", "facebook": "", "rss": [], "city-county-long": -74.14238}, {"video": "https://www.youtube.com/user/NorthJersey", "city-county-name": "Ramsey", "city-county-lat": 41.058819, "website": "http://www.northjersey.com/towns/ramsey", "twitter": "", "name": "Ramsey Suburban News", "media-type": "newspaper", "open-search": [], "media-kind": "city-county", "facebook": "https://www.facebook.com/northjerseycom", "rss": [], "city-county-long": -74.14238}, {"video": "", "city-county-name": "Randolph", "city-county-lat": 40.847649, "website": "http://newjerseyhills.com/randolph_reporter/", "twitter": "http://www.twitter.com/RandolphReporte", "name": "Randolph Reporter", "media-type": "newspaper", "open-search": [], "media-kind": "city-county", "facebook": "https://www.facebook.com/RandolphReporter", "rss": ["http://www.newjerseyhills.com/search/?f=rss&t=article&c=randolph_reporter&l=50&s=start_time&sd=desc"], "city-county-long": -74.5748}, {"video": "http://www.youtube.com/user/GreaterMediaNews", "city-county-name": "Red Bank", "city-county-lat": 40.352953, "website": "http://www.gmnews.com/hub/", "twitter": "http://www.twitter.com/greatermedia", "name": "Hub", "media-type": "newspaper", "open-search": [], "media-kind": "city-county", "facebook": "https://www.facebook.com/pages/Greater-Media-Inc/81530194088", "rss": ["http://www.gmnews.com/comments/feed/", "http://www.gmnews.com/feed/"], "city-county-long": -74.07703}, {"video": "", "city-county-name": "Red Bank", "city-county-lat": 40.352953, "website": "http://themonmouthjournal.com/", "twitter": "", "name": "Monmouth Journal", "media-type": "newspaper", "open-search": [], "media-kind": "city-county", "facebook": "https://www.facebook.com/The-Monmouth-Journal-103613023038917/timeline/", "rss": [], "city-county-long": -74.07703}, {"video": "https://www.youtube.com/channel/UCzdIF74kEBLcpdQj5Fy7tdQ", "city-county-name": "Red Bank", "city-county-lat": 40.352953, "website": "http://tworivertimes.com/", "twitter": "http://www.twitter.com/TwoRiverTimes", "name": "Two River Times", "media-type": "newspaper", "open-search": [], "media-kind": "city-county", "facebook": "https://www.facebook.com/thetworivertimes", "rss": ["http://tworivertimes.com/comments/feed/", "http://tworivertimes.com/feed/"], "city-county-long": -74.07703}, {"video": "https://www.youtube.com/user/NorthJersey", "city-county-name": "Ridgefield Park", "city-county-lat": 40.856749, "website": "http://www.northjersey.com/towns/ridgefield-park", "twitter": "", "name": "Ridgefield Park Patriot", "media-type": "newspaper", "open-search": [], "media-kind": "city-county", "facebook": "https://www.facebook.com/northjerseycom", "rss": [], "city-county-long": -74.02278}, {"video": "https://www.youtube.com/user/NorthJersey", "city-county-name": "Ridgewood", "city-county-lat": 40.983997, "website": "http://www.northjersey.com/towns/ridgewood", "twitter": "", "name": "Ridgewood News", "media-type": "newspaper", "open-search": [], "media-kind": "city-county", "facebook": "https://www.facebook.com/northjerseycom", "rss": [], "city-county-long": -74.11438}, {"video": "http://www.youtube.com/user/HeraldMedia", "city-county-name": "Rio Grande", "city-county-lat": 39.017837, "website": "http://www.capemaycountyherald.com/", "twitter": "http://www.twitter.com/HeraldNews", "name": "Cape May County Herald", "media-type": "newspaper", "open-search": ["http://www.capemaycountyherald.com/search/opensearch/generic.xml"], "media-kind": "city-county", "facebook": "https://www.facebook.com/heraldnewspapers", "rss": [], "city-county-long": -74.87515}, {"video": "", "city-county-name": "Roxbury", "city-county-lat": 40.8693, "website": "http://newjerseyhills.com/roxbury_register/", "twitter": "http://www.twitter.com/roxburyregister", "name": "Roxbury Register", "media-type": "newspaper", "open-search": [], "media-kind": "city-county", "facebook": "https://www.facebook.com/RoxburyRegister", "rss": ["http://www.newjerseyhills.com/search/?f=rss&t=article&c=roxbury_register&l=50&s=start_time&sd=desc"], "city-county-long": -74.6635}, {"video": "", "city-county-name": "Rutherford", "city-county-lat": 40.828922, "website": "http://www.northjersey.com/towns/south-bergen", "twitter": "http://www.twitter.com/SouthBergenite", "name": "South Bergenite", "media-type": "newspaper", "open-search": [], "media-kind": "city-county", "facebook": "https://www.facebook.com/southbergenite", "rss": [], "city-county-long": -74.11064}, {"video": "http://www.youtube.com/user/GreaterMediaNews", "city-county-name": "Sayreville", "city-county-lat": 40.430006, "website": "http://www.gmnews.com/sub/", "twitter": "http://www.twitter.com/greatermedia", "name": "Suburban", "media-type": "newspaper", "open-search": [], "media-kind": "city-county", "facebook": "https://www.facebook.com/pages/Greater-Media-Inc/81530194088", "rss": ["http://www.gmnews.com/comments/feed/", "http://www.gmnews.com/feed/"], "city-county-long": -74.417344}, {"video": "", "city-county-name": "Secaucus", "city-county-lat": 40.7885, "website": "http://secaucushomenews.com/", "twitter": "", "name": "Secaucus Home News", "media-type": "newspaper", "open-search": [], "media-kind": "city-county", "facebook": "", "rss": ["http://secaucushomenews.com/comments/feed/", "http://secaucushomenews.com/feed/"], "city-county-long": -74.06}, {"video": "", "city-county-name": "Secaucus", "city-county-lat": 40.7885, "website": "http://hudsonreporter.com/pages/secaucus", "twitter": "http://www.twitter.com/hudson_reporter", "name": "Secaucus Reporter", "media-type": "newspaper", "open-search": [], "media-kind": "city-county", "facebook": "https://www.facebook.com/thehudsonreporter", "rss": [], "city-county-long": -74.06}, {"video": "", "city-county-name": "Sparta", "city-county-lat": 41.035384, "website": "http://www.spartaindependent.com/", "twitter": "http://www.twitter.com/thesinews", "name": "Sparta Independent", "media-type": "newspaper", "open-search": [], "media-kind": "city-county", "facebook": "https://www.facebook.com/thesinews", "rss": [], "city-county-long": -74.63557}, {"video": "", "city-county-name": "Stirling", "city-county-lat": 40.672968, "website": "http://newjerseyhills.com/echoes-sentinel/", "twitter": "http://www.twitter.com/echoessentinel", "name": "Echoes Sentinel", "media-type": "newspaper", "open-search": [], "media-kind": "city-county", "facebook": "https://www.facebook.com/EchoesSentinel", "rss": ["http://www.newjerseyhills.com/search/?f=rss&t=article&c=echoes-sentinel&l=50&s=start_time&sd=desc"], "city-county-long": -74.49171}, {"video": "https://www.youtube.com/user/shorenewstoday", "city-county-name": "Strathmere", "city-county-lat": 39.197394, "website": "http://www.shorenewstoday.com/upper_township/", "twitter": "http://www.twitter.com/shorenewstoday", "name": "Upper Township Gazette", "media-type": "newspaper", "open-search": [], "media-kind": "city-county", "facebook": "https://www.facebook.com/TheCurrentNewspapers", "rss": ["http://www.shorenewstoday.com/search/?f=rss&t=article&c=upper_township&l=50&s=start_time&sd=desc"], "city-county-long": -74.65699}, {"video": "", "city-county-name": "Surf City", "city-county-lat": 39.6621, "website": "http://thesandpaper.villagesoup.com/center/news", "twitter": "http://www.twitter.com/TheSandPaperLBI", "name": "SandPaper", "media-type": "newspaper", "open-search": [], "media-kind": "city-county", "facebook": "https://www.facebook.com/pages/The-SandPaper/158895537503624", "rss": [], "city-county-long": -74.1651}, {"video": "https://www.youtube.com/user/NorthJersey", "city-county-name": "Sussex", "city-county-lat": 41.229754, "website": "http://www.northjersey.com/towns/vernon-township", "twitter": "", "name": "Aim Vernon", "media-type": "newspaper", "open-search": [], "media-kind": "city-county", "facebook": "https://www.facebook.com/pages/AIM-Vernon/118348368238125", "rss": [], "city-county-long": -74.60203}, {"video": "https://www.youtube.com/user/NorthJersey", "city-county-name": "Teaneck", "city-county-lat": 40.890964, "website": "http://www.northjersey.com/towns/teaneck", "twitter": "", "name": "Teaneck Suburbanite", "media-type": "newspaper", "open-search": [], "media-kind": "city-county", "facebook": "https://www.facebook.com/northjerseycom", "rss": [], "city-county-long": -74.01115}, {"video": "", "city-county-name": "Toms River", "city-county-lat": 39.974584, "website": "http://micromediapubs.com/toms-river/", "twitter": "http://www.twitter.com/micromediapubs", "name": "Toms River Times", "media-type": "newspaper", "open-search": [], "media-kind": "city-county", "facebook": "https://www.facebook.com/thetomsrivertimes", "rss": ["http://www.micromediapubs.com/feed"], "city-county-long": -74.15141}, {"video": "", "city-county-name": "Trenton", "city-county-lat": 40.280531, "website": "http://www.capitolwire.com", "twitter": "http://www.twitter.com/Capitolwire", "name": "Capitolwire.com", "media-type": "newspaper", "open-search": [], "media-kind": "city-county", "facebook": "", "rss": [], "city-county-long": -74.712018}, {"video": "https://www.youtube.com/user/tvjersey", "city-county-name": "Trenton", "city-county-lat": 40.280531, "website": "http://www.nj.com/times/", "twitter": "http://www.twitter.com/njdotcom", "name": "Times", "media-type": "newspaper", "open-search": [], "media-kind": "city-county", "facebook": "https://www.facebook.com/TimesofTrenton", "rss": [], "city-county-long": -74.712018}, {"video": "https://www.youtube.com/channel/UCfEUmRPkM0S96o1-TvrDmNA", "city-county-name": "Trenton", "city-county-lat": 40.280531, "website": "http://www.trentonian.com/", "twitter": "http://www.twitter.com/Trentonian", "name": "Trentonian", "media-type": "newspaper", "open-search": [], "media-kind": "city-county", "facebook": "https://www.facebook.com/Trentonian", "rss": [], "city-county-long": -74.712018}, {"video": "", "city-county-name": "Union", "city-county-lat": 40.695401, "website": "http://essexnewsdaily.com/", "twitter": "", "name": "Essex News Daily", "media-type": "newspaper", "open-search": [], "media-kind": "city-county", "facebook": "", "rss": ["http://essexnewsdaily.com/feed", "http://essexnewsdaily.com/comments/feed"], "city-county-long": -74.26933}, {"video": "", "city-county-name": "Union", "city-county-lat": 40.695401, "website": "http://unionnewsdaily.com/", "twitter": "", "name": "Union News Daily", "media-type": "newspaper", "open-search": [], "media-kind": "city-county", "facebook": "https://www.facebook.com/worrallnewspapers", "rss": ["http://unionnewsdaily.com/comments/feed", "http://unionnewsdaily.com/feed"], "city-county-long": -74.26933}, {"video": "", "city-county-name": "Union City", "city-county-lat": 40.769796, "website": "http://hudsonreporter.com/pages/union_city", "twitter": "http://www.twitter.com/hudson_reporter", "name": "Union City Reporter", "media-type": "newspaper", "open-search": [], "media-kind": "city-county", "facebook": "https://www.facebook.com/thehudsonreporter", "rss": [], "city-county-long": -74.022351}, {"video": "", "city-county-name": "Vernon", "city-county-lat": 41.193708, "website": "http://www.advertisernewsnorth.com/", "twitter": "", "name": "Vernon Advertiser-News", "media-type": "newspaper", "open-search": [], "media-kind": "city-county", "facebook": "https://www.facebook.com/theadvnews", "rss": [], "city-county-long": -74.5089}, {"video": "", "city-county-name": "Verona", "city-county-lat": 40.832449, "website": "http://newjerseyhills.com/cg-v_observers/", "twitter": "http://www.twitter.com/CGVObserver", "name": "Verona Observer", "media-type": "newspaper", "open-search": [], "media-kind": "city-county", "facebook": "https://www.facebook.com/pages/CedarGroveVeronaObserver/110770215713982", "rss": ["http://www.newjerseyhills.com/search/?f=rss&t=article&c=cg-v_observers&l=50&s=start_time&sd=desc"], "city-county-long": -74.24227}, {"video": "https://www.youtube.com/user/NorthJersey", "city-county-name": "Verona", "city-county-lat": 40.832449, "website": "http://www.northjersey.com/towns/verona-cedar-grove", "twitter": "http://www.twitter.com/VCG_Times", "name": "Verona-Cedar Grove Times", "media-type": "newspaper", "open-search": [], "media-kind": "city-county", "facebook": "https://www.facebook.com/VeronaCedarGroveTimes", "rss": [], "city-county-long": -74.24227}, {"video": "", "city-county-name": "Vineland", "city-county-lat": 39.492265, "website": "http://www.thedailyjournal.com/", "twitter": "http://www.twitter.com/thedailyjournal", "name": "Vineland Daily Journal", "media-type": "newspaper", "open-search": [], "media-kind": "city-county", "facebook": "https://www.facebook.com/vinelanddailyjournal", "rss": [], "city-county-long": -75.01887}, {"video": "https://www.youtube.com/user/NorthJersey", "city-county-name": "Waldwick", "city-county-lat": 41.013109, "website": "http://www.northjersey.com/towns/waldwick", "twitter": "", "name": "Waldwick Suburban News", "media-type": "newspaper", "open-search": [], "media-kind": "city-county", "facebook": "https://www.facebook.com/northjerseycom", "rss": [], "city-county-long": -74.12231}, {"video": "", "city-county-name": "Wayne", "city-county-lat": 40.943608, "website": "http://www.northjersey.com/towns/wayne", "twitter": "", "name": "Wayne Today", "media-type": "newspaper", "open-search": [], "media-kind": "city-county", "facebook": "https://www.facebook.com/WayneTodayNewspaper", "rss": [], "city-county-long": -74.25004}, {"video": "", "city-county-name": "Weehawken", "city-county-lat": 40.7664, "website": "http://hudsonreporter.com/pages/weehawken", "twitter": "http://www.twitter.com/hudson_reporter", "name": "Weehawken Reporter", "media-type": "newspaper", "open-search": [], "media-kind": "city-county", "facebook": "https://www.facebook.com/thehudsonreporter", "rss": [], "city-county-long": -74.0254}, {"video": "https://www.youtube.com/user/NorthJersey", "city-county-name": "West Milford", "city-county-lat": 41.102569, "website": "http://www.northjersey.com/towns/west-milford", "twitter": "", "name": "Aim West Milford", "media-type": "newspaper", "open-search": [], "media-kind": "city-county", "facebook": "https://www.facebook.com/pages/AIM-West-Milford/174749972561012", "rss": [], "city-county-long": -74.37047}, {"video": "", "city-county-name": "West Milford", "city-county-lat": 41.102569, "website": "http://www.westmilfordmessenger.com/", "twitter": "", "name": "West Milford Messenger", "media-type": "newspaper", "open-search": [], "media-kind": "city-county", "facebook": "https://www.facebook.com/wmmnews", "rss": [], "city-county-long": -74.37047}, {"video": "", "city-county-name": "West New York", "city-county-lat": 40.7895, "website": "http://hudsonreporter.com/pages/west_new_york", "twitter": "http://www.twitter.com/hudson_reporter", "name": "West New York Reporter", "media-type": "newspaper", "open-search": [], "media-kind": "city-county", "facebook": "https://www.facebook.com/thehudsonreporter", "rss": [], "city-county-long": -74.01223}, {"video": "", "city-county-name": "Westfield", "city-county-lat": 40.649202, "website": "http://www.goleader.com/", "twitter": "http://www.twitter.com/leadertimes", "name": "Westfield Leader", "media-type": "newspaper", "open-search": [], "media-kind": "city-county", "facebook": "https://www.facebook.com/leadertimes", "rss": [], "city-county-long": -74.34567}, {"video": "", "city-county-name": "Westwood", "city-county-lat": 40.99904, "website": "http://www.northjersey.com/towns/pascack-valley", "twitter": "http://www.twitter.com/pvcommunitylife", "name": "Pascack Valley Community Life", "media-type": "newspaper", "open-search": [], "media-kind": "city-county", "facebook": "https://www.facebook.com/pages/Pascack-Valley-Community-Life/297314287025496", "rss": [], "city-county-long": -74.03291}, {"video": "https://www.youtube.com/user/shorenewstoday", "city-county-name": "Wildwood", "city-county-lat": 38.987556, "website": "http://www.shorenewstoday.com/wildwood/", "twitter": "http://www.twitter.com/wildwoodleader", "name": "Wildwood Leader", "media-type": "newspaper", "open-search": [], "media-kind": "city-county", "facebook": "https://www.facebook.com/wildwoodleader", "rss": ["http://www.shorenewstoday.com/search/?f=rss&t=article&c=wildwood&l=50&s=start_time&sd=desc"], "city-county-long": -74.822}, {"video": "https://www.youtube.com/user/burlcotimes", "city-county-name": "Willingboro", "city-county-lat": 40.029011, "website": "http://www.burlingtoncountytimes.com/?link=fromphillyburbs", "twitter": "", "name": "Burlington County Times", "media-type": "newspaper", "open-search": [], "media-kind": "city-county", "facebook": "https://www.facebook.com/burlingtoncountytimes", "rss": ["http://www.burlingtoncountytimes.com/search/?f=rss&t=article&l=50&s=start_time&sd=desc&k[]=%23topstory"], "city-county-long": -74.88257}, {"video": "", "city-county-name": "Windsor", "city-county-lat": 40.242009, "website": "http://www.centraljersey.com/news/windsor_hights_herald/", "twitter": "http://www.twitter.com/WHHerald", "name": "Windsor-Hights Herald", "media-type": "newspaper", "open-search": [], "media-kind": "city-county", "facebook": "https://www.facebook.com/WindsorHightsHerald", "rss": ["http://www.centraljersey.com/search/?f=rss&t=article&c=news/windsor_hights_herald&l=50&s=start_time&sd=desc"], "city-county-long": -74.58006}, {"video": "", "city-county-name": "Woodbury", "city-county-lat": 39.830313, "website": "http://www.nj.com/gloucester-county/", "twitter": "", "name": "Gloucester County Times", "media-type": "newspaper", "open-search": [], "media-kind": "city-county", "facebook": "https://www.facebook.com/GCTimes", "rss": [], "city-county-long": -75.13221}, {"video": "https://www.youtube.com/user/NorthJersey", "city-county-name": "Wyckoff", "city-county-lat": 40.998583, "website": "http://www.northjersey.com/towns/wyckoff", "twitter": "", "name": "Wyckoff Suburban News", "media-type": "newspaper", "open-search": [], "media-kind": "city-county", "facebook": "https://www.facebook.com/northjerseycom", "rss": [], "city-county-long": -74.1671}, {"video": "", "city-county-name": "Bergen Community College", "city-county-lat": 40.9508, "website": "http://torchbcc.com/", "twitter": "http://www.twitter.com/TorchHeadSays", "name": "The Torch", "media-type": "newspaper", "open-search": [], "media-kind": "college", "facebook": "https://www.facebook.com/BergenTorch", "rss": ["http://torchbcc.com/feed/atom/", "http://torchbcc.com/feed/"], "city-county-long": -74.0892}, {"video": "", "city-county-name": "Camden County College", "city-county-lat": 39.785, "website": "http://www.camdencc.edu/studentlife/campuspress.cfm", "twitter": "", "name": "Campus Press", "media-type": "newspaper", "open-search": [], "media-kind": "college", "facebook": "", "rss": [], "city-county-long": -75.0385}, {"video": "http://www.youtube.com/user/TCNJSignal", "city-county-name": "College of New Jersey", "city-county-lat": 40.2688, "website": "http://www.tcnjsignal.net/", "twitter": "http://www.twitter.com/tcnjsignal", "name": "The Signal", "media-type": "newspaper", "open-search": [], "media-kind": "college", "facebook": "http://www.facebook.com/tcnjsignal", "rss": ["http://www.tcnjsignal.net/feed/", "http://www.tcnjsignal.net/comments/feed/"], "city-county-long": -74.7809}, {"video": "http://www.youtube.com/user/DrewAcornOnline", "city-county-name": "Drew University", "city-county-lat": 40.7611, "website": "http://drewacorn.com/", "twitter": "http://www.twitter.com/DrewAcorn", "name": "The Acorn", "media-type": "newspaper", "open-search": [], "media-kind": "college", "facebook": "https://www.facebook.com/theacorn", "rss": [], "city-county-long": -74.4282}, {"video": "http://www.youtube.com/user/KeanTower", "city-county-name": "Kean University", "city-county-lat": 40.6781, "website": "http://kutower.com/", "twitter": "http://www.twitter.com/KeanTower", "name": "The Tower", "media-type": "newspaper", "open-search": ["https://kutower.com/osd.xml", "https://s1.wp.com/opensearch.xml"], "media-kind": "college", "facebook": "https://www.facebook.com/KUTower", "rss": ["http://kutower.com/feed/", "http://kutower.com/comments/feed/"], "city-county-long": -74.2343}, {"video": "http://www.youtube.com/user/themontclarion", "city-county-name": "Montclair State", "city-county-lat": 40.8609, "website": "http://www.themontclarion.org/", "twitter": "http://www.twitter.com/TheMontclarion", "name": "The Montclarion", "media-type": "newspaper", "open-search": [], "media-kind": "college", "facebook": "https://www.facebook.com/pages/The-Montclarion/208399175882330", "rss": ["http://themontclarion.org/feed/", "http://themontclarion.org/comments/feed/"], "city-county-long": -74.1983}, {"video": "", "city-county-name": "NJ Institute of Tech", "city-county-lat": 40.7428, "website": "http://njitvector.com/", "twitter": "http://www.twitter.com/TheNJITVector", "name": "The Vector Online", "media-type": "newspaper", "open-search": [], "media-kind": "college", "facebook": "https://www.facebook.com/njitvector", "rss": ["http://njitvector.com/home/feed/", "http://njitvector.com/feed/", "http://njitvector.com/comments/feed/"], "city-county-long": -74.1771}, {"video": "", "city-county-name": "Princeton", "city-county-lat": 40.344, "website": "http://www.wordpress.nassauweekly.com/", "twitter": "http://www.twitter.com/nassau_weekly", "name": "Nassau Weekly", "media-type": "newspaper", "open-search": [], "media-kind": "college", "facebook": "http://www.facebook.com/thenassauweekly", "rss": ["http://www.nassauweekly.com/comments/feed/", "http://www.nassauweekly.com/feed/"], "city-county-long": -74.6514}, {"video": "http://www.youtube.com/user/DailyPrincetonian", "city-county-name": "Princeton", "city-county-lat": 40.344, "website": "http://www.dailyprincetonian.com/", "twitter": "http://www.twitter.com/princetonian", "name": "The Daily Princetonian", "media-type": "newspaper", "open-search": [], "media-kind": "college", "facebook": "http://www.facebook.com/DailyPrincetonian", "rss": [], "city-county-long": -74.6514}, {"video": "http://www.youtube.com/channel/UC1pEPDXmUmNKmY91vSayc4A", "city-county-name": "Ramapo College", "city-county-lat": 41.0821, "website": "http://ramaponews.com/", "twitter": "http://www.twitter.com/ramaponews", "name": "Ramapo News", "media-type": "newspaper", "open-search": [], "media-kind": "college", "facebook": "https://www.facebook.com/pages/Ramapo-News/162390193812544", "rss": [], "city-county-long": -74.1746}, {"video": "http://www.youtube.com/theridernewsvideo", "city-county-name": "Rider University", "city-county-lat": 40.28, "website": "http://www.theridernews.com/", "twitter": "http://www.twitter.com/theridernews", "name": "The Rider News", "media-type": "newspaper", "open-search": [], "media-kind": "college", "facebook": "http://www.facebook.com/theridernews", "rss": ["http://www.theridernews.com/feed/", "http://www.theridernews.com/comments/feed/", "http://www.theridernews.com/homepage/feed/"], "city-county-long": -74.7386}, {"video": "http://www.youtube.com/user/TheWhitOnline", "city-county-name": "Rowan University", "city-county-lat": 39.7103, "website": "http://www.thewhitonline.com/", "twitter": "http://www.twitter.com/TheWhitOnline", "name": "The Whit", "media-type": "newspaper", "open-search": [], "media-kind": "college", "facebook": "http://www.facebook.com/TheWhitOnline", "rss": ["http://thewhitonline.com/comments/feed/", "http://thewhitonline.com/feed/"], "city-county-long": -75.1179}, {"video": "", "city-county-name": "Rutgers", "city-county-lat": 40.4879, "website": "http://www.dailytargum.com/", "twitter": "http://www.twitter.com/Daily_Targum", "name": "Daily Targum", "media-type": "newspaper", "open-search": [], "media-kind": "college", "facebook": "http://www.facebook.com/thedailytargum", "rss": [], "city-county-long": -74.4398}, {"video": "http://www.youtube.com/user/RNObserver", "city-county-name": "Rutgers", "city-county-lat": 40.4879, "website": "http://therutgersobserver.tumblr.com/", "twitter": "http://www.twitter.com/RNObserver", "name": "The Observer", "media-type": "newspaper", "open-search": [], "media-kind": "college", "facebook": "http://www.facebook.com/RNObserver", "rss": ["http://therutgersobserver.tumblr.com/rss"], "city-county-long": -74.4398}, {"video": "http://www.youtube.com/user/TheSetonianOnline", "city-county-name": "Seton Hall", "city-county-lat": 40.7423, "website": "http://www.thesetonian.com/", "twitter": "http://www.twitter.com/Setonian", "name": "The Setonian", "media-type": "newspaper", "open-search": [], "media-kind": "college", "facebook": "http://www.facebook.com/pages/The-Setonian/38388411910", "rss": ["http://www.thesetonian.com/feed/", "http://www.thesetonian.com/comments/feed/"], "city-county-long": -74.2457}, {"video": "", "city-county-name": "William Paterson University", "city-county-lat": 40.9459, "website": "http://www.pioneertimeswpu.com/", "twitter": "", "name": "Pioneer Times", "media-type": "newspaper", "open-search": [], "media-kind": "college", "facebook": "", "rss": [], "city-county-long": -74.1984}], "radio": [{"video": "", "city-county-name": "Atlantic City", "city-county-lat": 39.364966, "website": "http://www.951wayv.com/", "twitter": "http://www.twitter.com/951wayv", "name": "WAYV 95.1 FM", "media-type": "radio", "open-search": [], "media-kind": "Top 40", "facebook": "https://www.facebook.com/951wayvfm", "rss": ["http://www.951wayv.com/feed/", "http://www.951wayv.com/comments/feed/"], "city-county-long": -74.43903}, {"video": "", "city-county-name": "Atlantic City", "city-county-lat": 39.364966, "website": "http://1071radio.com/", "twitter": "", "name": "WBHX 95.1 FM", "media-type": "radio", "open-search": [], "media-kind": "Top 40", "facebook": "https://www.facebook.com/1071fm", "rss": ["http://1071radio.com/feed", "http://1071radio.com/comments/feed"], "city-county-long": -74.43903}, {"video": "", "city-county-name": "Atlantic City", "city-county-lat": 39.364966, "website": "http://973espn.com/", "twitter": "http://www.twitter.com/973espn", "name": "WENJ 95.1 FM", "media-type": "radio", "open-search": [], "media-kind": "Top 40", "facebook": "https://www.facebook.com/973espnfm", "rss": ["http://973espn.com/feed/"], "city-county-long": -74.43903}, {"video": "http://www.youtube.com/user/LiteRock969", "city-county-name": "Atlantic City", "city-county-lat": 39.364966, "website": "http://literock969.com/", "twitter": "http://www.twitter.com/literock969", "name": "WFPG 95.1 FM", "media-type": "radio", "open-search": [], "media-kind": "Top 40", "facebook": "https://www.facebook.com/literock969", "rss": ["http://literock969.com/feed/"], "city-county-long": -74.43903}, {"video": "http://www.youtube.com/user/1037WMGM", "city-county-name": "Atlantic City", "city-county-lat": 39.364966, "website": "http://www.1037wmgm.com/", "twitter": "http://www.twitter.com/1037WMGM", "name": "WMGM 95.1 FM", "media-type": "radio", "open-search": [], "media-kind": "Top 40", "facebook": "https://www.facebook.com/pages/1037-WMGM-Rocks/268318956512948", "rss": [], "city-county-long": -74.43903}, {"video": "", "city-county-name": "Atlantic City", "city-county-lat": 39.364966, "website": "http://www.classicoldieswmid.com/", "twitter": "", "name": "WMID 95.1 FM", "media-type": "radio", "open-search": [], "media-kind": "Top 40", "facebook": "https://www.facebook.com/pages/1340-WMID-am/140774352679533", "rss": ["http://www.classicoldieswmid.com/feed/", "http://www.classicoldieswmid.com/comments/feed/"], "city-county-long": -74.43903}, {"video": "", "city-county-name": "Atlantic City", "city-county-lat": 39.364966, "website": "http://www.wondradio.com/", "twitter": "http://www.twitter.com/1400WOND", "name": "WOND 95.1 FM", "media-type": "radio", "open-search": [], "media-kind": "Top 40", "facebook": "https://www.facebook.com/pages/News-Talk-1400-WOND/171197396295889", "rss": [], "city-county-long": -74.43903}, {"video": "", "city-county-name": "Atlantic City", "city-county-lat": 39.364966, "website": "http://catcountry1073.com/", "twitter": "http://www.twitter.com/CatCountry1073", "name": "WPUR 95.1 FM", "media-type": "radio", "open-search": [], "media-kind": "Top 40", "facebook": "https://www.facebook.com/WPURCatCountry", "rss": ["http://catcountry1073.com/feed/"], "city-county-long": -74.43903}, {"video": "", "city-county-name": "Atlantic City", "city-county-lat": 39.364966, "website": "http://sojo1049.com/", "twitter": "http://www.twitter.com/sojo1049fm", "name": "WSJO 95.1 FM", "media-type": "radio", "open-search": [], "media-kind": "Top 40", "facebook": "https://www.facebook.com/sojo1049fm", "rss": ["http://sojo1049.com/feed/"], "city-county-long": -74.43903}, {"video": "", "city-county-name": "Atlantic City", "city-county-lat": 39.364966, "website": "http://www.993thebuzz.com/", "twitter": "http://www.twitter.com/993thebuzz", "name": "WZBZ 95.1 FM", "media-type": "radio", "open-search": [], "media-kind": "Top 40", "facebook": "https://www.facebook.com/993thebuzz", "rss": ["http://www.993thebuzz.com/comments/feed/", "http://www.993thebuzz.com/feed/"], "city-county-long": -74.43903}, {"video": "http://www.youtube.com/user/wzxlrocks", "city-county-name": "Atlantic City", "city-county-lat": 39.364966, "website": "http://www.wzxl.com/", "twitter": "http://www.twitter.com/1007WZXL", "name": "WZXL 95.1 FM", "media-type": "radio", "open-search": [], "media-kind": "Top 40", "facebook": "https://www.facebook.com/pages/1007-WZXL/132701146803533", "rss": ["http://www.wzxl.com/feed/", "http://www.wzxl.com/comments/feed/"], "city-county-long": -74.43903}, {"video": "", "city-county-name": "Berkeley", "city-county-lat": 39.907488, "website": "http://wobm.com/", "twitter": "http://www.twitter.com/wobm", "name": "WOBM 92.7 FM", "media-type": "radio", "open-search": [], "media-kind": "Adult Contemp", "facebook": "https://www.facebook.com/927WOBM", "rss": ["http://wobm.com/feed/"], "city-county-long": -74.081074}, {"video": "", "city-county-name": "Blairstown", "city-county-lat": 40.96035, "website": "http://www.homegrownradionj.com", "twitter": "", "name": "Web", "media-type": "radio", "open-search": [], "media-kind": "", "facebook": "https://www.facebook.com/pages/KITTY-Purrfect-Sounds-on-wwwHGRNJorg/69335188846", "rss": [], "city-county-long": -74.96243}, {"video": "", "city-county-name": "Blairstown", "city-county-lat": 40.96035, "website": "http://www.max1063.com/", "twitter": "http://www.twitter.com/MAX1063WHCY", "name": "WHCY", "media-type": "radio", "open-search": [], "media-kind": "", "facebook": "https://www.facebook.com/max1063", "rss": [], "city-county-long": -74.96243}, {"video": "", "city-county-name": "Eatontown", "city-county-lat": 40.301979, "website": "http://www.1410amradio.com/", "twitter": "", "name": "WHTG 1410 AM", "media-type": "radio", "open-search": [], "media-kind": "Oldies", "facebook": "", "rss": [], "city-county-long": -74.06889}, {"video": "", "city-county-name": "Eatontown", "city-county-lat": 40.301979, "website": "http://thunder106.com/", "twitter": "", "name": "WKMK 1410 AM", "media-type": "radio", "open-search": [], "media-kind": "Oldies", "facebook": "", "rss": ["http://thunder106.com/feed/", "http://thunder106.com/comments/feed/"], "city-county-long": -74.06889}, {"video": "", "city-county-name": "Glassboro", "city-county-lat": 39.700008, "website": "http://wgls.rowan.edu/", "twitter": "http://www.twitter.com/RowanRadio", "name": "WGLS 89.7 FM", "media-type": "radio", "open-search": [], "media-kind": "Rowan University", "facebook": "https://www.facebook.com/RowanRadio", "rss": [], "city-county-long": -75.11951}, {"video": "", "city-county-name": "Hackettstown", "city-county-lat": 40.861748, "website": "http://www.wnti.org/", "twitter": "", "name": "WNTI 91.9 FM", "media-type": "radio", "open-search": [], "media-kind": "Free Form", "facebook": "https://www.facebook.com/wnti919fm", "rss": [], "city-county-long": -74.83054}, {"video": "", "city-county-name": "Hackettstown", "city-county-lat": 40.861748, "website": "http://wrnjradio.com/", "twitter": "http://www.twitter.com/wrnjradio", "name": "WRNJ 91.9 FM", "media-type": "radio", "open-search": [], "media-kind": "Free Form", "facebook": "https://www.facebook.com/wrnjradio", "rss": ["http://wrnjradio.com/feed/", "http://wrnjradio.com/comments/feed/"], "city-county-long": -74.83054}, {"video": "http://www.youtube.com/user/WFMU", "city-county-name": "Jersey City", "city-county-lat": 40.73276, "website": "http://www.wfmu.org/", "twitter": "http://www.twitter.com/WFMU", "name": "WFMU 91.1 FM", "media-type": "radio", "open-search": [], "media-kind": "Freeform", "facebook": "https://www.facebook.com/wfmuradio", "rss": ["https://wfmu.org/static-home-page/feed/"], "city-county-long": -74.075485}, {"video": "", "city-county-name": "Lincroft", "city-county-lat": 40.337374, "website": "http://90.5thenight.org/", "twitter": "http://www.twitter.com/wbjb", "name": "WBJB 90.5 FM", "media-type": "radio", "open-search": [], "media-kind": "Public Radio", "facebook": "https://www.facebook.com/BrookdalePublicRadio", "rss": ["http://wbjb.org/home.php/feed/", "http://wbjb.org/home.php/comments/feed/"], "city-county-long": -74.12059}, {"video": "http://www.youtube.com/user/943ThePoint", "city-county-name": "Long Branch", "city-county-lat": 40.297932, "website": "http://943thepoint.com/", "twitter": "http://www.twitter.com/943thePoint", "name": "WJLK 94.3 FM", "media-type": "radio", "open-search": [], "media-kind": "Adult Top 40", "facebook": "https://www.facebook.com/943thepoint", "rss": ["http://943thepoint.com/feed/"], "city-county-long": -73.99097}, {"video": "", "city-county-name": "Long Branch", "city-county-lat": 40.297932, "website": "http://www.wrat.com/", "twitter": "http://www.twitter.com/ratrock959", "name": "WRAT 94.3 FM", "media-type": "radio", "open-search": [], "media-kind": "Adult Top 40", "facebook": "https://www.facebook.com/pages/WRAT-959FM/8422119693", "rss": [], "city-county-long": -73.99097}, {"video": "", "city-county-name": "Long Branch", "city-county-lat": 40.297932, "website": "http://1071radio.com/", "twitter": "", "name": "WWZY 94.3 FM", "media-type": "radio", "open-search": [], "media-kind": "Adult Top 40", "facebook": "https://www.facebook.com/1071fm", "rss": ["http://1071radio.com/feed", "http://1071radio.com/comments/feed"], "city-county-long": -73.99097}, {"video": "http://www.youtube.com/user/1057thehawk", "city-county-name": "Manahawkin", "city-county-lat": 39.707575, "website": "http://1057thehawk.com/", "twitter": "http://www.twitter.com/1057thehawk", "name": "WCHR 105.7 FM", "media-type": "radio", "open-search": [], "media-kind": "Classic Rock", "facebook": "https://www.facebook.com/1057thehawk", "rss": ["http://1057thehawk.com/feed/"], "city-county-long": -74.25933}, {"video": "http://www.youtube.com/user/1001WJRZ", "city-county-name": "Manahawkin", "city-county-lat": 39.707575, "website": "http://www.wjrz.com/", "twitter": "http://www.twitter.com/WJRZFM", "name": "WJRZ 105.7 FM", "media-type": "radio", "open-search": [], "media-kind": "Classic Rock", "facebook": "https://www.facebook.com/100.1WJRZ", "rss": [], "city-county-long": -74.25933}, {"video": "http://www.youtube.com/user/WDHAFM", "city-county-name": "Morristown", "city-county-lat": 40.79215, "website": "http://www.wdhafm.com/", "twitter": "http://www.twitter.com/WDHAFM", "name": "WDHA 105.5 FM", "media-type": "radio", "open-search": [], "media-kind": "Rock", "facebook": "https://www.facebook.com/pages/1055-WDHA/67102089609", "rss": [], "city-county-long": -74.48559}, {"video": "", "city-county-name": "Morristown", "city-county-lat": 40.79215, "website": "http://www.wmtram.com/", "twitter": "http://www.twitter.com/WMTRAM", "name": "WMTR 105.5 FM", "media-type": "radio", "open-search": [], "media-kind": "Rock", "facebook": "https://www.facebook.com/pages/WMTR-AM-1250/96642535119", "rss": [], "city-county-long": -74.48559}, {"video": "", "city-county-name": "New Brunswick", "city-county-lat": 40.488304, "website": "http://www.wctcam.com/", "twitter": "http://www.twitter.com/1450WCTC", "name": "WCTC 1450 AM", "media-type": "radio", "open-search": [], "media-kind": "News/Talk", "facebook": "https://www.facebook.com/pages/1450-WCTC/100727266676973", "rss": [], "city-county-long": -74.44775}, {"video": "", "city-county-name": "New Brunswick", "city-county-lat": 40.488304, "website": "http://www.magic983.com/", "twitter": "http://www.twitter.com/Magic983", "name": "WMGQ 1450 AM", "media-type": "radio", "open-search": [], "media-kind": "News/Talk", "facebook": "https://www.facebook.com/magic983", "rss": [], "city-county-long": -74.44775}, {"video": "", "city-county-name": "Newark", "city-county-lat": 40.736101, "website": "http://www.wbgo.org/", "twitter": "http://www.twitter.com/WBGO", "name": "WBGO 88.3 FM", "media-type": "radio", "open-search": [], "media-kind": "Jazz", "facebook": "https://www.facebook.com/wbgojazz", "rss": [], "city-county-long": -74.22509}, {"video": "", "city-county-name": "Pemberton", "city-county-lat": 39.961183, "website": "http://www.z889.org/", "twitter": "http://www.twitter.com/z889", "name": "WBZC 88.9 FM", "media-type": "radio", "open-search": [], "media-kind": "Adult Alt", "facebook": "https://www.facebook.com/BCCZ889", "rss": [], "city-county-long": -74.66266}, {"video": "", "city-county-name": "Piscataway", "city-county-lat": 40.555355, "website": "http://www.thecore.fm/", "twitter": "http://www.twitter.com/TheCoreFM", "name": "WVPH 90.3 FM", "media-type": "radio", "open-search": [], "media-kind": "Variety", "facebook": "https://www.facebook.com/pages/903-FM-The-Pulse-WVPH-FM/155812144462086", "rss": [], "city-county-long": -74.46094}, {"video": "", "city-county-name": "Pompton Lakes", "city-county-lat": 40.99948, "website": "http://www.ghtradio.com/", "twitter": "", "name": "WGHT 1500 AM", "media-type": "radio", "open-search": [], "media-kind": "Oldies", "facebook": "", "rss": [], "city-county-long": -74.28807}, {"video": "http://www.youtube.com/user/WPRBDiscourse", "city-county-name": "Princeton", "city-county-lat": 40.357439, "website": "http://www.wprb.com/", "twitter": "http://www.twitter.com/wprb", "name": "WPRB 103.3 FM", "media-type": "radio", "open-search": [], "media-kind": "Freeform", "facebook": "https://www.facebook.com/wprbfm", "rss": ["http://wprb.com/comments/feed/", "http://wprb.com/home/feed/", "http://wprb.com/feed/"], "city-county-long": -74.64922}, {"video": "http://www.youtube.com/user/WSOUFM", "city-county-name": "South Orange", "city-county-lat": 40.74765, "website": "http://www.wsou.net/", "twitter": "http://www.twitter.com/WSOU", "name": "WSOU 89.5 FM", "media-type": "radio", "open-search": [], "media-kind": "Alt Rock", "facebook": "https://www.facebook.com/WSOUFM", "rss": [], "city-county-long": -74.25881}, {"video": "", "city-county-name": "Sussex", "city-county-lat": 41.229754, "website": "http://www.wnnj.com/", "twitter": "http://www.twitter.com/1037WNNJ", "name": "WNNJ 103.7 FM", "media-type": "radio", "open-search": [], "media-kind": "Oldies", "facebook": "https://www.facebook.com/wnnj1037", "rss": [], "city-county-long": -74.60203}, {"video": "http://www.youtube.com/user/WNNJ1037", "city-county-name": "Sussex", "city-county-lat": 41.229754, "website": "http://www.wnnj.com/", "twitter": "http://www.twitter.com/1037WNNJ", "name": "WNNJ 103.7 FM", "media-type": "radio", "open-search": [], "media-kind": "Oldies", "facebook": "https://www.facebook.com/wnnj1037", "rss": [], "city-county-long": -74.60203}, {"video": "", "city-county-name": "Sussex", "city-county-lat": 41.229754, "website": "http://www.wsus1023.com", "twitter": "http://www.twitter.com/1023WSUS", "name": "WSUS 103.7 FM", "media-type": "radio", "open-search": [], "media-kind": "Oldies", "facebook": "https://www.facebook.com/wsus1023", "rss": [], "city-county-long": -74.60203}, {"video": "http://www.youtube.com/user/WFDUFM", "city-county-name": "Teaneck", "city-county-lat": 40.890964, "website": "http://www.wfdu.fm/", "twitter": "http://www.twitter.com/wfdufm", "name": "WFDU 89.1 FM", "media-type": "radio", "open-search": [], "media-kind": "Freeform", "facebook": "https://www.facebook.com/WFDURADIO", "rss": [], "city-county-long": -74.01115}, {"video": "", "city-county-name": "Trenton", "city-county-lat": 40.280531, "website": "http://www.wdvrfm.org/", "twitter": "", "name": "WDVR 89.7 FM", "media-type": "radio", "open-search": [], "media-kind": "Americana", "facebook": "https://www.facebook.com/Wdvr897", "rss": [], "city-county-long": -74.712018}, {"video": "", "city-county-name": "Trenton", "city-county-lat": 40.280531, "website": "http://www.wimg1300.com/", "twitter": "http://www.twitter.com/WIMG1300AM", "name": "WIMG 89.7 FM", "media-type": "radio", "open-search": [], "media-kind": "Americana", "facebook": "https://www.facebook.com/WIMG1300AM", "rss": [], "city-county-long": -74.712018}, {"video": "", "city-county-name": "Trenton", "city-county-lat": 40.280531, "website": "http://nj1015.com/", "twitter": "http://www.twitter.com/nj1015", "name": "WKXW 89.7 FM", "media-type": "radio", "open-search": [], "media-kind": "Americana", "facebook": "https://www.facebook.com/nj1015", "rss": ["http://nj1015.com/feed/"], "city-county-long": -74.712018}, {"video": "http://www.youtube.com/user/945PST", "city-county-name": "Trenton", "city-county-lat": 40.280531, "website": "http://www.wpst.com/", "twitter": "http://www.twitter.com/wpst", "name": "WPST 89.7 FM", "media-type": "radio", "open-search": [], "media-kind": "Americana", "facebook": "https://www.facebook.com/945PST", "rss": [], "city-county-long": -74.712018}, {"video": "http://www.youtube.com/user/classicalnetworkwwfm", "city-county-name": "Trenton", "city-county-lat": 40.280531, "website": "http://www.wwfm.org/", "twitter": "http://www.twitter.com/WWFMClassical", "name": "WWFM 89.7 FM", "media-type": "radio", "open-search": [], "media-kind": "Americana", "facebook": "https://www.facebook.com/wwfmtheclassicalnetwork", "rss": [], "city-county-long": -74.712018}, {"video": "http://www.youtube.com/user/SouthJerseysPraiseFM", "city-county-name": "Woodbine", "city-county-lat": 39.275059, "website": "http://www.praise899.org/", "twitter": "", "name": "WJPH 89.9 FM", "media-type": "radio", "open-search": [], "media-kind": "Christian Teaching", "facebook": "https://www.facebook.com/pages/South-Jerseys-Praise-FM-WJPG-881-WJPH-899/152570938123875", "rss": [], "city-county-long": -74.80041}, {"video": "", "city-county-name": "Zarephath", "city-county-lat": 40.536069, "website": "http://www.star991.com/", "twitter": "http://www.twitter.com/Star991FM", "name": "WAWZ 99.1 FM", "media-type": "radio", "open-search": [], "media-kind": "Christian", "facebook": "https://www.facebook.com/star991fm", "rss": ["/index.php?format=feed&type=rss", "/index.php?format=feed&type=atom"], "city-county-long": -74.578872}]}, "MI": {"state-name": "Michigan_MI", "tv": [{"video": "http://www.youtube.com/user/WBKBTV", "city-county-name": "Alpena", "city-county-lat": 45.08583, "website": "http://www.wbkb11.com/", "twitter": "http://www.twitter.com/WBKB11", "name": "WBKB", "media-type": "tv", "open-search": [], "media-kind": "", "facebook": "https://www.facebook.com/WBKBTV", "rss": ["/?format=feed&type=rss", "/?format=feed&type=atom"], "city-county-long": -83.46411}, {"video": "http://www.youtube.com/user/WCMUBroadcasting", "city-county-name": "Alpena", "city-county-lat": 45.08583, "website": "http://www.wcmu.org/", "twitter": "http://www.twitter.com/wcmunews", "name": "WCMU", "media-type": "tv", "open-search": [], "media-kind": "", "facebook": "https://www.facebook.com/cmupublicbroadcasting", "rss": [], "city-county-long": -83.46411}, {"video": "http://www.youtube.com/user/wotv", "city-county-name": "Battle Creek", "city-county-lat": 42.311089, "website": "http://wotv4women.com/", "twitter": "http://www.twitter.com/WOTV4Women", "name": "WOTV", "media-type": "tv", "open-search": ["http://wotv4women.com/osd.xml", "https://s1.wp.com/opensearch.xml"], "media-kind": "", "facebook": "https://www.facebook.com/WOTV4WOMEN", "rss": ["http://wotv4women.com/comments/feed/", "http://wotv4women.com/feed/"], "city-county-long": -85.13845}, {"video": "", "city-county-name": "Bay City", "city-county-lat": 43.607523, "website": "http://www.wnem.com/", "twitter": "http://www.twitter.com/wnemtv5news", "name": "WNEM", "media-type": "tv", "open-search": [], "media-kind": "", "facebook": "https://www.facebook.com/WNEMTV5", "rss": [], "city-county-long": -83.9162}, {"video": "", "city-county-name": "Cadillac", "city-county-lat": 44.243788, "website": "http://www.9and10news.com/", "twitter": "http://www.twitter.com/9and10news", "name": "WWTV", "media-type": "tv", "open-search": [], "media-kind": "", "facebook": "https://www.facebook.com/9and10News", "rss": [], "city-county-long": -85.46006}, {"video": "", "city-county-name": "Calumet", "city-county-lat": 47.239083, "website": "http://www.upcw5.com/", "twitter": "", "name": "WBKP", "media-type": "tv", "open-search": [], "media-kind": "", "facebook": "", "rss": [], "city-county-long": -88.46121}, {"video": "https://www.youtube.com/channel/UClrJ-vfXqzJb_WV_2PPFFJA", "city-county-name": "Detroit", "city-county-lat": 42.343787, "website": "http://www.clickondetroit.com/", "twitter": "http://www.twitter.com/local4news", "name": "WDIV", "media-type": "tv", "open-search": [], "media-kind": "", "facebook": "https://www.facebook.com/Local4", "rss": [], "city-county-long": -83.05879}, {"video": "", "city-county-name": "Detroit", "city-county-lat": 42.343787, "website": "http://cwdetroit.cbslocal.com/", "twitter": "http://www.twitter.com/cw50detroit", "name": "WKBD", "media-type": "tv", "open-search": ["http://cwdetroit.cbslocal.com/osd.xml", "https://s1.wp.com/opensearch.xml"], "media-kind": "", "facebook": "https://www.facebook.com/cw50detroit", "rss": ["http://cwdetroit.cbslocal.com/comments/feed/", "http://cwdetroit.cbslocal.com/feed/", "http://cwdetroit.cbslocal.com/home-section/feed/"], "city-county-long": -83.05879}, {"video": "", "city-county-name": "Detroit", "city-county-lat": 42.343787, "website": "http://www.wxyz.com/tv20detroit/", "twitter": "http://www.twitter.com/tv20detroit", "name": "WMYD", "media-type": "tv", "open-search": [], "media-kind": "", "facebook": "https://www.facebook.com/pages/My-TV20-Detroit/186367169354", "rss": [], "city-county-long": -83.05879}, {"video": "http://www.youtube.com/user/detroitpublictv", "city-county-name": "Detroit", "city-county-lat": 42.343787, "website": "http://www.dptv.org/", "twitter": "http://www.twitter.com/detroitpublictv", "name": "WTVS", "media-type": "tv", "open-search": [], "media-kind": "", "facebook": "https://www.facebook.com/detroitpublictv", "rss": [], "city-county-long": -83.05879}, {"video": "http://www.youtube.com/user/CBSDetroitWWJTV", "city-county-name": "Detroit", "city-county-lat": 42.343787, "website": "http://detroit.cbslocal.com/", "twitter": "http://www.twitter.com/cbsdetroit", "name": "WWJ", "media-type": "tv", "open-search": ["http://detroit.cbslocal.com/osd.xml", "https://s1.wp.com/opensearch.xml"], "media-kind": "", "facebook": "https://www.facebook.com/CBSDetroit", "rss": ["http://detroit.cbslocal.com/home-section/feed/", "http://detroit.cbslocal.com/feed/", "http://detroit.cbslocal.com/comments/feed/"], "city-county-long": -83.05879}, {"video": "http://www.youtube.com/user/wxyztvdetroit", "city-county-name": "Detroit", "city-county-lat": 42.343787, "website": "http://www.wxyz.com/", "twitter": "http://www.twitter.com/wxyzdetroit", "name": "WXYZ", "media-type": "tv", "open-search": [], "media-kind": "", "facebook": "https://www.facebook.com/wxyzdetroit", "rss": [], "city-county-long": -83.05879}, {"video": "http://www.youtube.com/user/wkar", "city-county-name": "East Lansing", "city-county-lat": 42.747922, "website": "http://wkar.org/tv", "twitter": "http://www.twitter.com/wkar", "name": "WKAR", "media-type": "tv", "open-search": [], "media-kind": "", "facebook": "https://www.facebook.com/WKARPUBLICMEDIA", "rss": [], "city-county-long": -84.47143}, {"video": "http://www.youtube.com/user/connectmidmichigan", "city-county-name": "Flint", "city-county-lat": 42.965926, "website": "http://nbc25news.com/", "twitter": "http://www.twitter.com/nbc_25", "name": "WEYI", "media-type": "tv", "open-search": [], "media-kind": "", "facebook": "https://www.facebook.com/NBC25", "rss": [], "city-county-long": -83.780835}, {"video": "", "city-county-name": "Flint", "city-county-lat": 42.965926, "website": "http://www.abc12.com/", "twitter": "http://www.twitter.com/ABC12WJRT", "name": "WJRT", "media-type": "tv", "open-search": [], "media-kind": "", "facebook": "https://www.facebook.com/ABC12WJRT", "rss": [], "city-county-long": -83.780835}, {"video": "http://www.youtube.com/user/WGVU35", "city-county-name": "Grand Rapids", "city-county-lat": 42.984226, "website": "http://www.wgvu.org/", "twitter": "http://www.twitter.com/WGVUPublicMedia", "name": "WGVU", "media-type": "tv", "open-search": [], "media-kind": "", "facebook": "https://www.facebook.com/pages/WGVU/101191063709", "rss": [], "city-county-long": -85.629101}, {"video": "http://www.youtube.com/user/WOODTV8", "city-county-name": "Grand Rapids", "city-county-lat": 42.984226, "website": "http://woodtv.com/", "twitter": "http://www.twitter.com/WOODTV", "name": "WOOD", "media-type": "tv", "open-search": ["https://s1.wp.com/opensearch.xml", "http://woodtv.com/osd.xml"], "media-kind": "", "facebook": "https://www.facebook.com/woodtv", "rss": ["http://woodtv.com/comments/feed/", "http://woodtv.com/feed/"], "city-county-long": -85.629101}, {"video": "http://www.youtube.com/user/wxmi", "city-county-name": "Grand Rapids", "city-county-lat": 42.984226, "website": "http://fox17online.com/", "twitter": "http://www.twitter.com/fox17", "name": "WXMI", "media-type": "tv", "open-search": ["http://fox17online.com/osd.xml", "https://s1.wp.com/opensearch.xml"], "media-kind": "", "facebook": "https://www.facebook.com/fox17online", "rss": ["http://fox17online.com/feed/", "http://fox17online.com/comments/feed/"], "city-county-long": -85.629101}, {"video": "https://www.youtube.com/channel/UC_x6YyeZLW0bwuzcy6NGQ3A", "city-county-name": "Grand Rapids", "city-county-lat": 42.984226, "website": "http://iontelevision.com/", "twitter": "http://www.twitter.com/iontv", "name": "WZPX", "media-type": "tv", "open-search": [], "media-kind": "", "facebook": "https://www.facebook.com/IONTelevision", "rss": [], "city-county-long": -85.629101}, {"video": "http://www.youtube.com/user/WZZM13NEWS", "city-county-name": "Grand Rapids", "city-county-lat": 42.984226, "website": "http://www.wzzm13.com/", "twitter": "http://www.twitter.com/wzzm13", "name": "WZZM", "media-type": "tv", "open-search": [], "media-kind": "", "facebook": "https://www.facebook.com/wzzm13", "rss": [], "city-county-long": -85.629101}, {"video": "http://www.youtube.com/user/WGVU35", "city-county-name": "Kalamazoo", "city-county-lat": 42.278891, "website": "http://www.wgvu.org/home/", "twitter": "http://www.twitter.com/WGVUPublicMedia", "name": "WGVK", "media-type": "tv", "open-search": [], "media-kind": "", "facebook": "https://www.facebook.com/WGVUPublicMedia", "rss": [], "city-county-long": -85.55107}, {"video": "http://www.youtube.com/user/wwmtnews", "city-county-name": "Kalamazoo", "city-county-lat": 42.278891, "website": "http://www.wwmt.com/", "twitter": "http://www.twitter.com/wwmtnews", "name": "WWMT", "media-type": "tv", "open-search": [], "media-kind": "", "facebook": "https://www.facebook.com/wwmtnews", "rss": [], "city-county-long": -85.55107}, {"video": "", "city-county-name": "Lansing", "city-county-lat": 42.599184, "website": "http://www.wilx.com/", "twitter": "http://www.twitter.com/wilxTV", "name": "WILX", "media-type": "tv", "open-search": [], "media-kind": "", "facebook": "https://www.facebook.com/wilxnews10", "rss": [], "city-county-long": -84.371973}, {"video": "https://www.youtube.com/channel/UCFd3q6aSRWPiry_QclTqunQ", "city-county-name": "Lansing", "city-county-lat": 42.599184, "website": "http://wlns.com/wlaj-the-cw-2/", "twitter": "", "name": "WLAJ", "media-type": "tv", "open-search": ["http://wlns.com/osd.xml", "https://s1.wp.com/opensearch.xml"], "media-kind": "", "facebook": "https://www.facebook.com/WLAJABC3", "rss": ["http://wlns.com/feed/", "http://wlns.com/comments/feed/"], "city-county-long": -84.371973}, {"video": "", "city-county-name": "Lansing", "city-county-lat": 42.599184, "website": "http://www.wlns.com/", "twitter": "http://www.twitter.com/wlns", "name": "WLNS", "media-type": "tv", "open-search": ["http://wlns.com/osd.xml", "https://s1.wp.com/opensearch.xml"], "media-kind": "", "facebook": "https://www.facebook.com/WLNSTV", "rss": ["http://wlns.com/feed/", "http://wlns.com/comments/feed/"], "city-county-long": -84.371973}, {"video": "http://www.youtube.com/user/UpperMichigansSource", "city-county-name": "Marquette", "city-county-lat": 46.554402, "website": "http://www.uppermichiganssource.com/", "twitter": "http://www.twitter.com/wluctv6", "name": "WLUC", "media-type": "tv", "open-search": [], "media-kind": "", "facebook": "https://www.facebook.com/uppermichiganssource", "rss": [], "city-county-long": -87.42223}, {"video": "http://www.youtube.com/user/WCMUBroadcasting", "city-county-name": "Mount Pleasant", "city-county-lat": 43.640574, "website": "http://www.wcmu.org/", "twitter": "http://www.twitter.com/wcmunews", "name": "WCMU", "media-type": "tv", "open-search": [], "media-kind": "", "facebook": "https://www.facebook.com/cmupublicbroadcasting", "rss": [], "city-county-long": -84.847417}, {"video": "http://www.youtube.com/user/UpperMichigansSource", "city-county-name": "Negaunee", "city-county-lat": 46.517192, "website": "http://www.uppermichiganssource.com/", "twitter": "http://www.twitter.com/wluctv6", "name": "WLUC", "media-type": "tv", "open-search": [], "media-kind": "", "facebook": "https://www.facebook.com/uppermichiganssource", "rss": [], "city-county-long": -87.58245}, {"video": "https://www.youtube.com/user/9and10news", "city-county-name": "Sault Sainte Marie", "city-county-lat": 46.460895, "website": "http://www.9and10news.com/", "twitter": "http://www.twitter.com/9and10news", "name": "WWUP", "media-type": "tv", "open-search": [], "media-kind": "", "facebook": "https://www.facebook.com/9and10News", "rss": [], "city-county-long": -84.32485},