{"CO": {"newspaper": [{"video": "", "twitter": "http://www.twitter.com/AkronNewsReport", "media-class": "newspaper", "city-county-long": -103.18362, "media-subclass": "city-county", "website": "http://www.akronnewsreporter.com/", "facebook": "https://www.facebook.com/AkronNewsReporter", "city-county-lat": 40.124199, "name": "Akron News-Reporter", "open-search": [], "city-county-name": "Akron", "rss": []}, {"video": "", "twitter": "", "media-class": "newspaper", "city-county-long": -105.83471, "media-subclass": "city-county", "website": "http://www.conejoscountycitizen.com/", "facebook": "", "city-county-lat": 37.471802, "name": "Conejos County Citizen", "open-search": [], "city-county-name": "Alamosa", "rss": []}, {"video": "", "twitter": "", "media-class": "newspaper", "city-county-long": -105.83471, "media-subclass": "city-county", "website": "http://www.alamosanews.com/", "facebook": "https://www.facebook.com/pages/Alamosa-Valley-Courier/141175752647498", "city-county-lat": 37.471802, "name": "Valley Courier", "open-search": [], "city-county-name": "Alamosa", "rss": []}, {"video": "", "twitter": "http://www.twitter.com/ArvadaPress", "media-class": "newspaper", "city-county-long": -105.223945, "media-subclass": "city-county", "website": "http://arvadapress.com/", "facebook": "https://www.facebook.com/pages/Arvada-Press/292522390857834", "city-county-lat": 39.522014, "name": "Arvada Press", "open-search": [], "city-county-name": "Arvada", "rss": []}, {"video": "", "twitter": "http://www.twitter.com/aspendailynews", "media-class": "newspaper", "city-county-long": -106.8191, "media-subclass": "city-county", "website": "http://www.aspendailynews.com/", "facebook": "https://www.facebook.com/aspendailynews", "city-county-lat": 39.196857, "name": "Aspen Daily News", "open-search": [], "city-county-name": "Aspen", "rss": []}, {"video": "http://www.youtube.com/user/TheAspenTimes", "twitter": "http://www.twitter.com/TheAspenTimes", "media-class": "newspaper", "city-county-long": -106.8191, "media-subclass": "city-county", "website": "http://www.aspentimes.com/", "facebook": "https://www.facebook.com/AspenTimes", "city-county-lat": 39.196857, "name": "Aspen Times", "open-search": [], "city-county-name": "Aspen", "rss": []}, {"video": "http://www.youtube.com/user/aurorasentinel", "twitter": "http://www.twitter.com/aurorasentinel", "media-class": "newspaper", "city-county-long": -104.773083, "media-subclass": "city-county", "website": "http://www.aurorasentinel.com/", "facebook": "https://www.facebook.com/theaurorasentinel", "city-county-lat": 39.669637, "name": "Aurora Sentinel", "open-search": [], "city-county-name": "Aurora", "rss": ["http://www.aurorasentinel.com/home/feed/", "http://www.aurorasentinel.com/feed/", "http://www.aurorasentinel.com/comments/feed/"]}, {"video": "", "twitter": "http://www.twitter.com/fairplayflume", "media-class": "newspaper", "city-county-long": -105.476, "media-subclass": "city-county", "website": "http://www.theflume.com/", "facebook": "https://www.facebook.com/TheFlume", "city-county-lat": 39.460306, "name": "The Flume", "open-search": ["http://www.theflume.com/search/opensearch/generic.xml"], "city-county-name": "Bailey", "rss": []}, {"video": "", "twitter": "", "media-class": "newspaper", "city-county-long": -107.59026, "media-subclass": "city-county", "website": "http://www.pinerivertimes.com/", "facebook": "https://www.facebook.com/pinerivertimes", "city-county-lat": 37.329743, "name": "Pine River Times", "open-search": [], "city-county-name": "Bayfield", "rss": []}, {"video": "", "twitter": "http://www.twitter.com/berthoudrecordr", "media-class": "newspaper", "city-county-long": -105.08431, "media-subclass": "city-county", "website": "http://www.berthoudrecorder.com/", "facebook": "", "city-county-lat": 40.294423, "name": "Berthoud Recorder", "open-search": [], "city-county-name": "Berthoud", "rss": ["http://www.berthoudrecorder.com/feed/"]}, {"video": "https://www.youtube.com/channel/UCdkVwZnw0YLVeuQ-J8uaaFQ", "twitter": "", "media-class": "newspaper", "city-county-long": -105.08431, "media-subclass": "city-county", "website": "http://www.berthoudsurveyor.com/", "facebook": "https://www.facebook.com/BerthoudSurveyor", "city-county-lat": 40.294423, "name": "Weekly Surveyor", "open-search": [], "city-county-name": "Berthoud", "rss": ["http://www.berthoudsurveyor.com/feed/", "http://www.berthoudsurveyor.com/comments/feed/"]}, {"video": "", "twitter": "", "media-class": "newspaper", "city-county-long": -104.7008, "media-subclass": "city-county", "website": "http://blackforestnews-co.com/", "facebook": "https://www.facebook.com/blackforestnewsllc/", "city-county-lat": 39.013, "name": "Black Forest News", "open-search": [], "city-county-name": "Black Forest", "rss": []}, {"video": "http://www.youtube.com/user/BCBRvideo", "twitter": "http://www.twitter.com/bizwestmedia", "media-class": "newspaper", "city-county-long": -105.21928, "media-subclass": "city-county", "website": "http://bizwest.com/", "facebook": "https://www.facebook.com/bizwestmedia", "city-county-lat": 40.044385, "name": "BizWest", "open-search": [], "city-county-name": "Boulder", "rss": ["http://bizwest.com/comments/feed/", "http://bizwest.com/feed/"]}, {"video": "http://www.youtube.com/user/BoulderWeekly1", "twitter": "http://www.twitter.com/boulderweekly", "media-class": "newspaper", "city-county-long": -105.21928, "media-subclass": "city-county", "website": "http://www.boulderweekly.com/", "facebook": "https://www.facebook.com/boulderweeklymedia", "city-county-lat": 40.044385, "name": "Boulder Weekly", "open-search": [], "city-county-name": "Boulder", "rss": ["http://www.boulderweekly.com/feed/", "http://www.boulderweekly.com/home/feed/", "http://www.boulderweekly.com/comments/feed/"]}, {"video": "", "twitter": "http://www.twitter.com/coloradodaily", "media-class": "newspaper", "city-county-long": -105.21928, "media-subclass": "city-county", "website": "http://www.coloradodaily.com", "facebook": "https://www.facebook.com/coloradodaily", "city-county-lat": 40.044385, "name": "Colorado Daily", "open-search": [], "city-county-name": "Boulder", "rss": []}, {"video": "http://www.youtube.com/user/TheDailyCamera", "twitter": "http://www.twitter.com/dailycamera", "media-class": "newspaper", "city-county-long": -105.21928, "media-subclass": "city-county", "website": "http://www.dailycamera.com/", "facebook": "https://www.facebook.com/dailycamera", "city-county-lat": 40.044385, "name": "Daily Camera", "open-search": [], "city-county-name": "Boulder", "rss": []}, {"video": "", "twitter": "http://www.twitter.com/BrightonBlade", "media-class": "newspaper", "city-county-long": -104.82407, "media-subclass": "city-county", "website": "http://www.thebrightonblade.com/", "facebook": "https://www.facebook.com/brightonblade", "city-county-lat": 39.973251, "name": "Standard Blade", "open-search": [], "city-county-name": "Brighton", "rss": []}, {"video": "", "twitter": "http://www.twitter.com/bfld_enterprise", "media-class": "newspaper", "city-county-long": -105.05454, "media-subclass": "city-county", "website": "http://www.broomfieldenterprise.com/", "facebook": "https://www.facebook.com/BroomfieldEnterprise", "city-county-lat": 39.93404, "name": "Broomfield Enterprise", "open-search": [], "city-county-name": "Broomfield", "rss": []}, {"video": "", "twitter": "", "media-class": "newspaper", "city-county-long": -103.60824, "media-subclass": "city-county", "website": "http://www.brushnewstribune.com/", "facebook": "https://www.facebook.com/BrushNewsTribune", "city-county-lat": 40.23045, "name": "Brush News Tribune", "open-search": [], "city-county-name": "Brush", "rss": []}, {"video": "https://www.youtube.com/channel/UCdiYEB3J7Ew_0WhaqhzFdLg", "twitter": "http://www.twitter.com/ChaffeeCoTimes", "media-class": "newspaper", "city-county-long": -106.14664, "media-subclass": "city-county", "website": "http://www.chaffeecountytimes.com/", "facebook": "https://www.facebook.com/pages/The-Chaffee-County-Times/156318137788379", "city-county-lat": 38.867111, "name": "Chaffee County Times", "open-search": ["http://www.chaffeecountytimes.com/search/opensearch/generic.xml"], "city-county-name": "Buena Vista", "rss": []}, {"video": "", "twitter": "http://www.twitter.com/BrlingtonRecord", "media-class": "newspaper", "city-county-long": -102.25094, "media-subclass": "city-county", "website": "http://www.burlington-record.com/", "facebook": "https://www.facebook.com/BurlingtonRecord", "city-county-lat": 39.3124, "name": "Burlington Record", "open-search": [], "city-county-name": "Burlington", "rss": []}, {"video": "https://www.youtube.com/user/CanonCityDailyRecord", "twitter": "http://www.twitter.com/ccdr_news", "media-class": "newspaper", "city-county-long": -105.27973, "media-subclass": "city-county", "website": "http://www.canoncitydailyrecord.com/", "facebook": "https://www.facebook.com/CanonCityDailyRecord", "city-county-lat": 38.464212, "name": "Daily Record", "open-search": [], "city-county-name": "Canon City", "rss": []}, {"video": "", "twitter": "http://www.twitter.com/SoprisSun", "media-class": "newspaper", "city-county-long": -107.1882, "media-subclass": "city-county", "website": "http://www.soprissun.com/", "facebook": "https://www.facebook.com/soprissun", "city-county-lat": 39.335504, "name": "Sopris Sun", "open-search": [], "city-county-name": "Carbondale", "rss": []}, {"video": "", "twitter": "", "media-class": "newspaper", "city-county-long": -104.85962, "media-subclass": "city-county", "website": "http://douglascountynewspress.net/", "facebook": "", "city-county-lat": 39.385141, "name": "Douglas County News-Press", "open-search": [], "city-county-name": "Castle Rock", "rss": []}, {"video": "", "twitter": "", "media-class": "newspaper", "city-county-long": -104.85962, "media-subclass": "city-county", "website": "http://castlerocknewspress.net/", "facebook": "https://www.facebook.com/pages/Colorado-Community-Media/258084364225185", "city-county-lat": 39.385141, "name": "News Press", "open-search": [], "city-county-name": "Castle Rock", "rss": []}, {"video": "", "twitter": "", "media-class": "newspaper", "city-county-long": -106.08966, "media-subclass": "city-county", "website": "http://www.centerpostdispatch.com/", "facebook": "", "city-county-lat": 37.773899, "name": "Center Post Dispatch", "open-search": [], "city-county-name": "Center", "rss": []}, {"video": "http://www.youtube.com/user/csbjwebadmin", "twitter": "http://www.twitter.com/csbizjournal", "media-class": "newspaper", "city-county-long": -104.84063, "media-subclass": "city-county", "website": "http://csbj.com/", "facebook": "https://www.facebook.com/coloradospringsbusinessjournal", "city-county-lat": 38.828692, "name": "Business Journal", "open-search": [], "city-county-name": "Colorado Springs", "rss": ["http://www.csbj.com/feed/", "http://www.csbj.com/home/feed/", "http://www.csbj.com/feed/atom/", "http://www.csbj.com/comments/feed/"]}, {"video": "https://www.youtube.com/user/springsgazette", "twitter": "http://www.twitter.com/csgazette", "media-class": "newspaper", "city-county-long": -104.84063, "media-subclass": "city-county", "website": "http://gazette.com/", "facebook": "https://www.facebook.com/springsgazette", "city-county-lat": 38.828692, "name": "Gazette", "open-search": [], "city-county-name": "Colorado Springs", "rss": []}, {"video": "http://www.youtube.com/user/csindependent", "twitter": "http://www.twitter.com/csindependent", "media-class": "newspaper", "city-county-long": -104.84063, "media-subclass": "city-county", "website": "http://www.csindy.com/", "facebook": "https://www.facebook.com/csindependent", "city-county-lat": 38.828692, "name": "Independent", "open-search": [], "city-county-name": "Colorado Springs", "rss": ["http://www.csindy.com/coloradosprings/Rss.xml?id=comments", "http://www.csindy.com/coloradosprings/Rss.xml"]}, {"video": "", "twitter": "http://www.twitter.com/southsidebiz", "media-class": "newspaper", "city-county-long": -104.84063, "media-subclass": "city-county", "website": "http://www.southsidebusiness.com/", "facebook": "https://www.facebook.com/SouthSideBusinessNews", "city-county-lat": 38.828692, "name": "Southside Business", "open-search": [], "city-county-name": "Colorado Springs", "rss": []}, {"video": "", "twitter": "", "media-class": "newspaper", "city-county-long": -105.0694, "media-subclass": "city-county", "website": "http://www.columbinecourier.com/", "facebook": "https://www.facebook.com/pages/Columbine-Courier/184001824986112", "city-county-lat": 39.5878, "name": "Columbine Courier", "open-search": [], "city-county-name": "Columbine", "rss": []}, {"video": "", "twitter": "", "media-class": "newspaper", "city-county-long": -104.9039, "media-subclass": "city-county", "website": "http://www.gatewaynews.org/", "facebook": "https://www.facebook.com/pages/Gateway-News/441445425004", "city-county-lat": 39.836586, "name": "Gateway News", "open-search": [], "city-county-name": "Commerce City", "rss": []}, {"video": "", "twitter": "", "media-class": "newspaper", "city-county-long": -104.9039, "media-subclass": "city-county", "website": "http://www.commercecitysentinel.com/", "facebook": "https://www.facebook.com/pages/Commerce-City-Sentinel-Express/152786454799982", "city-county-lat": 39.836586, "name": "Sentinel Express", "open-search": [], "city-county-name": "Commerce City", "rss": []}, {"video": "", "twitter": "http://www.twitter.com/HighTimberTimes", "media-class": "newspaper", "city-county-long": -105.31198, "media-subclass": "city-county", "website": "http://www.hightimbertimes.com/", "facebook": "https://www.facebook.com/hightimbertimes", "city-county-lat": 39.514738, "name": "High Timber Times", "open-search": [], "city-county-name": "Conifer", "rss": []}, {"video": "", "twitter": "http://www.twitter.com/TheJournalCo", "media-class": "newspaper", "city-county-long": -108.60355, "media-subclass": "city-county", "website": "http://www.the-journal.com/", "facebook": "https://www.facebook.com/TheJournalCO", "city-county-lat": 37.344985, "name": "Cortez Journal", "open-search": [], "city-county-name": "Cortez", "rss": []}, {"video": "", "twitter": "http://www.twitter.com/TheJournalCo", "media-class": "newspaper", "city-county-long": -108.60355, "media-subclass": "city-county", "website": "http://www.the-journal.com/", "facebook": "https://www.facebook.com/TheJournalCO", "city-county-lat": 37.344985, "name": "Dolores Star", "open-search": [], "city-county-name": "Cortez", "rss": []}, {"video": "", "twitter": "http://www.twitter.com/craigdailypress", "media-class": "newspaper", "city-county-long": -107.60818, "media-subclass": "city-county", "website": "http://www.craigdailypress.com/", "facebook": "https://www.facebook.com/pages/Craig-Daily-Press/66210612742", "city-county-lat": 40.566113, "name": "Craig Daily Press", "open-search": [], "city-county-name": "Craig", "rss": ["/rss/headlines/"]}, {"video": "", "twitter": "", "media-class": "newspaper", "city-county-long": -106.95429, "media-subclass": "city-county", "website": "http://www.mineralcountyminer.com/", "facebook": "", "city-county-lat": 37.705276, "name": "Mineral County Miner", "open-search": [], "city-county-name": "Creede", "rss": []}, {"video": "", "twitter": "", "media-class": "newspaper", "city-county-long": -106.96556, "media-subclass": "city-county", "website": "http://www.crestedbuttenews.com/", "facebook": "https://www.facebook.com/CrestedButteNews", "city-county-lat": 38.865307, "name": "Crested Butte News", "open-search": [], "city-county-name": "Crested Butte", "rss": ["http://crestedbuttenews.com/comments/feed/", "http://crestedbuttenews.com/feed/"]}, {"video": "", "twitter": "", "media-class": "newspaper", "city-county-long": -106.39774, "media-subclass": "city-county", "website": "http://www.delnorteprospector.com/", "facebook": "", "city-county-lat": 37.731981, "name": "Del Norte Prospector", "open-search": [], "city-county-name": "Del Norte", "rss": []}, {"video": "", "twitter": "", "media-class": "newspaper", "city-county-long": -108.08219, "media-subclass": "city-county", "website": "http://www.deltacountyindependent.com", "facebook": "https://www.facebook.com/pages/Delta-County-Independent/140373049332167", "city-county-lat": 38.733901, "name": "Delta County Independent", "open-search": [], "city-county-name": "Delta", "rss": []}, {"video": "", "twitter": "", "media-class": "newspaper", "city-county-long": -108.08219, "media-subclass": "city-county", "website": "http://westernslopewatchdog.com/", "facebook": "https://www.facebook.com/pages/Western-Slope-Watchdog/451087728304050", "city-county-lat": 38.733901, "name": "Western Slope Watchdog", "open-search": [], "city-county-name": "Delta", "rss": []}, {"video": "", "twitter": "", "media-class": "newspaper", "city-county-long": -104.856808, "media-subclass": "city-county", "website": "http://www.kzhb.us/", "facebook": "", "city-county-lat": 39.726303, "name": "Colorado Chinese News", "open-search": [], "city-county-name": "Denver", "rss": ["http://www.kzhb.us/comments/feed/", "http://www.kzhb.us/welcome/feed/", "http://www.kzhb.us/feed/"]}, {"video": "", "twitter": "http://www.twitter.com/ColoStatesman", "media-class": "newspaper", "city-county-long": -104.856808, "media-subclass": "city-county", "website": "http://coloradostatesman.com/", "facebook": "https://www.facebook.com/coloradostatesman", "city-county-lat": 39.726303, "name": "Colorado Statesman", "open-search": [], "city-county-name": "Denver", "rss": ["http://www.coloradostatesman.com/feed/", "http://www.coloradostatesman.com/comments/feed/"]}, {"video": "", "twitter": "http://www.twitter.com/denbizjournal", "media-class": "newspaper", "city-county-long": -104.856808, "media-subclass": "city-county", "website": "http://www.bizjournals.com/denver/", "facebook": "https://www.facebook.com/denverbusiness", "city-county-lat": 39.726303, "name": "Denver Business Journal", "open-search": [], "city-county-name": "Denver", "rss": []}, {"video": "http://www.youtube.com/user/DenverPost", "twitter": "http://www.twitter.com/denverpost", "media-class": "newspaper", "city-county-long": -104.856808, "media-subclass": "city-county", "website": "http://www.denverpost.com/", "facebook": "https://www.facebook.com/denverpost", "city-county-lat": 39.726303, "name": "Denver Post", "open-search": [], "city-county-name": "Denver", "rss": ["http://www.denverpost.com/comments/feed/", "http://www.denverpost.com/feed/"]}, {"video": "https://www.youtube.com/channel/UCs6ar7y9xXFHjMRFVxfHqBA", "twitter": "http://www.twitter.com/DUS_Tweets", "media-class": "newspaper", "city-county-long": -104.856808, "media-subclass": "city-county", "website": "http://denverurbanspectrum.com/", "facebook": "https://www.facebook.com/pages/Denver-Urban-Spectrum/127549171660", "city-county-lat": 39.726303, "name": "Denver Urban Spectrum", "open-search": [], "city-county-name": "Denver", "rss": []}, {"video": "", "twitter": "http://www.twitter.com/DenverVOICE", "media-class": "newspaper", "city-county-long": -104.856808, "media-subclass": "city-county", "website": "http://www.denvervoice.org/", "facebook": "https://www.facebook.com/denvervoice", "city-county-lat": 39.726303, "name": "Denver Voice", "open-search": [], "city-county-name": "Denver", "rss": []}, {"video": "", "twitter": "", "media-class": "newspaper", "city-county-long": -104.856808, "media-subclass": "city-county", "website": "http://www.elhispanonewspaper.com/", "facebook": "", "city-county-lat": 39.726303, "name": "El Hispano de Denver", "open-search": [], "city-county-name": "Denver", "rss": []}, {"video": "https://www.youtube.com/channel/UC2jIwRTEH3gET9wLiKMIGCA", "twitter": "http://www.twitter.com/LaPrensadeCO", "media-class": "newspaper", "city-county-long": -104.856808, "media-subclass": "city-county", "website": "http://laprensadecolorado.com/", "facebook": "https://www.facebook.com/LaPrensadeColorado", "city-county-lat": 39.726303, "name": "La Prensa de Colorado", "open-search": [], "city-county-name": "Denver", "rss": ["http://laprensadecolorado.com/feed/", "http://laprensadecolorado.com/comments/feed/"]}, {"video": "http://www.youtube.com/lavozcolorado", "twitter": "", "media-class": "newspaper", "city-county-long": -104.856808, "media-subclass": "city-county", "website": "http://www.lavozcolorado.com/", "facebook": "https://www.facebook.com/LaVozColorado", "city-county-lat": 39.726303, "name": "La Voz", "open-search": [], "city-county-name": "Denver", "rss": []}, {"video": "", "twitter": "", "media-class": "newspaper", "city-county-long": -104.856808, "media-subclass": "city-county", "website": "http://southplatteindependent.net/", "facebook": "", "city-county-lat": 39.726303, "name": "South Platte Independent", "open-search": [], "city-county-name": "Denver", "rss": []}, {"video": "", "twitter": "", "media-class": "newspaper", "city-county-long": -104.856808, "media-subclass": "city-county", "website": "http://www.vivacolorado.com/", "facebook": "", "city-county-lat": 39.726303, "name": "Viva Colorado", "open-search": [], "city-county-name": "Denver", "rss": []}, {"video": "", "twitter": "", "media-class": "newspaper", "city-county-long": -104.856808, "media-subclass": "city-county", "website": "http://washparkprofile.com/", "facebook": "https://www.facebook.com/Washington-Park-Profile-140073302674815", "city-county-lat": 39.726303, "name": "Washington Park Profile", "open-search": [], "city-county-name": "Denver", "rss": ["http://washparkprofile.com/api/rss/flipboard.rss", "http://washparkprofile.com/api/rss/content.rss"]}, {"video": "http://www.youtube.com/user/DenverWestword", "twitter": "http://www.twitter.com/DENVERWESTWORD", "media-class": "newspaper", "city-county-long": -104.856808, "media-subclass": "city-county", "website": "http://www.westword.com/", "facebook": "https://www.facebook.com/denverwestword", "city-county-lat": 39.726303, "name": "Westword", "open-search": [], "city-county-name": "Denver", "rss": ["http://www.westword.com/index.rss"]}, {"video": "", "twitter": "", "media-class": "newspaper", "city-county-long": -108.92455, "media-subclass": "city-county", "website": "http://www.dovecreekpress.com/", "facebook": "https://www.facebook.com/DoveCreekPress", "city-county-lat": 37.775543, "name": "Dove Creek Press", "open-search": [], "city-county-name": "Dove Creek", "rss": []}, {"video": "https://www.youtube.com/user/TheDurangoherald", "twitter": "http://www.twitter.com/DurangoHerald", "media-class": "newspaper", "city-county-long": -107.84945, "media-subclass": "city-county", "website": "http://www.durangoherald.com/", "facebook": "https://www.facebook.com/TheDurangoHerald", "city-county-lat": 37.295888, "name": "Durango Herald", "open-search": [], "city-county-name": "Durango", "rss": []}, {"video": "", "twitter": "http://www.twitter.com/DgoTelegraph", "media-class": "newspaper", "city-county-long": -107.84945, "media-subclass": "city-county", "website": "http://www.durangotelegraph.com/", "facebook": "https://www.facebook.com/pages/Durango-Telegraph/429307033779054", "city-county-lat": 37.295888, "name": "Durango Telegraph", "open-search": [], "city-county-name": "Durango", "rss": []}, {"video": "", "twitter": "", "media-class": "newspaper", "city-county-long": -102.80439, "media-subclass": "city-county", "website": "http://www.kiowacountypress.net/", "facebook": "https://www.facebook.com/KiowaCountyPress", "city-county-lat": 38.467553, "name": "Kiowa County Press", "open-search": [], "city-county-name": "Eads", "rss": []}, {"video": "https://www.youtube.com/user/VailDaily", "twitter": "http://www.twitter.com/VailDaily", "media-class": "newspaper", "city-county-long": -106.7751, "media-subclass": "city-county", "website": "http://www.vaildaily.com/News/EagleValley", "facebook": "https://www.facebook.com/VailNews", "city-county-lat": 39.622314, "name": "Eagle Valley Enterprise", "open-search": [], "city-county-name": "Eagle", "rss": []}, {"video": "", "twitter": "", "media-class": "newspaper", "city-county-long": -104.71181, "media-subclass": "city-county", "website": "http://nwherald.qwestoffice.net/", "facebook": "https://www.facebook.com/North-Weld-Herald-Newspaper-447603098755108/", "city-county-lat": 40.529241, "name": "North Weld Herald", "open-search": [], "city-county-name": "Eaton", "rss": []}, {"video": "", "twitter": "", "media-class": "newspaper", "city-county-long": -104.58696, "media-subclass": "city-county", "website": "http://www.elbertcountynews.net/", "facebook": "https://www.facebook.com/pages/Elbert-County-News/131138280367610", "city-county-lat": 39.397242, "name": "Elbert County News", "open-search": [], "city-county-name": "Elizabeth", "rss": []}, {"video": "", "twitter": "", "media-class": "newspaper", "city-county-long": -104.99076, "media-subclass": "city-county", "website": "http://englewoodherald.net/", "facebook": "https://www.facebook.com/pages/Englewood-Herald/182736911851080", "city-county-lat": 39.646847, "name": "Englewood Herald", "open-search": [], "city-county-name": "Englewood", "rss": []}, {"video": "", "twitter": "http://www.twitter.com/CoHoWeekly", "media-class": "newspaper", "city-county-long": -105.02767, "media-subclass": "city-county", "website": "http://www.coloradohometownweekly.com/news/erie", "facebook": "https://www.facebook.com/coloradohometownweekly", "city-county-lat": 40.051051, "name": "Colorado Hometown Weekly", "open-search": [], "city-county-name": "Erie", "rss": []}, {"video": "", "twitter": "http://www.twitter.com/EPTrailGazette", "media-class": "newspaper", "city-county-long": -105.569245, "media-subclass": "city-county", "website": "http://www.eptrail.com/", "facebook": "https://www.facebook.com/eptrail", "city-county-lat": 40.628112, "name": "Estes Park Trail-Gazette", "open-search": [], "city-county-name": "Estes Park", "rss": []}, {"video": "", "twitter": "", "media-class": "newspaper", "city-county-long": -105.223945, "media-subclass": "city-county", "website": "http://www.canyoncourier.com/", "facebook": "https://www.facebook.com/pages/Canyon-Courier/197992570219770", "city-county-lat": 39.522014, "name": "Canyon Courier", "open-search": [], "city-county-name": "Evergreen", "rss": []}, {"video": "http://www.youtube.com/user/BusinessReportOnline", "twitter": "http://www.twitter.com/bizwestmedia", "media-class": "newspaper", "city-county-long": -105.10494, "media-subclass": "city-county", "website": "http://bizwest.com/", "facebook": "https://www.facebook.com/bizwestmedia", "city-county-lat": 40.586282, "name": "BizWest", "open-search": [], "city-county-name": "Fort Collins", "rss": ["http://bizwest.com/comments/feed/", "http://bizwest.com/feed/"]}, {"video": "http://www.youtube.com/user/noconow", "twitter": "http://www.twitter.com/coloradoan", "media-class": "newspaper", "city-county-long": -105.10494, "media-subclass": "city-county", "website": "http://www.coloradoan.com/", "facebook": "https://www.facebook.com/Coloradoan", "city-county-lat": 40.586282, "name": "Coloradoan", "open-search": [], "city-county-name": "Fort Collins", "rss": []}, {"video": "", "twitter": "", "media-class": "newspaper", "city-county-long": -105.10494, "media-subclass": "city-county", "website": "http://theseniorvoice.net/", "facebook": "", "city-county-lat": 40.586282, "name": "Fort Collins Senior Voice", "open-search": [], "city-county-name": "Fort Collins", "rss": ["http://theseniorvoice.net/feed/atom/", "http://theseniorvoice.net/comments/feed/", "http://theseniorvoice.net/feed/"]}, {"video": "", "twitter": "", "media-class": "newspaper", "city-county-long": -104.79723, "media-subclass": "city-county", "website": "http://www.ftluptonpress.com/", "facebook": "https://www.facebook.com/fortluptonpress", "city-county-lat": 40.090367, "name": "Fort Lupton Express", "open-search": [], "city-county-name": "Fort Lupton", "rss": []}, {"video": "https://www.youtube.com/user/fortmorgantimes", "twitter": "http://www.twitter.com/fortmorgantimes", "media-class": "newspaper", "city-county-long": -103.80625, "media-subclass": "city-county", "website": "http://www.fortmorgantimes.com/", "facebook": "https://www.facebook.com/fortmorgantimes", "city-county-lat": 40.226357, "name": "Fort Morgan Times", "open-search": [], "city-county-name": "Fort Morgan", "rss": []}, {"video": "", "twitter": "http://www.twitter.com/FowlerTribune", "media-class": "newspaper", "city-county-long": -104.03445, "media-subclass": "city-county", "website": "http://www.fowlertribune.com/", "facebook": "https://www.facebook.com/pages/Fowler-Tribune/134766543293911", "city-county-lat": 38.002861, "name": "Fowler Tribune", "open-search": [], "city-county-name": "Fowler", "rss": []}, {"video": "http://www.youtube.com/user/summitdaily", "twitter": "http://www.twitter.com/summitdailynews", "media-class": "newspaper", "city-county-long": -106.14029, "media-subclass": "city-county", "website": "http://www.summitdaily.com/", "facebook": "https://www.facebook.com/summitdailynews", "city-county-lat": 39.532506, "name": "Summit Daily News", "open-search": [], "city-county-name": "Frisco", "rss": []}, {"video": "", "twitter": "http://www.twitter.com/GlenwoodPI", "media-class": "newspaper", "city-county-long": -107.32107, "media-subclass": "city-county", "website": "http://www.postindependent.com/", "facebook": "https://www.facebook.com/glenwoodsprings", "city-county-lat": 39.533318, "name": "Post Independent", "open-search": [], "city-county-name": "Glenwood Springs", "rss": ["http://www.postindependent.com/comments/feed/", "http://www.postindependent.com/feed/"]}, {"video": "", "twitter": "", "media-class": "newspaper", "city-county-long": -105.19337, "media-subclass": "city-county", "website": "http://goldentranscript.net/", "facebook": "https://www.facebook.com/pages/Golden-Transcript/482961018391728", "city-county-lat": 39.735745, "name": "Golden Transcript", "open-search": [], "city-county-name": "Golden", "rss": []}, {"video": "", "twitter": "", "media-class": "newspaper", "city-county-long": -105.95502, "media-subclass": "city-county", "website": "http://www.skyhidailynews.com/", "facebook": "https://www.facebook.com/skyhinews", "city-county-lat": 40.142434, "name": "Sky-Hi News", "open-search": [], "city-county-name": "Granby", "rss": ["http://www.skyhidailynews.com/comments/feed/", "http://www.skyhidailynews.com/feed/"]}, {"video": "", "twitter": "", "media-class": "newspaper", "city-county-long": -108.55, "media-subclass": "city-county", "website": "http://thebusinesstimes.com/", "facebook": "https://www.facebook.com/GrandValleyBusinessTimes", "city-county-lat": 39.072831, "name": "Business Times", "open-search": [], "city-county-name": "Grand Junction", "rss": ["http://thebusinesstimes.com/feed/", "http://thebusinesstimes.com/feed/atom/"]}, {"video": "", "twitter": "http://www.twitter.com/DailySentinelGJ", "media-class": "newspaper", "city-county-long": -108.55, "media-subclass": "city-county", "website": "http://www.gjsentinel.com/", "facebook": "https://www.facebook.com/thedailysentinelgj", "city-county-lat": 39.072831, "name": "Daily Sentinel", "open-search": [], "city-county-name": "Grand Junction", "rss": ["http://www.gjsentinel.com/feeds/rss2/"]}, {"video": "https://www.youtube.com/channel/UCgmeHUf-iBmnqJ3rCzWGDBA", "twitter": "http://www.twitter.com/GlenwoodPI", "media-class": "newspaper", "city-county-long": -108.55, "media-subclass": "city-county", "website": "http://www.postindependent.com/news/grandjunction/", "facebook": "https://www.facebook.com/glenwoodsprings", "city-county-lat": 39.072831, "name": "Free Press", "open-search": [], "city-county-name": "Grand Junction", "rss": ["http://www.postindependent.com/comments/feed/", "http://www.postindependent.com/feed/"]}, {"video": "", "twitter": "", "media-class": "newspaper", "city-county-long": -108.55, "media-subclass": "city-county", "website": "http://beaconseniornews.com/", "facebook": "https://www.facebook.com/BeaconSeniorNews", "city-county-lat": 39.072831, "name": "Grand Junction Beacon", "open-search": [], "city-county-name": "Grand Junction", "rss": []}, {"video": "", "twitter": "http://www.twitter.com/FencePostNews", "media-class": "newspaper", "city-county-long": -104.800547, "media-subclass": "city-county", "website": "http://www.thefencepost.com/", "facebook": "https://www.facebook.com/thefencepost", "city-county-lat": 40.405094, "name": "Fence Post", "open-search": [], "city-county-name": "Greeley", "rss": []}, {"video": "", "twitter": "http://www.twitter.com/GreeleyTribune", "media-class": "newspaper", "city-county-long": -104.800547, "media-subclass": "city-county", "website": "http://www.greeleytribune.com/", "facebook": "https://www.facebook.com/greeleytribune", "city-county-lat": 40.405094, "name": "Greeley Tribune", "open-search": [], "city-county-name": "Greeley", "rss": []}, {"video": "", "twitter": "http://www.twitter.com/VillagerDenver", "media-class": "newspaper", "city-county-long": -104.9508, "media-subclass": "city-county", "website": "http://www.villagerpublishing.com/", "facebook": "https://www.facebook.com/TheVillagerNewspaper", "city-county-lat": 39.6172, "name": "Villager", "open-search": [], "city-county-name": "Greenwood Village", "rss": ["http://www.villagerpublishing.com/feed/", "http://www.villagerpublishing.com/comments/feed/"]}, {"video": "", "twitter": "http://www.twitter.com/gunnisontimes", "media-class": "newspaper", "city-county-long": -106.95776, "media-subclass": "city-county", "website": "http://www.gunnisontimes.com/", "facebook": "https://www.facebook.com/pages/Gunnison-Country-Times/260846108710", "city-county-lat": 38.464132, "name": "Country Times", "open-search": [], "city-county-name": "Gunnison", "rss": ["http://www.gunnisontimes.com/rss.xml"]}, {"video": "", "twitter": "", "media-class": "newspaper", "city-county-long": -102.58831, "media-subclass": "city-county", "website": "http://www.hfherald.com/", "facebook": "", "city-county-lat": 40.593911, "name": "Haxtun-Fleming Herald", "open-search": [], "city-county-name": "Haxtun", "rss": []}, {"video": "", "twitter": "", "media-class": "newspaper", "city-county-long": -104.9739, "media-subclass": "city-county", "website": "http://highlandsranchherald.net/", "facebook": "https://www.facebook.com/pages/Highlands-Ranch-Herald/348750128553708", "city-county-lat": 39.5481, "name": "Highlands Ranch Herald", "open-search": [], "city-county-name": "Highlands Ranch", "rss": []}, {"video": "", "twitter": "", "media-class": "newspaper", "city-county-long": -102.30451, "media-subclass": "city-county", "website": "http://www.holyokeenterprise.com/", "facebook": "https://www.facebook.com/pages/The-Holyoke-Enterprise/95950174977", "city-county-lat": 40.582954, "name": "Holyoke Enterprise", "open-search": [], "city-county-name": "Holyoke", "rss": []}, {"video": "", "twitter": "", "media-class": "newspaper", "city-county-long": -105.56054, "media-subclass": "city-county", "website": "http://www.clearcreekcourant.com/", "facebook": "https://www.facebook.com/pages/Clear-Creek-Courant/171267532910583", "city-county-lat": 39.737369, "name": "Clear Creek Courant", "open-search": [], "city-county-name": "Idaho Springs", "rss": []}, {"video": "http://www.youtube.com/channel/UCiPRWovrYWudQx4qJqL3XxA", "twitter": "http://www.twitter.com/The_JT_Breeze", "media-class": "newspaper", "city-county-long": -104.91477, "media-subclass": "city-county", "website": "http://myjohnstownbreeze.com/", "facebook": "https://www.facebook.com/pages/The-Johnstown-Breeze/177854392267067", "city-county-lat": 40.335398, "name": "Johnstown Breeze", "open-search": [], "city-county-name": "Johnstown", "rss": []}, {"video": "", "twitter": "http://www.twitter.com/JlsburgAdvocate", "media-class": "newspaper", "city-county-long": -102.21858, "media-subclass": "city-county", "website": "http://www.julesburgadvocate.com/", "facebook": "https://www.facebook.com/JulesburgAdvocate", "city-county-lat": 40.916929, "name": "Julesburg Advocate", "open-search": [], "city-county-name": "Julesburg", "rss": []}, {"video": "", "twitter": "", "media-class": "newspaper", "city-county-long": -104.49916, "media-subclass": "city-county", "website": "http://www.lostcreekguide.com/", "facebook": "https://www.facebook.com/lostcreekguide", "city-county-lat": 40.078242, "name": "Lost Creek Guide News", "open-search": [], "city-county-name": "Keenesburg", "rss": ["http://lcgnews.com/comments/feed/", "http://lcgnews.com/feed/"]}, {"video": "", "twitter": "", "media-class": "newspaper", "city-county-long": -103.54001, "media-subclass": "city-county", "website": "http://www.agjournalonline.com/", "facebook": "https://www.facebook.com/pages/Ag-Journal/134006649997395", "city-county-lat": 37.995879, "name": "AgJournalOnline", "open-search": [], "city-county-name": "La Junta", "rss": []}, {"video": "", "twitter": "http://www.twitter.com/LaJuntaTD", "media-class": "newspaper", "city-county-long": -103.54001, "media-subclass": "city-county", "website": "http://www.lajuntatribunedemocrat.com/", "facebook": "https://www.facebook.com/pages/The-La-Junta-Tribune-Democrat/122942067733381", "city-county-lat": 37.995879, "name": "Tribune-Democrat", "open-search": [], "city-county-name": "La Junta", "rss": []}, {"video": "", "twitter": "", "media-class": "newspaper", "city-county-long": -105.02943, "media-subclass": "city-county", "website": "http://www.signaturenewspaper.com/", "facebook": "", "city-county-lat": 37.499829, "name": "The Signature", "open-search": [], "city-county-name": "La Veta", "rss": ["http://signaturenewspaper.com/feed/", "http://signaturenewspaper.com/comments/feed/"]}, {"video": "", "twitter": "http://www.twitter.com/CoHoWeekly", "media-class": "newspaper", "city-county-long": -105.10036, "media-subclass": "city-county", "website": "http://www.coloradohometownweekly.com/news/lafayette", "facebook": "https://www.facebook.com/coloradohometownweekly", "city-county-lat": 40.002156, "name": "Colorado Hometown Weekly", "open-search": [], "city-county-name": "Lafayette", "rss": []}, {"video": "", "twitter": "", "media-class": "newspaper", "city-county-long": -105.0814, "media-subclass": "city-county", "website": "http://lakewoodsentinel.com/", "facebook": "https://www.facebook.com/pages/Lakewood-Sentinel/273298059440513", "city-county-lat": 39.7047, "name": "Lakewood Sentinel", "open-search": [], "city-county-name": "Lakewood", "rss": []}, {"video": "", "twitter": "http://www.twitter.com/lamarledger", "media-class": "newspaper", "city-county-long": -102.61855, "media-subclass": "city-county", "website": "http://www.lamarledger.com/", "facebook": "https://www.facebook.com/lamarledger", "city-county-lat": 38.08759, "name": "Lamar Ledger", "open-search": [], "city-county-name": "Lamar", "rss": []}, {"video": "", "twitter": "http://www.twitter.com/prowersjournal", "media-class": "newspaper", "city-county-long": -102.61855, "media-subclass": "city-county", "website": "http://theprowersjournal.com/", "facebook": "https://www.facebook.com/pages/The-Prowers-Journal/187726154604145", "city-county-lat": 38.08759, "name": "Prowers Journal", "open-search": [], "city-county-name": "Lamar", "rss": ["http://theprowersjournal.com/feed/"]}, {"video": "", "twitter": "http://www.twitter.com/northfortynews", "media-class": "newspaper", "city-county-long": -105.17388, "media-subclass": "city-county", "website": "http://www.northfortynews.com/", "facebook": "https://www.facebook.com/northfortynews", "city-county-lat": 40.67069, "name": "North Forty News", "open-search": [], "city-county-name": "Laporte", "rss": ["http://www.northfortynews.com/feed/", "http://www.northfortynews.com/comments/feed/"]}, {"video": "", "twitter": "http://www.twitter.com/BentCountyDemoc", "media-class": "newspaper", "city-county-long": -103.18631, "media-subclass": "city-county", "website": "http://www.bcdemocratonline.com/", "facebook": "https://www.facebook.com/pages/Bent-County-Democrat/133429776731542", "city-county-lat": 38.037435, "name": "Bent County Democrat", "open-search": [], "city-county-name": "Las Animas", "rss": []}, {"video": "", "twitter": "http://www.twitter.com/leadvilleherald", "media-class": "newspaper", "city-county-long": -106.31399, "media-subclass": "city-county", "website": "http://www.leadvilleherald.com/", "facebook": "https://www.facebook.com/HERALDDEMOCRAT", "city-county-lat": 39.231776, "name": "Leadville Herald Democrat", "open-search": ["http://www.leadvilleherald.com/search/opensearch/generic.xml"], "city-county-name": "Leadville", "rss": []}, {"video": "", "twitter": "http://www.twitter.com/LimonLeader", "media-class": "newspaper", "city-county-long": -103.604851, "media-subclass": "city-county", "website": "http://easterncoloradoplainsman.com/", "facebook": "https://www.facebook.com/TheLimonLeader", "city-county-lat": 39.041435, "name": "Limon Leader", "open-search": [], "city-county-name": "Limon", "rss": []}, {"video": "", "twitter": "http://www.twitter.com/ChrisRotar", "media-class": "newspaper", "city-county-long": -105.00658, "media-subclass": "city-county", "website": "http://centennialcitizen.net/", "facebook": "https://www.facebook.com/pages/Centennial-Citizen/428853483843560", "city-county-lat": 39.599687, "name": "Centennial Citizen", "open-search": [], "city-county-name": "Littleton", "rss": []}, {"video": "", "twitter": "", "media-class": "newspaper", "city-county-long": -105.00658, "media-subclass": "city-county", "website": "http://littletonindependent.net/", "facebook": "https://www.facebook.com/Littleton-Independent-130795427068535/", "city-county-lat": 39.599687, "name": "Littleton Independent", "open-search": [], "city-county-name": "Littleton", "rss": []}, {"video": "", "twitter": "", "media-class": "newspaper", "city-county-long": -104.92152, "media-subclass": "city-county", "website": "http://lonetreevoice.net/", "facebook": "https://www.facebook.com/pages/Lone-Tree-Voice/412284305500418", "city-county-lat": 39.541571, "name": "Lone Tree Voice", "open-search": [], "city-county-name": "Lone Tree", "rss": []}, {"video": "http://www.youtube.com/user/TheTimescall", "twitter": "http://www.twitter.com/timescall", "media-class": "newspaper", "city-county-long": -105.10033, "media-subclass": "city-county", "website": "http://www.timescall.com/", "facebook": "https://www.facebook.com/LongmontTimesCall", "city-county-lat": 40.171484, "name": "Daily Times-Call", "open-search": [], "city-county-name": "Longmont", "rss": []}, {"video": "", "twitter": "http://www.twitter.com/CoHoWeekly", "media-class": "newspaper", "city-county-long": -105.15053, "media-subclass": "city-county", "website": "http://www.coloradohometownweekly.com/news/louisville", "facebook": "https://www.facebook.com/coloradohometownweekly", "city-county-lat": 39.963322, "name": "Colorado Hometown Weekly", "open-search": [], "city-county-name": "Louisville", "rss": []}, {"video": "http://www.youtube.com/user/ReporterHerald", "twitter": "http://www.twitter.com/reporterherald", "media-class": "newspaper", "city-county-long": -105.10349, "media-subclass": "city-county", "website": "http://www.reporterherald.com/", "facebook": "https://www.facebook.com/reporterherald", "city-county-lat": 40.383636, "name": "Daily Reporter-Herald", "open-search": [], "city-county-name": "Loveland", "rss": []}, {"video": "", "twitter": "http://www.twitter.com/LyonsRecorder", "media-class": "newspaper", "city-county-long": -105.33762, "media-subclass": "city-county", "website": "http://www.lyonsrecorder.com/", "facebook": "https://www.facebook.com/LyonsRecorder", "city-county-lat": 40.253033, "name": "Lyons Recorder", "open-search": ["http://www.lyonsrecorder.com/index.php/component/search/?Itemid=101&format=opensearch"], "city-county-name": "Lyons", "rss": ["/index.php?format=feed&type=rss", "/index.php?format=feed&type=atom"]}, {"video": "", "twitter": "http://www.twitter.com/TheJournalCo", "media-class": "newspaper", "city-county-long": -108.29691, "media-subclass": "city-county", "website": "http://www.the-journal.com/", "facebook": "https://www.facebook.com/TheJournalCO", "city-county-lat": 37.363564, "name": "Mancos Times", "open-search": [], "city-county-name": "Mancos", "rss": []}, {"video": "", "twitter": "", "media-class": "newspaper", "city-county-long": -106.14946, "media-subclass": "city-county", "website": "http://www.montevistajournal.com/", "facebook": "", "city-county-lat": 37.569501, "name": "Monte Vista Journal", "open-search": [], "city-county-name": "Monte Vista", "rss": []}, {"video": "http://www.youtube.com/user/MDPVideo", "twitter": "http://www.twitter.com/montrosepress", "media-class": "newspaper", "city-county-long": -107.8625, "media-subclass": "city-county", "website": "http://www.montrosepress.com/", "facebook": "https://www.facebook.com/MontroseDailyPress", "city-county-lat": 38.436409, "name": "Montrose Daily Press", "open-search": [], "city-county-name": "Montrose", "rss": ["http://www.montrosepress.com/search/?f=rss&t=article&l=50&s=start_time&sd=desc&k[]=%23topstory"]}, {"video": "", "twitter": "", "media-class": "newspaper", "city-county-long": -104.8684, "media-subclass": "city-county", "website": "http://www.pikespeaknewspapers.com/the-tribune/", "facebook": "https://www.facebook.com/pages/TRI-LAKES-Tribune/299582803481330", "city-county-lat": 39.098692, "name": "Tri Lakes Tribune", "open-search": [], "city-county-name": "Monument", "rss": []}, {"video": "", "twitter": "", "media-class": "newspaper", "city-county-long": -105.50805, "media-subclass": "city-county", "website": "http://themtnear.com/", "facebook": "https://www.facebook.com/pages/The-Mountain-Ear/254365715663", "city-county-lat": 39.964486, "name": "Nederland Mountain-Ear", "open-search": [], "city-county-name": "Nederland", "rss": ["http://themtnear.com/feed/", "http://themtnear.com/feed/atom/", "http://themtnear.com/comments/feed/"]}, {"video": "", "twitter": "", "media-class": "newspaper", "city-county-long": -105.275045, "media-subclass": "city-county", "website": "http://www.lhvc.com/", "facebook": "https://www.facebook.com/lefthandvalleycourier", "city-county-lat": 40.177043, "name": "Left Hand Valley Courier", "open-search": [], "city-county-name": "Niwot", "rss": ["http://www.lhvc.com/search/?f=rss&t=article&l=50&s=start_time&sd=desc&k[]=%23topstory"]}, {"video": "", "twitter": "", "media-class": "newspaper", "city-county-long": -108.2586, "media-subclass": "city-county", "website": "http://www.telluridenews.com/eedition_the_norwood_post/", "facebook": "https://www.facebook.com/TheNorwoodPost", "city-county-lat": 38.082231, "name": "Norwood Post", "open-search": ["http://www.telluridenews.com/search/opensearch/generic.xml"], "city-county-name": "Norwood", "rss": []}, {"video": "", "twitter": "http://www.twitter.com/SunshineXNews", "media-class": "newspaper", "city-county-long": -108.2586, "media-subclass": "city-county", "website": "http://thesunshineexpress.com/", "facebook": "https://www.facebook.com/SunshineXNews", "city-county-lat": 38.082231, "name": "Sunshine Express", "open-search": [], "city-county-name": "Norwood", "rss": []}, {"video": "https://www.youtube.com/channel/UCEw_RSKUYQtVvP_CN657vlQ", "twitter": "http://www.twitter.com/ocplaindealer", "media-class": "newspaper", "city-county-long": -107.67438, "media-subclass": "city-county", "website": "http://www.ouraynews.com/", "facebook": "https://www.facebook.com/pages/Ouraynewscom/164784523563199", "city-county-lat": 38.016388, "name": "Plaindealer", "open-search": [], "city-county-name": "Ouray", "rss": []}, {"video": "https://www.youtube.com/user/pagosadailypost", "twitter": "", "media-class": "newspaper", "city-county-long": -107.11287, "media-subclass": "city-county", "website": "http://www.pagosadailypost.com/", "facebook": "https://www.facebook.com/PagosaDailyPost", "city-county-lat": 37.241179, "name": "Pagosa Springs Daily Post", "open-search": [], "city-county-name": "Pagosa Springs", "rss": ["http://pagosadailypost.com/feed/", "http://pagosadailypost.com/comments/feed/"]}, {"video": "", "twitter": "", "media-class": "newspaper", "city-county-long": -107.11287, "media-subclass": "city-county", "website": "http://www.pagosasun.com/", "facebook": "https://www.facebook.com/PagosaSpringsSun", "city-county-lat": 37.241179, "name": "Pagosa Springs Sun", "open-search": [], "city-county-name": "Pagosa Springs", "rss": ["http://www.pagosasun.com/feed/", "http://www.pagosasun.com/comments/feed/"]}, {"video": "http://www.youtube.com/user/highcountrynews", "twitter": "http://www.twitter.com/highcountrynews", "media-class": "newspaper", "city-county-long": -107.58799, "media-subclass": "city-county", "website": "http://www.hcn.org/", "facebook": "https://www.facebook.com/highcountrynews", "city-county-lat": 38.877695, "name": "High Country News", "open-search": [], "city-county-name": "Paonia", "rss": ["http://cdn.hcn.org/rss/wotr/RSS", "http://cdn.hcn.org/rss/most-recent/RSS", "http://cdn.hcn.org/rss/most-popular.rss", "http://cdn.hcn.org/voices/ranchdiaries/RSS", "http://cdn.hcn.org/rss/current-issue/RSS"]}, {"video": "", "twitter": "", "media-class": "newspaper", "city-county-long": -104.78031, "media-subclass": "city-county", "website": "http://parkerchronicle.net/", "facebook": "https://www.facebook.com/parker.chronicle", "city-county-lat": 39.508608, "name": "Parker Chronicle", "open-search": [], "city-county-name": "Parker", "rss": []}, {"video": "https://www.youtube.com/user/ChieftainVideo", "twitter": "http://www.twitter.com/chieftainnews", "media-class": "newspaper", "city-county-long": -104.57029, "media-subclass": "city-county", "website": "http://www.chieftain.com/", "facebook": "https://www.facebook.com/ThePuebloChieftain", "city-county-lat": 38.282872, "name": "Pueblo Chieftain", "open-search": [], "city-county-name": "Pueblo", "rss": []}, {"video": "", "twitter": "http://www.twitter.com/heraldtimes", "media-class": "newspaper", "city-county-long": -108.77528, "media-subclass": "city-county", "website": "http://www.theheraldtimes.com/", "facebook": "https://www.facebook.com/theheraldtimes", "city-county-lat": 40.011447, "name": "Rangely Herald Times", "open-search": [], "city-county-name": "Rangely", "rss": ["http://www.theheraldtimes.com/feed/", "http://www.theheraldtimes.com/comments/feed/"]}, {"video": "", "twitter": "", "media-class": "newspaper", "city-county-long": -107.89755, "media-subclass": "city-county", "website": "http://www.postindependent.com/News/Rifle", "facebook": "https://www.facebook.com/citizentelegram", "city-county-lat": 39.603225, "name": "Citizen Telegram", "open-search": [], "city-county-name": "Rifle", "rss": ["http://www.postindependent.com/comments/feed/", "http://www.postindependent.com/feed/"]}, {"video": "", "twitter": "", "media-class": "newspaper", "city-county-long": -106.22626, "media-subclass": "city-county", "website": "http://www.smalltownpapers.com/listSAG.htm", "facebook": "", "city-county-lat": 38.120209, "name": "Saguache Crescent", "open-search": [], "city-county-name": "Saguache", "rss": []}, {"video": "https://www.youtube.com/channel/UCJMpLLMi0zM-WXXxCH9IWlg", "twitter": "http://www.twitter.com/TheMtnMail", "media-class": "newspaper", "city-county-long": -106.03468, "media-subclass": "city-county", "website": "http://www.themountainmail.com", "facebook": "https://www.facebook.com/TheMountainMail", "city-county-lat": 38.533464, "name": "Mountain Mail", "open-search": ["http://www.themountainmail.com/search/opensearch/generic.xml"], "city-county-name": "Salida", "rss": []}, {"video": "", "twitter": "", "media-class": "newspaper", "city-county-long": -107.62223, "media-subclass": "city-county", "website": "http://www.silvertonstandard.com/", "facebook": "https://www.facebook.com/pages/The-Silverton-Standard-the-Miner/396125677069591", "city-county-lat": 37.868294, "name": "Silverton Standard", "open-search": [], "city-county-name": "Silverton", "rss": []}, {"video": "", "twitter": "", "media-class": "newspaper", "city-county-long": -104.08793, "media-subclass": "city-county", "website": "http://www.ranchland-news.com/", "facebook": "https://www.facebook.com/pages/Ranchland-News/796268903746736", "city-county-lat": 39.172831, "name": "Ranchland News", "open-search": [], "city-county-name": "Simla", "rss": []}, {"video": "", "twitter": "http://www.twitter.com/SnowmassSun", "media-class": "newspaper", "city-county-long": -106.97888, "media-subclass": "city-county", "website": "http://www.aspentimes.com/News/Snowmass", "facebook": "https://www.facebook.com/snowmasssun", "city-county-lat": 39.254607, "name": "Snowmass Village Sun", "open-search": [], "city-county-name": "Snowmass", "rss": []}, {"video": "", "twitter": "", "media-class": "newspaper", "city-county-long": -106.63177, "media-subclass": "city-county", "website": "http://www.southforktines.com/", "facebook": "", "city-county-lat": 37.671046, "name": "South Fork Tines", "open-search": [], "city-county-name": "South Fork", "rss": []}, {"video": "http://www.youtube.com/user/SteamboatPilotToday", "twitter": "http://www.twitter.com/steamboatpilot", "media-class": "newspaper", "city-county-long": -106.92691, "media-subclass": "city-county", "website": "http://www.steamboattoday.com/", "facebook": "https://www.facebook.com/pages/Steamboat-Pilot-Today/45254790221", "city-county-lat": 40.348242, "name": "Steamboat Pilot", "open-search": [], "city-county-name": "Steamboat Springs", "rss": ["/rss/headlines/"]}, {"video": "http://www.youtube.com/user/southplattesentinel", "twitter": "http://www.twitter.com/SP_Sentinel", "media-class": "newspaper", "city-county-long": -103.21574, "media-subclass": "city-county", "website": "http://www.southplattesentinel.com/", "facebook": "https://www.facebook.com/SouthPlatteSentinel", "city-county-lat": 40.633845, "name": "South Platte Sentinel", "open-search": [], "city-county-name": "Sterling", "rss": ["http://www.southplattesentinel.com/feed/", "http://www.southplattesentinel.com/comments/feed/"]}, {"video": "https://www.youtube.com/user/journaladvocateco", "twitter": "http://www.twitter.com/SterlingJA", "media-class": "newspaper", "city-county-long": -103.21574, "media-subclass": "city-county", "website": "http://www.journal-advocate.com/", "facebook": "https://www.facebook.com/journaladvocate", "city-county-lat": 40.633845, "name": "Sterling Journal-Advocate", "open-search": [], "city-county-name": "Sterling", "rss": []}, {"video": "", "twitter": "http://www.twitter.com/CoHoWeekly", "media-class": "newspaper", "city-county-long": -105.1686, "media-subclass": "city-county", "website": "http://www.coloradohometownweekly.com/news/superior", "facebook": "https://www.facebook.com/coloradohometownweekly", "city-county-lat": 39.9528, "name": "Colorado Hometown Weekly", "open-search": [], "city-county-name": "Superior", "rss": []}, {"video": "", "twitter": "http://www.twitter.com/TelluridePlanet", "media-class": "newspaper", "city-county-long": -107.88874, "media-subclass": "city-county", "website": "http://www.telluridenews.com/", "facebook": "https://www.facebook.com/telluridedailyplanet", "city-county-lat": 37.932874, "name": "Telluride Daily Planet", "open-search": ["http://www.telluridenews.com/search/opensearch/generic.xml"], "city-county-name": "Telluride", "rss": []}, {"video": "http://www.youtube.com/user/telluridewatch", "twitter": "http://www.twitter.com/watchnewspapers", "media-class": "newspaper", "city-county-long": -107.88874, "media-subclass": "city-county", "website": "http://www.watchnewspapers.com/", "facebook": "https://www.facebook.com/watchnewspapers", "city-county-lat": 37.932874, "name": "Telluride Watch", "open-search": [], "city-county-name": "Telluride", "rss": []}, {"video": "", "twitter": "", "media-class": "newspaper", "city-county-long": -104.908921, "media-subclass": "city-county", "website": "http://northglenn-thorntonsentinel.com/", "facebook": "https://www.facebook.com/pages/Northglenn-Thornton-Sentinel/386462404757918", "city-county-lat": 39.958987, "name": "Northglenn-Thornton Sentinel", "open-search": [], "city-county-name": "Thornton", "rss": []}, {"video": "", "twitter": "", "media-class": "newspaper", "city-county-long": -104.47809, "media-subclass": "city-county", "website": "http://www.thechronicle-news.com/", "facebook": "https://www.facebook.com/TrinidadChronicleNews", "city-county-lat": 37.191882, "name": "Chronicle News", "open-search": ["http://www.thechronicle-news.com/search/opensearch/generic.xml"], "city-county-name": "Trinidad", "rss": []}, {"video": "http://www.youtube.com/user/VailDaily", "twitter": "http://www.twitter.com/vaildaily", "media-class": "newspaper", "city-county-long": -106.37077, "media-subclass": "city-county", "website": "http://www.vaildaily.com/", "facebook": "https://www.facebook.com/VailNews", "city-county-lat": 39.634566, "name": "Vail Daily", "open-search": [], "city-county-name": "Vail", "rss": []}, {"video": "http://www.youtube.com/channel/UCcYf3iLNDYcKOFUvvR22Yng", "twitter": "", "media-class": "newspaper", "city-county-long": -104.80456, "media-subclass": "city-county", "website": "http://huerfanojournal.com/", "facebook": "https://www.facebook.com/huerfanoworldjournal", "city-county-lat": 37.621071, "name": "Huerfano World Journal", "open-search": [], "city-county-name": "Walsenburg", "rss": ["https://huerfanoworldjournal.com/feed/", "https://huerfanoworldjournal.com/comments/feed/"]}, {"video": "", "twitter": "", "media-class": "newspaper", "city-county-long": -105.45798, "media-subclass": "city-county", "website": "http://www.wetmountaintribune.com", "facebook": "https://www.facebook.com/pages/Wet-Mountain-Tribune/367143224056", "city-county-lat": 38.130741, "name": "Wet Mountain Tribune", "open-search": [], "city-county-name": "Westcliffe", "rss": []}, {"video": "", "twitter": "", "media-class": "newspaper", "city-county-long": -105.03736, "media-subclass": "city-county", "website": "http://westminsterwindow.com/", "facebook": "https://www.facebook.com/pages/Westminster-Window/402223329851370", "city-county-lat": 39.830936, "name": "Westminster Window", "open-search": [], "city-county-name": "Westminster", "rss": []}, {"video": "", "twitter": "", "media-class": "newspaper", "city-county-long": -105.10036, "media-subclass": "city-county", "website": "http://wheatridgetranscript.com/", "facebook": "https://www.facebook.com/thetranscript", "city-county-lat": 39.774341, "name": "Wheat Ridge Transcript", "open-search": [], "city-county-name": "Wheat Ridge", "rss": []}, {"video": "", "twitter": "http://www.twitter.com/WindsorBeacon", "media-class": "newspaper", "city-county-long": -104.90227, "media-subclass": "city-county", "website": "http://www.coloradoan.com/windsor-beacon/", "facebook": "", "city-county-lat": 40.47997, "name": "Windsor Beacon", "open-search": [], "city-county-name": "Windsor", "rss": []}, {"video": "", "twitter": "http://www.twitter.com/WindsorNow", "media-class": "newspaper", "city-county-long": -104.90227, "media-subclass": "city-county", "website": "http://www.mywindsornow.com/", "facebook": "https://www.facebook.com/mywindsornow", "city-county-lat": 40.47997, "name": "Windsor Now", "open-search": [], "city-county-name": "Windsor", "rss": []}, {"video": "", "twitter": "http://www.twitter.com/TMountainJ", "media-class": "newspaper", "city-county-long": -105.06335, "media-subclass": "city-county", "website": "http://www.mountainjackpot.com/", "facebook": "https://www.facebook.com/TMJnews", "city-county-lat": 38.996004, "name": "Mountain Jackpot", "open-search": [], "city-county-name": "Woodland Park", "rss": ["http://www.mountainjackpot.com/feed/", "http://www.mountainjackpot.com/comments/feed/"]}, {"video": "", "twitter": "", "media-class": "newspaper", "city-county-long": -105.06335, "media-subclass": "city-county", "website": "http://www.pikespeaknewspapers.com/the-pikes-peak-courier/", "facebook": "https://www.facebook.com/pages/PIKES-PEAK-Courier/375256489221170", "city-county-lat": 38.996004, "name": "Pikes Peak Courier", "open-search": [], "city-county-name": "Woodland Park", "rss": []}, {"video": "http://www.youtube.com/user/RockyMtnCollegian", "twitter": "http://www.twitter.com/RMCollegian", "media-class": "newspaper", "city-county-long": -105.0902, "media-subclass": "college", "website": "http://www.collegian.com/", "facebook": "https://www.facebook.com/pages/The-Rocky-Mountain-Collegian/80941352421", "city-county-lat": 40.5703, "name": "Rocky Mountain Collegian", "open-search": [], "city-county-name": "Co St-Ft Collins", "rss": ["http://collegian.com/feed/", "http://collegian.com/comments/feed/"]}, {"video": "", "twitter": "http://www.twitter.com/flcindependent", "media-class": "newspaper", "city-county-long": -107.8684, "media-subclass": "college", "website": "http://www.theindyonline.com/", "facebook": "https://www.facebook.com/TheIndependentflc", "city-county-lat": 37.2753, "name": "Independent", "open-search": [], "city-county-name": "Fort Lewis College", "rss": []}, {"video": "", "twitter": "", "media-class": "newspaper", "city-county-long": -108.5535, "media-subclass": "college", "website": "http://thecrite.com/", "facebook": "", "city-county-lat": 39.0788, "name": "The Criterion Newspaper", "open-search": [], "city-county-name": "Mesa State College", "rss": ["http://thecrite.com/comesau/feed/", "http://thecrite.com/comesau/comments/feed/"]}, {"video": "http://www.youtube.com/themetonline", "twitter": "http://www.twitter.com/themetonline", "media-class": "newspaper", "city-county-long": -105.0077, "media-subclass": "college", "website": "http://mymetmedia.com/", "facebook": "https://www.facebook.com/TheMetropolitan", "city-county-lat": 39.7458, "name": "Metropolitan", "open-search": [], "city-county-name": "Metropolitan State-Denver", "rss": ["http://mymetmedia.com/feed/", "http://mymetmedia.com/comments/feed/"]}, {"video": "http://www.youtube.com/user/ucdadvocate", "twitter": "http://www.twitter.com/ucd_advocate", "media-class": "newspaper", "city-county-long": -104.9, "media-subclass": "college", "website": "http://www.ucdadvocate.com/", "facebook": "https://www.facebook.com/UCDAdvocate", "city-county-lat": 39.7905, "name": "The Advocate", "open-search": [], "city-county-name": "Univ of CO Denver", "rss": ["http://cu-sentry.com/feed/", "http://cu-sentry.com/comments/feed/"]}, {"video": "", "twitter": "http://www.twitter.com/duclarion", "media-class": "newspaper", "city-county-long": -104.9619, "media-subclass": "college", "website": "http://duclarion.com/", "facebook": "https://www.facebook.com/DUClarion", "city-county-lat": 39.6766, "name": "Clarion", "open-search": [], "city-county-name": "Univ of Denver", "rss": []}], "radio": [{"video": "", "twitter": "http://www.twitter.com/aspenpubradio", "media-class": "radio", "city-county-long": -106.8191, "media-subclass": "Aspen Public Radio", "website": "http://aspenpublicradio.org/", "facebook": "https://www.facebook.com/aspenradio", "city-county-lat": 39.196857, "name": "KAJX 91.5 FM", "open-search": [], "city-county-name": "Aspen", "rss": ["http://aspenpublicradio.org/rss.xml"]}, {"video": "", "twitter": "http://www.twitter.com/kdnkradio", "media-class": "radio", "city-county-long": -106.8191, "media-subclass": "Aspen Public Radio", "website": "http://kdnk.org/", "facebook": "https://www.facebook.com/pages/KDNK-Carbondale-Community-Access-Radio/66273715840", "city-county-lat": 39.196857, "name": "KDNK 91.5 FM", "open-search": [], "city-county-name": "Aspen", "rss": []}, {"video": "http://www.youtube.com/1100knzz", "twitter": "http://www.twitter.com/mbcgrandnews", "media-class": "radio", "city-county-long": -106.8191, "media-subclass": "Aspen Public Radio", "website": "http://www.1100knzz.com/", "facebook": "https://www.facebook.com/1100knzz", "city-county-lat": 39.196857, "name": "KNZZ 91.5 FM", "open-search": [], "city-county-name": "Aspen", "rss": []}, {"video": "", "twitter": "", "media-class": "radio", "city-county-long": -106.8191, "media-subclass": "Aspen Public Radio", "website": "http://www.ksno.net/", "facebook": "https://www.facebook.com/pages/Team-KSNO/196202532636", "city-county-lat": 39.196857, "name": "KSNO 91.5 FM", "open-search": [], "city-county-name": "Aspen", "rss": ["http://ksno.net/feed/", "http://ksno.net/comments/feed/"]}, {"video": "", "twitter": "http://www.twitter.com/973KBCO", "media-class": "radio", "city-county-long": -105.21928, "media-subclass": "Adult Alternative", "website": "http://www.kbco.com/", "facebook": "https://www.facebook.com/KBCO97.3FM", "city-county-lat": 40.044385, "name": "KBCO 97.3 FM", "open-search": [], "city-county-name": "Boulder", "rss": []}, {"video": "", "twitter": "http://www.twitter.com/KGNU", "media-class": "radio", "city-county-long": -105.21928, "media-subclass": "Adult Alternative", "website": "http://www.kgnu.org/", "facebook": "https://www.facebook.com/pages/KGNU-Community-Radio/162191133812039", "city-county-lat": 40.044385, "name": "KGNU 97.3 FM", "open-search": [], "city-county-name": "Boulder", "rss": []}, {"video": "https://www.youtube.com/user/KVCURadio1190/videos", "twitter": "http://www.twitter.com/Radio1190NEWS", "media-class": "radio", "city-county-long": -105.21928, "media-subclass": "Adult Alternative", "website": "http://www.radio1190.org/", "facebook": "https://www.facebook.com/ColorMeInKvcuRadio1190", "city-county-lat": 40.044385, "name": "KVCU 97.3 FM", "open-search": [], "city-county-name": "Boulder", "rss": []}, {"video": "", "twitter": "http://www.twitter.com/Y969", "media-class": "radio", "city-county-long": -104.84063, "media-subclass": "Country", "website": "http://www.y969.com/", "facebook": "https://www.facebook.com/y969country", "city-county-lat": 38.828692, "name": "KCCY 96.9 FM", "open-search": [], "city-county-name": "Colorado Springs", "rss": []}, {"video": "", "twitter": "http://www.twitter.com/AM1300TheAnimal", "media-class": "radio", "city-county-long": -104.84063, "media-subclass": "Country", "website": "http://www.theanimal1300.com/", "facebook": "https://www.facebook.com/AM1300TheAnimal", "city-county-lat": 38.828692, "name": "KCFS 96.9 FM", "open-search": [], "city-county-name": "Colorado Springs", "rss": ["http://www.xtrasports1300.com/comments/feed/", "http://www.xtrasports1300.com/feed/", "http://www.xtrasports1300.com/home/feed/"]}, {"video": "", "twitter": "", "media-class": "radio", "city-county-long": -104.84063, "media-subclass": "Country", "website": "http://www.kcme.org/", "facebook": "https://www.facebook.com/pages/KCME-Classical-Music-Radio/335474505079", "city-county-lat": 38.828692, "name": "KCME 96.9 FM", "open-search": [], "city-county-name": "Colorado Springs", "rss": ["https://www.kcme.org/feed/", "https://www.kcme.org/comments/feed/"]}, {"video": "", "twitter": "http://www.twitter.com/BeatColorado", "media-class": "radio", "city-county-long": -104.84063, "media-subclass": "Country", "website": "http://www.beatcolorado.com/", "facebook": "https://www.facebook.com/pages/961-The-Beat/224690610892967", "city-county-lat": 38.828692, "name": "KIBT 96.9 FM", "open-search": [], "city-county-name": "Colorado Springs", "rss": []}, {"video": "", "twitter": "", "media-class": "radio", "city-county-long": -104.84063, "media-subclass": "Country", "website": "http://www.kkfm.com/", "facebook": "https://www.facebook.com/KKFM981", "city-county-lat": 38.828692, "name": "KKFM 96.9 FM", "open-search": [], "city-county-name": "Colorado Springs", "rss": ["http://www.kkfm.com/feed/", "http://www.kkfm.com/home/feed/", "http://www.kkfm.com/comments/feed/"]}, {"video": "", "twitter": "http://www.twitter.com/klite1063", "media-class": "radio", "city-county-long": -104.84063, "media-subclass": "Country", "website": "http://www.klite1063.com/", "facebook": "https://www.facebook.com/kklifm", "city-county-lat": 38.828692, "name": "KKLI 96.9 FM", "open-search": [], "city-county-name": "Colorado Springs", "rss": []}, {"video": "", "twitter": "", "media-class": "radio", "city-county-long": -104.84063, "media-subclass": "Country", "website": "http://www.989magicfm.com/", "facebook": "https://www.facebook.com/989magic", "city-county-lat": 38.828692, "name": "KKMG 96.9 FM", "open-search": [], "city-county-name": "Colorado Springs", "rss": ["http://www.989magicfm.com/comments/feed/", "http://www.989magicfm.com/feed/", "http://www.989magicfm.com/home/feed/"]}, {"video": "", "twitter": "http://www.twitter.com/740kvor", "media-class": "radio", "city-county-long": -104.84063, "media-subclass": "Country", "website": "http://www.kvor.com/", "facebook": "https://www.facebook.com/740kvor", "city-county-lat": 38.828692, "name": "KVOR 96.9 FM", "open-search": [], "city-county-name": "Colorado Springs", "rss": ["http://www.kvor.com/comments/feed/", "http://www.kvor.com/home/feed/", "http://www.kvor.com/feed/"]}, {"video": "http://www.youtube.com/user/Alice1059TV", "twitter": "http://www.twitter.com/alice1059", "media-class": "radio", "city-county-long": -104.856808, "media-subclass": "Adult Contemp", "website": "http://www.alice1059.com/", "facebook": "https://www.facebook.com/alice1059", "city-county-lat": 39.726303, "name": "KALC 105.9 FM", "open-search": [], "city-county-name": "Denver", "rss": []}, {"video": "", "twitter": "http://www.twitter.com/1067kbpi", "media-class": "radio", "city-county-long": -104.856808, "media-subclass": "Adult Contemp", "website": "http://www.kbpi.com/", "facebook": "https://www.facebook.com/KBPIFM", "city-county-lat": 39.726303, "name": "KBPI 105.9 FM", "open-search": [], "city-county-name": "Denver", "rss": []}, {"video": "http://www.youtube.com/user/ColoradoPublicRadio", "twitter": "http://www.twitter.com/newscpr", "media-class": "radio", "city-county-long": -104.856808, "media-subclass": "Adult Contemp", "website": "http://www.cpr.org/", "facebook": "https://www.facebook.com/CPRnews", "city-county-lat": 39.726303, "name": "KCFR 105.9 FM", "open-search": [], "city-county-name": "Denver", "rss": []}, {"video": "", "twitter": "", "media-class": "radio", "city-county-long": -104.856808, "media-subclass": "Adult Contemp", "website": "http://www.studio1430.com/", "facebook": "", "city-county-lat": 39.726303, "name": "KEZW 105.9 FM", "open-search": [], "city-county-name": "Denver", "rss": []}, {"video": "", "twitter": "http://www.twitter.com/630khow", "media-class": "radio", "city-county-long": -104.856808, "media-subclass": "Adult Contemp", "website": "http://www.khow.com/", "facebook": "https://www.facebook.com/630KHOW", "city-county-lat": 39.726303, "name": "KHOW 105.9 FM", "open-search": [], "city-county-name": "Denver", "rss": []}, {"video": "", "twitter": "http://www.twitter.com/mix100denver", "media-class": "radio", "city-county-long": -104.856808, "media-subclass": "Adult Contemp", "website": "http://www.mix100.com/", "facebook": "https://www.facebook.com/mix100", "city-county-lat": 39.726303, "name": "KIMN 105.9 FM", "open-search": [], "city-county-name": "Denver", "rss": ["http://www.mix100.com/feed/", "http://www.mix100.com/home-page/feed/", "http://www.mix100.com/comments/feed/"]}, {"video": "http://www.youtube.com/user/1043TheFanDenver", "twitter": "http://www.twitter.com/1043TheFan", "media-class": "radio", "city-county-long": -104.856808, "media-subclass": "Adult Contemp", "website": "http://www.1043thefan.com/", "facebook": "https://www.facebook.com/1043TheFan", "city-county-lat": 39.726303, "name": "KKFN 105.9 FM", "open-search": [], "city-county-name": "Denver", "rss": []}, {"video": "", "twitter": "http://www.twitter.com/AM760", "media-class": "radio", "city-county-long": -104.856808, "media-subclass": "Adult Contemp", "website": "http://www.am760.net/", "facebook": "https://www.facebook.com/AM760", "city-county-lat": 39.726303, "name": "KKZN 105.9 FM", "open-search": [], "city-county-name": "Denver", "rss": []}, {"video": "http://www.youtube.com/user/710KNUS", "twitter": "http://www.twitter.com/710KNUS", "media-class": "radio", "city-county-long": -104.856808, "media-subclass": "Adult Contemp", "website": "http://www.710knus.com/", "facebook": "https://www.facebook.com/710KNUS", "city-county-lat": 39.726303, "name": "KNUS 105.9 FM", "open-search": [], "city-county-name": "Denver", "rss": []}, {"video": "", "twitter": "http://www.twitter.com/850KOA", "media-class": "radio", "city-county-long": -104.856808, "media-subclass": "Adult Contemp", "website": "http://www.850koa.com/", "facebook": "http://www.facebook.com/850koa", "city-county-lat": 39.726303, "name": "KOA 105.9 FM", "open-search": [], "city-county-name": "Denver", "rss": []}, {"video": "http://www.youtube.com/user/kosiradio", "twitter": "http://www.twitter.com/kosi1011", "media-class": "radio", "city-county-long": -104.856808, "media-subclass": "Adult Contemp", "website": "http://www.kosi101.com/", "facebook": "https://www.facebook.com/KOSI101", "city-county-lat": 39.726303, "name": "KOSI 105.9 FM", "open-search": [], "city-county-name": "Denver", "rss": ["http://kosi101.com/feed/", "http://kosi101.com/comments/feed/"]}, {"video": "http://www.youtube.com/user/ziggy8503", "twitter": "http://www.twitter.com/ks1075", "media-class": "radio", "city-county-long": -104.856808, "media-subclass": "Adult Contemp", "website": "http://www.ks1075.com/", "facebook": "https://www.facebook.com/KS1075", "city-county-lat": 39.726303, "name": "KQKS 105.9 FM", "open-search": [], "city-county-name": "Denver", "rss": []}, {"video": "", "twitter": "http://www.twitter.com/995themountain", "media-class": "radio", "city-county-long": -104.856808, "media-subclass": "Adult Contemp", "website": "http://www.995themountain.com/", "facebook": "https://www.facebook.com/995themountain", "city-county-lat": 39.726303, "name": "KQMT 105.9 FM", "open-search": [], "city-county-name": "Denver", "rss": []}, {"video": "", "twitter": "http://www.twitter.com/1035thefox", "media-class": "radio", "city-county-long": -104.856808, "media-subclass": "Adult Contemp", "website": "http://www.thefox.com/", "facebook": "https://www.facebook.com/1035thefox", "city-county-lat": 39.726303, "name": "KRFX 105.9 FM", "open-search": [], "city-county-name": "Denver", "rss": []}, {"video": "", "twitter": "", "media-class": "radio", "city-county-long": -104.856808, "media-subclass": "Adult Contemp", "website": "http://www.area93.com/", "facebook": "https://www.facebook.com/KTCLChannel933", "city-county-lat": 39.726303, "name": "KTCL 105.9 FM", "open-search": [], "city-county-name": "Denver", "rss": []}, {"video": "", "twitter": "http://www.twitter.com/KUVOJazz89", "media-class": "radio", "city-county-long": -104.856808, "media-subclass": "Adult Contemp", "website": "http://www.kuvo.org/", "facebook": "https://www.facebook.com/jazz89kuvo", "city-county-lat": 39.726303, "name": "KUVO 105.9 FM", "open-search": [], "city-county-name": "Denver", "rss": ["http://kuvo.org/rss.xml"]}, {"video": "http://www.youtube.com/user/ColoradoPublicRadio", "twitter": "http://www.twitter.com/cprclassical", "media-class": "radio", "city-county-long": -104.856808, "media-subclass": "Adult Contemp", "website": "http://www.cpr.org/", "facebook": "https://www.facebook.com/CPRclassical", "city-county-lat": 39.726303, "name": "KVOD 105.9 FM", "open-search": [], "city-county-name": "Denver", "rss": []}, {"video": "", "twitter": "http://www.twitter.com/kool105denver", "media-class": "radio", "city-county-long": -104.856808, "media-subclass": "Adult Contemp", "website": "http://www.kool105.com/", "facebook": "https://www.facebook.com/kool105denver", "city-county-lat": 39.726303, "name": "KXKL 105.9 FM", "open-search": [], "city-county-name": "Denver", "rss": ["http://www.kool105.com/feed/", "http://www.kool105.com/comments/feed/", "http://www.kool105.com/home-page/feed/"]}, {"video": "http://www.youtube.com/user/985KYGO", "twitter": "http://www.twitter.com/DenversKYGO", "media-class": "radio", "city-county-long": -104.856808, "media-subclass": "Adult Contemp", "website": "http://www.kygo.com/", "facebook": "https://www.facebook.com/98.5KYGO", "city-county-lat": 39.726303, "name": "KYGO 105.9 FM", "open-search": [], "city-county-name": "Denver", "rss": ["http://kygo.com/feed/", "http://kygo.com/comments/feed/"]}, {"video": "", "twitter": "", "media-class": "radio", "city-county-long": -107.84945, "media-subclass": "Voice of Rockies", "website": "http://www.radiodurango.com/kiqx.html", "facebook": "", "city-county-lat": 37.295888, "name": "KIQX 101.3 FM", "open-search": [], "city-county-name": "Durango", "rss": []}, {"video": "", "twitter": "", "media-class": "radio", "city-county-long": -107.84945, "media-subclass": "Voice of Rockies", "website": "http://www.radiodurango.com/kiup.html", "facebook": "", "city-county-lat": 37.295888, "name": "KIUP 101.3 FM", "open-search": [], "city-county-name": "Durango", "rss": []}, {"video": "", "twitter": "", "media-class": "radio", "city-county-long": -107.84945, "media-subclass": "Voice of Rockies", "website": "http://www.radiodurango.com/krsj.html", "facebook": "", "city-county-lat": 37.295888, "name": "KRSJ 101.3 FM", "open-search": [], "city-county-name": "Durango", "rss": []}, {"video": "", "twitter": "", "media-class": "radio", "city-county-long": -105.10494, "media-subclass": "Classic Rock", "website": "http://rock1029.com/", "facebook": "https://www.facebook.com/Rock1029", "city-county-lat": 40.586282, "name": "KARS 102.9 FM", "open-search": [], "city-county-name": "Fort Collins", "rss": ["http://rock1029.com/feed/"]}, {"video": "", "twitter": "http://www.twitter.com/600KCOLMornings", "media-class": "radio", "city-county-long": -105.10494, "media-subclass": "Classic Rock", "website": "http://www.600kcol.com/", "facebook": "https://www.facebook.com/600kcol", "city-county-lat": 40.586282, "name": "KCOL 102.9 FM", "open-search": [], "city-county-name": "Fort Collins", "rss": []}, {"video": "", "twitter": "http://www.twitter.com/kcsufm", "media-class": "radio", "city-county-long": -105.10494, "media-subclass": "Classic Rock", "website": "http://www.kcsufm.com/", "facebook": "https://www.facebook.com/pages/905-KCSU/92374116165", "city-county-lat": 40.586282, "name": "KCSU 102.9 FM", "open-search": [], "city-county-name": "Fort Collins", "rss": ["http://kcsufm.com/comments/feed/", "http://kcsufm.com/feed/"]}, {"video": "", "twitter": "", "media-class": "radio", "city-county-long": -105.10494, "media-subclass": "Classic Rock", "website": "http://americanewsnet.com/", "facebook": "http://www.facebook.com/1360amthelion", "city-county-lat": 40.586282, "name": "KHNC 102.9 FM", "open-search": [], "city-county-name": "Fort Collins", "rss": ["http://1360am.co/index.php/feed/", "http://1360am.co/index.php/comments/feed/"]}, {"video": "", "twitter": "http://www.twitter.com/KIIXCountry", "media-class": "radio", "city-county-long": -105.10494, "media-subclass": "Classic Rock", "website": "http://www.kiixcountry.com/", "facebook": "https://www.facebook.com/KIIXAM1410", "city-county-lat": 40.586282, "name": "KIIX 102.9 FM", "open-search": [], "city-county-name": "Fort Collins", "rss": []}, {"video": "", "twitter": "http://www.twitter.com/943Loudwire", "media-class": "radio", "city-county-long": -105.10494, "media-subclass": "Classic Rock", "website": "http://943loudwire.com/", "facebook": "https://www.facebook.com/943loudwire", "city-county-lat": 40.586282, "name": "KMAX 102.9 FM", "open-search": [], "city-county-name": "Fort Collins", "rss": ["http://thexfrontrange.com/feed/"]}, {"video": "", "twitter": "http://www.twitter.com/1079fmTheBear", "media-class": "radio", "city-county-long": -105.10494, "media-subclass": "Classic Rock", "website": "http://www.1079thebear.com/", "facebook": "https://www.facebook.com/1079thebear", "city-county-lat": 40.586282, "name": "KPAW 102.9 FM", "open-search": [], "city-county-name": "Fort Collins", "rss": []}, {"video": "", "twitter": "http://www.twitter.com/KRFC", "media-class": "radio", "city-county-long": -105.10494, "media-subclass": "Classic Rock", "website": "http://www.krfcfm.org/", "facebook": "https://www.facebook.com/KRFCradio", "city-county-lat": 40.586282, "name": "KRFC 102.9 FM", "open-search": [], "city-county-name": "Fort Collins", "rss": ["http://www.krfcfm.org/feed/", "http://www.krfcfm.org/feed/podcast"]}, {"video": "http://www.youtube.com/user/kissfmcolorado", "twitter": "http://www.twitter.com/961kissfm", "media-class": "radio", "city-county-long": -105.10494, "media-subclass": "Classic Rock", "website": "http://www.kissfmcolorado.com/", "facebook": "https://www.facebook.com/961kissfm", "city-county-lat": 40.586282, "name": "KSME 102.9 FM", "open-search": [], "city-county-name": "Fort Collins", "rss": []}, {"video": "https://www.youtube.com/user/TRI1025Radio/videos", "twitter": "http://www.twitter.com/tri1025", "media-class": "radio", "city-county-long": -105.10494, "media-subclass": "Classic Rock", "website": "http://tri1025.com/", "facebook": "https://www.facebook.com/TRI1025", "city-county-lat": 40.586282, "name": "KTRR 102.9 FM", "open-search": [], "city-county-name": "Fort Collins", "rss": ["http://tri1025.com/feed/"]}, {"video": "", "twitter": "http://www.twitter.com/krystal93Radio", "media-class": "radio", "city-county-long": -106.14029, "media-subclass": "Adult Contemp", "website": "http://www.krystal93.com/", "facebook": "https://www.facebook.com/Krystal93Radio", "city-county-lat": 39.532506, "name": "KYSL 93.9 FM", "open-search": [], "city-county-name": "Frisco", "rss": []}, {"video": "", "twitter": "", "media-class": "radio", "city-county-long": -105.0844, "media-subclass": "Nostalgia/Country", "website": "http://www.pirate1047.com/", "facebook": "https://www.facebook.com/pages/Pirate-Radio-KELS-LP-Greeley-CO-1047FM/127158307479", "city-county-lat": 40.5853, "name": "KELS 104.7 FM", "open-search": [], "city-county-name": "Ft. Collins", "rss": []}, {"video": "", "twitter": "", "media-class": "radio", "city-county-long": -107.32107, "media-subclass": "Country", "website": "http://www.kmts.com/", "facebook": "https://www.facebook.com/kmtsfm", "city-county-lat": 39.533318, "name": "KMTS 99.1 FM", "open-search": [], "city-county-name": "Glenwood Springs", "rss": ["http://www.kmts.com/comments/feed", "http://www.kmts.com/feed", "http://www.kmts.com/339-2/feed"]}, {"video": "http://www.youtube.com/user/KAFMRADIO", "twitter": "", "media-class": "radio", "city-county-long": -108.55, "media-subclass": "Community", "website": "http://kafmradio.org/", "facebook": "https://www.facebook.com/kafm.communityradio", "city-county-lat": 39.072831, "name": "KAFM 88.1 FM", "open-search": [], "city-county-name": "Grand Junction", "rss": []}, {"video": "", "twitter": "http://www.twitter.com/thevault1007", "media-class": "radio", "city-county-long": -108.55, "media-subclass": "Community", "website": "http://www.thevault923.com/", "facebook": "https://www.facebook.com/thevault1007", "city-county-lat": 39.072831, "name": "KKVT 88.1 FM", "open-search": [], "city-county-name": "Grand Junction", "rss": []}, {"video": "http://www.youtube.com/931magic", "twitter": "http://www.twitter.com/931magic", "media-class": "radio", "city-county-long": -108.55, "media-subclass": "Community", "website": "http://www.931magic.com/", "facebook": "https://www.facebook.com/93magic", "city-county-lat": 39.072831, "name": "KMGJ 88.1 FM", "open-search": [], "city-county-name": "Grand Junction", "rss": []}, {"video": "http://www.youtube.com/1100knzz", "twitter": "", "media-class": "radio", "city-county-long": -108.55, "media-subclass": "Community", "website": "http://www.1100knzz.com/", "facebook": "https://www.facebook.com/1100knzz", "city-county-lat": 39.072831, "name": "KNZZ 88.1 FM", "open-search": [], "city-county-name": "Grand Junction", "rss": []}, {"video": "", "twitter": "http://www.twitter.com/1310kfkanews", "media-class": "radio", "city-county-long": -104.800547, "media-subclass": "News Talk", "website": "http://1310kfka.com/", "facebook": "https://www.facebook.com/pages/NewsTalk-1310-KFKA/67710586948", "city-county-lat": 40.405094, "name": "KFKA 1310 AM", "open-search": [], "city-county-name": "Greeley", "rss": ["http://1310kfka.com/feed/", "http://1310kfka.com/comments/feed/"]}, {"video": "", "twitter": "http://www.twitter.com/K99radio", "media-class": "radio", "city-county-long": -104.800547, "media-subclass": "News Talk", "website": "http://k99.com/", "facebook": "http://www.facebook.com/K99FM", "city-county-lat": 40.405094, "name": "KUAD 1310 AM", "open-search": [], "city-county-name": "Greeley", "rss": ["http://k99.com/feed/"]}, {"video": "", "twitter": "http://www.twitter.com/kunc", "media-class": "radio", "city-county-long": -104.800547, "media-subclass": "News Talk", "website": "http://kunc.org/", "facebook": "https://www.facebook.com/KUNC915", "city-county-lat": 40.405094, "name": "KUNC 1310 AM", "open-search": [], "city-county-name": "Greeley", "rss": ["http://www.kunc.org/rss.xml"]}, {"video": "", "twitter": "", "media-class": "radio", "city-county-long": -105.56054, "media-subclass": "Free Form", "website": "http://www.kygt.org/", "facebook": "http://www.facebook.com/KYGTFM", "city-county-lat": 39.737369, "name": "KYGT 102.7 FM", "open-search": [], "city-county-name": "Idaho Springs", "rss": []}, {"video": "", "twitter": "", "media-class": "radio", "city-county-long": -107.11287, "media-subclass": "Adult Contemp", "website": "http://www.kwuf.com/", "facebook": "https://www.facebook.com/pages/KWUF-1063-FM/181416815985", "city-county-lat": 37.241179, "name": "KWUF 106.1 FM", "open-search": [], "city-county-name": "Pagosa Springs", "rss": []}, {"video": "", "twitter": "", "media-class": "radio", "city-county-long": -107.11287, "media-subclass": "Adult Contemp", "website": "http://www.kwuf.com/", "facebook": "", "city-county-lat": 37.241179, "name": "KWUF 106.1 FM", "open-search": [], "city-county-name": "Pagosa Springs", "rss": []}, {"video": "", "twitter": "http://www.twitter.com/kvnfradio", "media-class": "radio", "city-county-long": -107.58799, "media-subclass": "Community Radio", "website": "http://kvnf.org/", "facebook": "https://www.facebook.com/pages/KVNF-Mountain-Grown-Public-Radio/369642720599", "city-county-lat": 38.877695, "name": "KVNF 90.9 FM", "open-search": [], "city-county-name": "Paonia", "rss": ["http://kvnf.org/rss.xml"]}, {"video": "", "twitter": "http://www.twitter.com/95RockKKNN", "media-class": "radio", "city-county-long": -108.11571, "media-subclass": "Epic Rock", "website": "http://95rockfm.com/", "facebook": "https://www.facebook.com/KKNNFM", "city-county-lat": 39.493283, "name": "KDBN 101.1 FM", "open-search": [], "city-county-name": "Parachute", "rss": ["http://95rockfm.com/feed/"]}, {"video": "", "twitter": "", "media-class": "radio", "city-county-long": -108.11571, "media-subclass": "Epic Rock", "website": "http://www.ksunradio.org/", "facebook": "", "city-county-lat": 39.493283, "name": "KSBP 101.1 FM", "open-search": [], "city-county-name": "Parachute", "rss": ["http://www.ksunradio.org/rss.xml"]}, {"video": "", "twitter": "http://www.twitter.com/Z1079Rocks", "media-class": "radio", "city-county-long": -104.57029, "media-subclass": "Oldies", "website": "http://www.z1079rocks.com/", "facebook": "", "city-county-lat": 38.282872, "name": "KDZA 107.9 FM", "open-search": [], "city-county-name": "Pueblo", "rss": []}, {"video": "http://www.youtube.com/user/KPHT955", "twitter": "http://www.twitter.com/KPHT955", "media-class": "radio", "city-county-long": -104.57029, "media-subclass": "Oldies", "website": "http://www.kpht955.com/", "facebook": "https://www.facebook.com/955kpht", "city-county-lat": 38.282872, "name": "KPHT 107.9 FM", "open-search": [], "city-county-name": "Pueblo", "rss": []}, {"video": "", "twitter": "http://www.twitter.com/957thegame", "media-class": "radio", "city-county-long": -122.4194, "media-subclass": "Sports Talk", "website": "http://www.957thegame.com/", "facebook": "https://www.facebook.com/957thegame", "city-county-lat": 37.7749, "name": "KGMZ 95.7 FM", "open-search": [], "city-county-name": "San Francisco", "rss": []}, {"video": "", "twitter": "", "media-class": "radio", "city-county-long": -107.88874, "media-subclass": "Public Radio", "website": "http://koto.org/", "facebook": "https://www.facebook.com/pages/KOTO-Community-Radio-Telluride/145296022209430", "city-county-lat": 37.932874, "name": "KOTO 91.7 FM", "open-search": [], "city-county-name": "Telluride", "rss": ["http://koto.org/feed/"]}, {"video": "", "twitter": "", "media-class": "radio", "city-county-long": -104.80456, "media-subclass": "Country", "website": "http://www.kspk.com/", "facebook": "https://www.facebook.com/KSPKFM", "city-county-lat": 37.621071, "name": "KSPK 102.3 FM", "open-search": [], "city-county-name": "Walsenburg", "rss": []}], "tv": [{"video": "", "twitter": "http://www.twitter.com/kktv11news", "media-class": "tv", "city-county-long": -104.84063, "media-subclass": "", "website": "http://www.kktv.com/", "facebook": "https://www.facebook.com/kktv11news", "city-county-lat": 38.828692, "name": "KKTV", "open-search": [], "city-county-name": "Colorado Springs", "rss": []}, {"video": "https://www.youtube.com/user/KRDOTV", "twitter": "http://www.twitter.com/krdonc13", "media-class": "tv", "city-county-long": -104.84063, "media-subclass": "", "website": "http://www.krdo.com/", "facebook": "https://www.facebook.com/KRDONewsChannel13", "city-county-lat": 38.828692, "name": "KRDO", "open-search": [], "city-county-name": "Colorado Springs", "rss": []}, {"video": "http://www.youtube.com/user/FOX21NewsColorado", "twitter": "http://www.twitter.com/FOX21News", "media-class": "tv", "city-county-long": -104.84063, "media-subclass": "", "website": "http://www.fox21news.com/", "facebook": "https://www.facebook.com/FOX21NewsColorado", "city-county-lat": 38.828692, "name": "KXRM", "open-search": ["http://fox21news.com/osd.xml", "https://s1.wp.com/opensearch.xml"], "city-county-name": "Colorado Springs", "rss": ["http://fox21news.com/feed/", "http://fox21news.com/comments/feed/"]}, {"video": "http://www.youtube.com/user/ColoradoPublicTV", "twitter": "http://www.twitter.com/ColoPublicTV", "media-class": "tv", "city-county-long": -104.856808, "media-subclass": "", "website": "http://www.cpt12.org/", "facebook": "https://www.facebook.com/CPT12", "city-county-lat": 39.726303, "name": "KBDI", "open-search": [], "city-county-name": "Denver", "rss": ["http://www.cpt12.org/comments/feed/", "http://www.cpt12.org/feed/", "http://www.cpt12.org/homepage/feed/"]}, {"video": "", "twitter": "http://www.twitter.com/CBSdenver", "media-class": "tv", "city-county-long": -104.856808, "media-subclass": "", "website": "http://denver.cbslocal.com/", "facebook": "https://www.facebook.com/CBSDenver", "city-county-lat": 39.726303, "name": "KCNC", "open-search": ["http://denver.cbslocal.com/osd.xml", "https://s1.wp.com/opensearch.xml"], "city-county-name": "Denver", "rss": ["http://denver.cbslocal.com/comments/feed/", "http://denver.cbslocal.com/feed/", "http://denver.cbslocal.com/home-section/feed/"]}, {"video": "http://www.youtube.com/user/KDVRDenver", "twitter": "http://www.twitter.com/KDVR", "media-class": "tv", "city-county-long": -104.856808, "media-subclass": "", "website": "http://kdvr.com/", "facebook": "https://www.facebook.com/fox31denver", "city-county-lat": 39.726303, "name": "KDVR", "open-search": ["https://s1.wp.com/opensearch.xml", "http://kdvr.com/osd.xml"], "city-county-name": "Denver", "rss": ["http://kdvr.com/comments/feed/", "http://kdvr.com/feed/"]}, {"video": "http://www.youtube.com/user/7NewsDenver", "twitter": "http://www.twitter.com/DenverChannel", "media-class": "tv", "city-county-long": -104.856808, "media-subclass": "", "website": "http://www.thedenverchannel.com/", "facebook": "https://www.facebook.com/DenverChannel", "city-county-lat": 39.726303, "name": "KMGH", "open-search": [], "city-county-name": "Denver", "rss": []}, {"video": "http://www.youtube.com/user/rockymtnpbs", "twitter": "http://www.twitter.com/rmpbs", "media-class": "tv", "city-county-long": -104.856808, "media-subclass": "", "website": "http://rmpbs.org/", "facebook": "https://www.facebook.com/rmpbs", "city-county-lat": 39.726303, "name": "KRMA", "open-search": [], "city-county-name": "Denver", "rss": []}, {"video": "http://www.youtube.com/user/DaystarTV", "twitter": "http://www.twitter.com/daystar", "media-class": "tv", "city-county-long": -104.856808, "media-subclass": "", "website": "http://www.daystar.com/", "facebook": "https://www.facebook.com/DaystarTV", "city-county-lat": 39.726303, "name": "KRMT", "open-search": [], "city-county-name": "Denver", "rss": []}, {"video": "https://www.youtube.com/user/ameliaearhart9news", "twitter": "http://www.twitter.com/9news", "media-class": "tv", "city-county-long": -104.856808, "media-subclass": "", "website": "http://www.9news.com/", "facebook": "https://www.facebook.com/ilike9news", "city-county-lat": 39.726303, "name": "KUSA", "open-search": [], "city-county-name": "Denver", "rss": []}, {"video": "", "twitter": "http://www.twitter.com/channel2kwgn", "media-class": "tv", "city-county-long": -104.856808, "media-subclass": "", "website": "http://kwgn.com/", "facebook": "https://www.facebook.com/kwgnchannel2", "city-county-lat": 39.726303, "name": "KWGN", "open-search": ["http://kwgn.com/osd.xml", "https://s1.wp.com/opensearch.xml"], "city-county-name": "Denver", "rss": ["http://kwgn.com/comments/feed/", "http://kwgn.com/feed/"]}, {"video": "", "twitter": "", "media-class": "tv", "city-county-long": -107.32107, "media-subclass": "", "website": "http://www.westernslopenow.com/", "facebook": "https://www.facebook.com/KREXTV", "city-county-lat": 39.533318, "name": "KREX", "open-search": [], "city-county-name": "Glenwood Springs", "rss": []}, {"video": "http://www.youtube.com/user/KJCTnews8", "twitter": "http://www.twitter.com/kjctnews8", "media-class": "tv", "city-county-long": -108.55, "media-subclass": "", "website": "http://www.kjct8.com/", "facebook": "https://www.facebook.com/KJCTNews8", "city-county-lat": 39.072831, "name": "KJCT", "open-search": [], "city-county-name": "Grand Junction", "rss": []}, {"video": "http://www.youtube.com/user/KKCO11News", "twitter": "http://www.twitter.com/KKCO11News", "media-class": "tv", "city-county-long": -108.55, "media-subclass": "", "website": "http://www.nbc11news.com/", "facebook": "https://www.facebook.com/pages/KKCO-NBC-11-News/90768390702", "city-county-lat": 39.072831, "name": "KKCO", "open-search": [], "city-county-name": "Grand Junction", "rss": []}, {"video": "", "twitter": "http://www.twitter.com/KREX5_Fox4", "media-class": "tv", "city-county-long": -108.55, "media-subclass": "", "website": "http://www.krextv.com/", "facebook": "https://www.facebook.com/KREXTV", "city-county-lat": 39.072831, "name": "KREX", "open-search": [], "city-county-name": "Grand Junction", "rss": []}, {"video": "http://www.youtube.com/user/newsfirst5", "twitter": "http://www.twitter.com/KOAA", "media-class": "tv", "city-county-long": -104.57029, "media-subclass": "", "website": "http://www.koaa.com/", "facebook": "https://www.facebook.com/KOAA", "city-county-lat": 38.282872, "name": "KOAA", "open-search": [], "city-county-name": "Pueblo", "rss": []}], "state-name": "Colorado_CO"}, "IN": {"newspaper": [{"video": "https://www.youtube.com/user/kpcnewscom", "twitter": "http://www.twitter.com/kpcnews", "media-class": "newspaper", "city-county-long": -85.43989, "media-subclass": "city-county", "website": "http://www.kpcnews.com/news/latest/new_era/", "facebook": "https://www.facebook.com/albionnewera", "city-county-lat": 41.361895, "name": "Albion New Era", "open-search": ["http://kpcnews.com/search/opensearch/generic.xml"], "city-county-name": "Albion", "rss": []}, {"video": "", "twitter": "", "media-class": "newspaper", "city-county-long": -85.673, "media-subclass": "city-county", "website": "http://www.elwoodpublishing.com/", "facebook": "https://www.facebook.com/AlexandriaTimesTribune", "city-county-lat": 40.257082, "name": "Alexandria Times-Tribune", "open-search": [], "city-county-name": "Alexandria", "rss": []}, {"video": "http://www.youtube.com/user/HeraldBulletin", "twitter": "http://www.twitter.com/heraldbulletin", "media-class": "newspaper", "city-county-long": -85.737, "media-subclass": "city-county", "website": "http://heraldbulletin.com/", "facebook": "https://www.facebook.com/heraldbulletin", "city-county-lat": 40.112913, "name": "Anderson Herald Bulletin", "open-search": [], "city-county-name": "Anderson", "rss": ["http://www.heraldbulletin.com/search/?f=rss&t=article&l=50&s=start_time&sd=desc&k[]=%23topstory"]}, {"video": "", "twitter": "http://www.twitter.com/kpcnews", "media-class": "newspaper", "city-county-long": -85.0223, "media-subclass": "city-county", "website": "http://www.kpcnews.com/news/latest/heraldrepublican/", "facebook": "https://www.facebook.com/kpcnews", "city-county-lat": 41.656798, "name": "Angola Herald Republican", "open-search": ["http://kpcnews.com/search/opensearch/generic.xml"], "city-county-name": "Angola", "rss": []}, {"video": "", "twitter": "", "media-class": "newspaper", "city-county-long": -87.21957, "media-subclass": "city-county", "website": "http://www.newsbug.info/fountain_county_neighbor/", "facebook": "https://www.facebook.com/fountaincountyneighbor", "city-county-lat": 40.294316, "name": "Fountain County Neighbor", "open-search": [], "city-county-name": "Attica", "rss": ["http://www.newsbug.info/search/?f=rss&t=article&c=fountain_county_neighbor&l=50&s=start_time&sd=desc"]}, {"video": "http://www.youtube.com/user/kpcnewscom", "twitter": "http://www.twitter.com/kpcnews", "media-class": "newspaper", "city-county-long": -85.04792, "media-subclass": "city-county", "website": "http://www.kpcnews.com/news/latest/eveningstar/", "facebook": "https://www.facebook.com/kpcnews", "city-county-lat": 41.352638, "name": "DeKalb Star", "open-search": ["http://kpcnews.com/search/opensearch/generic.xml"], "city-county-name": "Auburn", "rss": []}, {"video": "https://www.youtube.com/channel/UCqx6SglEbqxuz4xuLw-rWyA", "twitter": "", "media-class": "newspaper", "city-county-long": -85.21961, "media-subclass": "city-county", "website": "http://batesvilleheraldtribune.com/", "facebook": "https://www.facebook.com/pages/The-Herald-Tribune-Batesville/177935445668076", "city-county-lat": 39.291624, "name": "Herald Tribune", "open-search": [], "city-county-name": "Batesville", "rss": ["http://www.batesvilleheraldtribune.com/search/?f=rss&t=article&l=50&s=start_time&sd=desc&k[]=%23topstory"]}, {"video": "", "twitter": "", "media-class": "newspaper", "city-county-long": -86.518002, "media-subclass": "city-county", "website": "http://www.tmnews.com/", "facebook": "https://www.facebook.com/pages/The-Times-Mail/125981177413655", "city-county-lat": 38.873216, "name": "Bedford Times-Mail", "open-search": [], "city-county-name": "Bedford", "rss": ["http://www.tmnews.com/search/?f=rss&t=article&l=50&s=start_time&sd=desc&k[]=%23topstory"]}, {"video": "", "twitter": "http://www.twitter.com/bernetriweekly", "media-class": "newspaper", "city-county-long": -84.94244, "media-subclass": "city-county", "website": "http://www.bernetriweekly.com/", "facebook": "https://www.facebook.com/pages/Berne-Tri-Weekly-News/137954689571067", "city-county-lat": 40.660174, "name": "Berne Tri-Weekly News", "open-search": [], "city-county-name": "Berne", "rss": []}, {"video": "", "twitter": "http://www.twitter.com/theheraldtimes", "media-class": "newspaper", "city-county-long": -86.516419, "media-subclass": "city-county", "website": "http://www.heraldtimesonline.com/", "facebook": "https://www.facebook.com/pages/The-Herald-Times/13675287758", "city-county-lat": 39.155801, "name": "Herald-Times", "open-search": [], "city-county-name": "Bloomington", "rss": ["http://www.heraldtimesonline.com/search/?f=rss&t=article&l=50&s=start_time&sd=desc&k[]=%23topstory"]},