{"TX": {"newspaper": [{"media-type": "newspaper", "facebook": "https://www.facebook.com/reporternews", "website": "http://www.reporternews.com/", "name": "Abilene Reporter News", "media-kind": "city-county", "city-county-lat": 32.500532, "video": "https://www.youtube.com/user/VideoReporterNews/videos", "twitter": "http://www.twitter.com/reporternews", "city-county-name": "Abilene", "city-county-long": -99.69803, "open-search": [], "rss": []}, {"media-type": "newspaper", "facebook": "https://www.facebook.com/albanynews", "website": "http://www.thealbanynews.net/", "name": "Albany News", "media-kind": "city-county", "city-county-lat": 33.036724, "video": "", "twitter": "http://www.twitter.com/thealbanynews", "city-county-name": "Albany", "city-county-long": -98.595422, "open-search": [], "rss": ["http://www.thealbanynews.net/feed", "http://www.thealbanynews.net/feed", "http://www.thealbanynews.net/comments/feed", "http://www.thealbanynews.net/homepage-categories/feed"]}, {"media-type": "newspaper", "facebook": "https://www.facebook.com/aliceechonews", "website": "http://www.alicetx.com/", "name": "Alice Echo-News", "media-kind": "city-county", "city-county-lat": 27.750684, "video": "https://www.youtube.com/user/aliceechonews/videos", "twitter": "http://www.twitter.com/EchoNewsJournal", "city-county-name": "Alice", "city-county-long": -98.082694, "open-search": [], "rss": []}, {"media-type": "newspaper", "facebook": "https://www.facebook.com/AllenAmerican", "website": "http://starlocalmedia.com/allenamerican/", "name": "Allen American", "media-kind": "city-county", "city-county-lat": 33.092846, "video": "", "twitter": "http://www.twitter.com/starlocalmedia", "city-county-name": "Allen", "city-county-long": -96.62447, "open-search": [], "rss": ["http://starlocalmedia.com/search/?f=rss&t=article&c=allenamerican&l=50&s=start_time&sd=desc"]}, {"media-type": "newspaper", "facebook": "https://www.facebook.com/pages/Alpine-Avalanche/115569998496043", "website": "http://www.alpineavalanche.com/", "name": "Alpine Avalanche", "media-kind": "city-county", "city-county-lat": 30.011559, "video": "", "twitter": "http://www.twitter.com/Rockslides", "city-county-name": "Alpine", "city-county-long": -103.56444, "open-search": ["http://www.alpineavalanche.com/search/opensearch/generic.xml"], "rss": []}, {"media-type": "newspaper", "facebook": "https://www.facebook.com/TheAlvinSunAdvertiser", "website": "http://www.alvinsun.net/", "name": "Alvin Sun-Advertiser", "media-kind": "city-county", "city-county-lat": 29.41148, "video": "", "twitter": "", "city-county-name": "Alvin", "city-county-long": -95.24475, "open-search": ["http://www.alvinsun.net/search/opensearch/generic.xml"], "rss": []}, {"media-type": "newspaper", "facebook": "https://www.facebook.com/amarilloglobenews", "website": "http://amarillo.com/", "name": "Amarillo Globe-News", "media-kind": "city-county", "city-county-lat": 35.206402, "video": "http://www.youtube.com/user/AmarilloGlobeNews", "twitter": "http://www.twitter.com/amarilloglobe", "city-county-name": "Amarillo", "city-county-long": -101.83924, "open-search": [], "rss": []}, {"media-type": "newspaper", "facebook": "https://www.facebook.com/pages/Andrews-County-News/302029093233364", "website": "http://www.andrewscountynews.com/", "name": "Andrews County News", "media-kind": "city-county", "city-county-lat": 32.345871, "video": "", "twitter": "", "city-county-name": "Andrews", "city-county-long": -102.56767, "open-search": [], "rss": []}, {"media-type": "newspaper", "facebook": "", "website": "http://www.mybulletinnewspaper.com/", "name": "Bulletin", "media-kind": "city-county", "city-county-lat": 29.16866, "video": "", "twitter": "", "city-county-name": "Angleton", "city-county-long": -95.44541, "open-search": [], "rss": []}, {"media-type": "newspaper", "facebook": "", "website": "http://www.lavozdebrazoriacounty.com/", "name": "La Voz de Brazoria County", "media-kind": "city-county", "city-county-lat": 29.16866, "video": "", "twitter": "", "city-county-name": "Angleton", "city-county-long": -95.44541, "open-search": [], "rss": []}, {"media-type": "newspaper", "facebook": "https://www.facebook.com/pages/Progress-Index/124069697631765", "website": "http://www.aransaspassprogress.com/", "name": "Progress", "media-kind": "city-county", "city-county-lat": 27.912454, "video": "", "twitter": "", "city-county-name": "Aransas Pass", "city-county-long": -97.188437, "open-search": [], "rss": ["http://www.aransaspassprogress.com/rss.xml"]}, {"media-type": "newspaper", "facebook": "https://www.facebook.com/pages/Athens-Daily-Review/228059307235613", "website": "http://www.athensreview.com/", "name": "Athens Daily Review", "media-kind": "city-county", "city-county-lat": 32.184027, "video": "https://www.youtube.com/user/AthensReview/videos", "twitter": "http://www.twitter.com/AthReview", "city-county-name": "Athens", "city-county-long": -95.84625, "open-search": [], "rss": ["http://www.athensreview.com/search/?f=rss&t=article&l=50&s=start_time&sd=desc&k[]=%23topstory"]}, {"media-type": "newspaper", "facebook": "https://www.facebook.com/statesman", "website": "http://www.statesman.com/", "name": "Austin American Statesman", "media-kind": "city-county", "city-county-lat": 30.326374, "video": "https://www.youtube.com/user/StatesmanJournalCom/videos", "twitter": "http://www.twitter.com/statesman", "city-county-name": "Austin", "city-county-long": -97.771258, "open-search": [], "rss": []}, {"media-type": "newspaper", "facebook": "https://www.facebook.com/pages/Austin-Business-Journal/41677579235", "website": "http://www.bizjournals.com/austin/", "name": "Austin Business Journal", "media-kind": "city-county", "city-county-lat": 30.326374, "video": "", "twitter": "http://www.twitter.com/MyABJ", "city-county-name": "Austin", "city-county-long": -97.771258, "open-search": [], "rss": []}, {"media-type": "newspaper", "facebook": "https://www.facebook.com/AustinChronicle", "website": "http://www.austinchronicle.com/", "name": "Austin Chronicle", "media-kind": "city-county", "city-county-lat": 30.326374, "video": "https://www.youtube.com/user/theaustinchronicle/videos", "twitter": "http://www.twitter.com/AustinChronicle", "city-county-name": "Austin", "city-county-long": -97.771258, "open-search": [], "rss": []}, {"media-type": "newspaper", "facebook": "", "website": "http://www.lavoznewspapers.com/La_Voz_de_Austin.html", "name": "La Voz de Austin", "media-kind": "city-county", "city-county-lat": 30.326374, "video": "", "twitter": "", "city-county-name": "Austin", "city-county-long": -97.771258, "open-search": [], "rss": []}, {"media-type": "newspaper", "facebook": "https://www.facebook.com/LakeTravisView", "website": "http://www.statesman.com/s/news/local/lake-travis-view/", "name": "Lake Travis View", "media-kind": "city-county", "city-county-lat": 30.326374, "video": "", "twitter": "http://www.twitter.com/laketravisview", "city-county-name": "Austin", "city-county-long": -97.771258, "open-search": [], "rss": []}, {"media-type": "newspaper", "facebook": "", "website": "http://oakhillgazette.com/", "name": "Oak Hill Gazette", "media-kind": "city-county", "city-county-lat": 30.326374, "video": "https://www.youtube.com/user/oakhillgazette/videos", "twitter": "", "city-county-name": "Austin", "city-county-long": -97.771258, "open-search": [], "rss": ["http://oakhillgazette.com/feed/", "http://oakhillgazette.com/comments/feed/"]}, {"media-type": "newspaper", "facebook": "https://www.facebook.com/texastribune", "website": "http://www.texastribune.org/", "name": "Texas Tribune", "media-kind": "city-county", "city-county-lat": 30.326374, "video": "https://www.youtube.com/user/thetexastribune/videos", "twitter": "http://www.twitter.com/texastribune", "city-county-name": "Austin", "city-county-long": -97.771258, "open-search": [], "rss": []}, {"media-type": "newspaper", "facebook": "https://www.facebook.com/thevillagerandblackregistrycompany", "website": "http://www.theaustinvillager.com/", "name": "Villager", "media-kind": "city-county", "city-county-lat": 30.326374, "video": "https://www.youtube.com/user/TheVillager1973/videos", "twitter": "http://www.twitter.com/TheVillagerATX", "city-county-name": "Austin", "city-county-long": -97.771258, "open-search": [], "rss": []}, {"media-type": "newspaper", "facebook": "https://www.facebook.com/BanderaBulletin", "website": "http://www.banderabulletin.com/", "name": "Bandera Bulletin", "media-kind": "city-county", "city-county-lat": 29.718152, "video": "", "twitter": "http://www.twitter.com/BanderaBulletin", "city-county-name": "Bandera", "city-county-long": -99.06605, "open-search": ["http://www.banderabulletin.com/search/opensearch/generic.xml"], "rss": []}, {"media-type": "newspaper", "facebook": "", "website": "http://www.bccourier.com/", "name": "Bandera County Courier", "media-kind": "city-county", "city-county-lat": 29.718152, "video": "", "twitter": "", "city-county-name": "Bandera", "city-county-long": -99.06605, "open-search": [], "rss": []}, {"media-type": "newspaper", "facebook": "https://www.facebook.com/pages/The-Bastrop-Advertiser/193131377394706", "website": "http://www.statesman.com/s/news/local/bastrop-advertiser/", "name": "Bastrop Advertiser", "media-kind": "city-county", "city-county-lat": 30.120443, "video": "", "twitter": "http://www.twitter.com/BastropNews", "city-county-name": "Bastrop", "city-county-long": -97.30991, "open-search": [], "rss": []}, {"media-type": "newspaper", "facebook": "https://www.facebook.com/pages/The-Bay-City-Tribune/116310401347", "website": "http://baycitytribune.com/", "name": "Bay City Tribune", "media-kind": "city-county", "city-county-lat": 28.798156, "video": "", "twitter": "http://www.twitter.com/baycitytribune", "city-county-name": "Bay City", "city-county-long": -95.651058, "open-search": ["http://baycitytribune.com/search/opensearch/generic.xml"], "rss": []}, {"media-type": "newspaper", "facebook": "https://www.facebook.com/BaytownSun", "website": "http://baytownsun.com/", "name": "Baytown Sun", "media-kind": "city-county", "city-county-lat": 29.74877, "video": "https://www.youtube.com/user/TheBaytownSun/videos", "twitter": "http://www.twitter.com/TheBaytownSun", "city-county-name": "Baytown", "city-county-long": -94.94389, "open-search": ["http://baytownsun.com/search/opensearch/generic.xml"], "rss": []}, {"media-type": "newspaper", "facebook": "https://www.facebook.com/bmtenterprise", "website": "http://www.beaumontenterprise.com/", "name": "Beaumont Enterprise", "media-kind": "city-county", "city-county-lat": 30.074112, "video": "https://www.youtube.com/user/BeaumontEnterprise/videos", "twitter": "http://www.twitter.com/bmtenterprise", "city-county-name": "Beaumont", "city-county-long": -94.10358, "open-search": [], "rss": []}, {"media-type": "newspaper", "facebook": "https://www.facebook.com/theexaminercorp", "website": "http://www.theexaminer.com/", "name": "Examiner", "media-kind": "city-county", "city-county-lat": 30.074112, "video": "", "twitter": "", "city-county-name": "Beaumont", "city-county-long": -94.10358, "open-search": [], "rss": ["http://theexaminer.com/rss.xml"]}, {"media-type": "newspaper", "facebook": "https://www.facebook.com/beepicayune", "website": "http://www.mysoutex.com/", "name": "Beeville Bee-Picayune", "media-kind": "city-county", "city-county-lat": 28.426202, "video": "https://www.youtube.com/user/mySouTex/videos", "twitter": "http://www.twitter.com/mysoutex", "city-county-name": "Beeville", "city-county-long": -97.74806, "open-search": [], "rss": []}, {"media-type": "newspaper", "facebook": "https://www.facebook.com/TheBigLakeWildcat", "website": "http://www.mybiglake.com/", "name": "Wildcat", "media-kind": "city-county", "city-county-lat": 31.304669, "video": "https://www.youtube.com/channel/UCVZxdZfVe7l4023ha9q5C2A", "twitter": "", "city-county-name": "Big Lake", "city-county-long": -101.50841, "open-search": [], "rss": ["http://www.mybiglake.com/rss.xml"]}, {"media-type": "newspaper", "facebook": "https://www.facebook.com/bigspringherald", "website": "http://www.bigspringherald.com/", "name": "Big Spring Herald", "media-kind": "city-county", "city-county-lat": 32.21649, "video": "https://www.youtube.com/user/TheBigSpringHerald/videos", "twitter": "http://www.twitter.com/bigspringherald", "city-county-name": "Big Spring", "city-county-long": -101.4532, "open-search": [], "rss": ["http://www.bigspringherald.com/rss.xml"]}, {"media-type": "newspaper", "facebook": "https://www.facebook.com/blanconews", "website": "http://www.blanconews.com/", "name": "Blanco County News", "media-kind": "city-county", "city-county-lat": 30.096855, "video": "http://www.youtube.com/user/blanconews", "twitter": "http://www.twitter.com/blanconews", "city-county-name": "Blanco", "city-county-long": -98.43411, "open-search": [], "rss": ["/?format=feed&type=rss", "/?format=feed&type=atom"]}, {"media-type": "newspaper", "facebook": "https://www.facebook.com/pages/The-Boerne-Star/109712472413357", "website": "http://www.boernestar.com/", "name": "Boerne Star", "media-kind": "city-county", "city-county-lat": 29.851666, "video": "https://www.youtube.com/channel/UC45uMIrZjl7K0OFBfvxsTYA", "twitter": "http://www.twitter.com/TheBoerneStar", "city-county-name": "Boerne", "city-county-long": -98.72932, "open-search": ["http://www.boernestar.com/search/opensearch/generic.xml"], "rss": []}, {"media-type": "newspaper", "facebook": "https://www.facebook.com/NorthTexasEnews", "website": "http://www.ntxe-news.com", "name": "North Texas e-News", "media-kind": "city-county", "city-county-lat": 33.583772, "video": "", "twitter": "", "city-county-name": "Bonham", "city-county-long": -96.1818, "open-search": [], "rss": []}, {"media-type": "newspaper", "facebook": "https://www.facebook.com/pages/Borger-News-Herald/148249331884473", "website": "http://www.borgernewsherald.com/", "name": "Borger News-Herald", "media-kind": "city-county", "city-county-lat": 35.665899, "video": "https://www.youtube.com/channel/UCTW9hCQE5l30YKHctuttsKQ", "twitter": "", "city-county-name": "Borger", "city-county-long": -101.40666, "open-search": [], "rss": ["http://www.borgernewsherald.com/rss.xml"]}, {"media-type": "newspaper", "facebook": "https://www.facebook.com/bowienews", "website": "http://bowienewsonline.com/", "name": "Bowie News", "media-kind": "city-county", "city-county-lat": 33.54007, "video": "", "twitter": "http://www.twitter.com/bowienews", "city-county-name": "Bowie", "city-county-long": -97.88575, "open-search": [], "rss": ["http://bowienewsonline.com/feed/", "http://bowienewsonline.com/comments/feed/", "http://bowienewsonline.com/home-2/feed/"]}, {"media-type": "newspaper", "facebook": "https://www.facebook.com/bradystandard", "website": "http://www.bradystandard.com/", "name": "Brady Standard-Herald", "media-kind": "city-county", "city-county-lat": 31.121411, "video": "", "twitter": "", "city-county-name": "Brady", "city-county-long": -99.3407, "open-search": [], "rss": ["http://bradystandard.com/feed/", "http://bradystandard.com/comments/feed/"]}, {"media-type": "newspaper", "facebook": "https://www.facebook.com/breckenridgeamerican/", "website": "http://www.breckenridgeamerican.com/", "name": "Breckenridge American", "media-kind": "city-county", "city-county-lat": 32.761058, "video": "", "twitter": "http://www.twitter.com/BreckAmerican", "city-county-name": "Breckenridge", "city-county-long": -98.92225, "open-search": [], "rss": ["http://www.breckenridgeamerican.com/rss.xml"]}, {"media-type": "newspaper", "facebook": "https://www.facebook.com/BannerPress", "website": "http://www.brenhambanner.com/", "name": "Banner Press", "media-kind": "city-county", "city-county-lat": 30.158637, "video": "https://www.youtube.com/channel/UC7sSW8n9V9ZmGlAtDn5trLg", "twitter": "", "city-county-name": "Brenham", "city-county-long": -96.407936, "open-search": ["http://www.brenhambanner.com/search/opensearch/generic.xml"], "rss": []}, {"media-type": "newspaper", "facebook": "https://www.facebook.com/TheRecordLive", "website": "http://www.therecordlive.com/", "name": "County Record", "media-kind": "city-county", "city-county-lat": 30.026093, "video": "", "twitter": "", "city-county-name": "Bridge City", "city-county-long": -93.84071, "open-search": [], "rss": ["http://therecordlive.com/feed/", "http://therecordlive.com/comments/feed/"]}, {"media-type": "newspaper", "facebook": "https://www.facebook.com/brownfieldnews", "website": "http://www.brownfieldonline.com/", "name": "Brownfield News", "media-kind": "city-county", "city-county-lat": 33.153528, "video": "https://www.youtube.com/user/BrownfieldNews", "twitter": "http://www.twitter.com/BNewsBrian", "city-county-name": "Brownfield", "city-county-long": -102.29568, "open-search": [], "rss": ["http://brownfieldonline.com/feed/", "http://brownfieldonline.com/comments/feed/"]}, {"media-type": "newspaper", "facebook": "https://www.facebook.com/BrownsvilleHeraldNews", "website": "http://www.brownsvilleherald.com/", "name": "Brownsville Herald", "media-kind": "city-county", "city-county-lat": 25.928274, "video": "https://www.youtube.com/user/TheBrownsvilleHerald/videos", "twitter": "http://www.twitter.com/brownsvillenews", "city-county-name": "Brownsville", "city-county-long": -97.51618, "open-search": ["http://www.brownsvilleherald.com/search/opensearch/generic.xml"], "rss": []}, {"media-type": "newspaper", "facebook": "https://www.facebook.com/brownwoodbulletin", "website": "http://www.brownwoodtx.com/", "name": "Brownwood Bulletin", "media-kind": "city-county", "city-county-lat": 31.73003, "video": "https://www.youtube.com/user/brownwoodbulletin/videos", "twitter": "http://www.twitter.com/bwdbulletin", "city-county-name": "Brownwood", "city-county-long": -99.00605, "open-search": [], "rss": []}, {"media-type": "newspaper", "facebook": "https://www.facebook.com/bcseagle", "website": "http://www.theeagle.com/", "name": "Bryan-College Station Eagle", "media-kind": "city-county", "city-county-lat": 30.637348, "video": "https://www.youtube.com/user/TheBCSEagle/videos", "twitter": "http://www.twitter.com/theeagle", "city-county-name": "Bryan", "city-county-long": -96.36015, "open-search": ["http://www.theeagle.com/search/opensearch/generic.xml"], "rss": []}, {"media-type": "newspaper", "facebook": "https://www.facebook.com/pages/Bullard-Banner-News/109702332452122", "website": "http://www.bullardnews.com/", "name": "Bullard Banner News", "media-kind": "city-county", "city-county-lat": 32.136787, "video": "", "twitter": "http://www.twitter.com/BullardBanner", "city-county-name": "Bullard", "city-county-long": -95.3671, "open-search": [], "rss": []}, {"media-type": "newspaper", "facebook": "https://www.facebook.com/pages/Burnet-Bulletin-Newspaper/104782256247396", "website": "http://www.burnetbulletin.com/", "name": "Burnet Bulletin", "media-kind": "city-county", "city-county-lat": 30.767327, "video": "", "twitter": "", "city-county-name": "Burnet", "city-county-long": -98.30109, "open-search": [], "rss": []}, {"media-type": "newspaper", "facebook": "https://www.facebook.com/burlesoncountytribune", "website": "http://www.bctribune.com/", "name": "Burleson County Tribune", "media-kind": "city-county", "city-county-lat": 30.517099, "video": "", "twitter": "", "city-county-name": "Caldwell", "city-county-long": -96.67247, "open-search": [], "rss": []}, {"media-type": "newspaper", "facebook": "https://www.facebook.com/pages/The-Cameron-Herald/122404757785971", "website": "http://www.cameronherald.com/", "name": "Cameron Herald", "media-kind": "city-county", "city-county-lat": 30.851922, "video": "", "twitter": "http://www.twitter.com/TheCamHerald", "city-county-name": "Cameron", "city-county-long": -96.96323, "open-search": [], "rss": []}, {"media-type": "newspaper", "facebook": "https://www.facebook.com/pages/The-Canyon-News/92146676861", "website": "http://www.myplainview.com/canyon/", "name": "Canyon News", "media-kind": "city-county", "city-county-lat": 34.971029, "video": "", "twitter": "http://www.twitter.com/TheCanyonNews", "city-county-name": "Canyon", "city-county-long": -101.9212, "open-search": ["http://www.myplainview.com/search/opensearch/generic.xml"], "rss": []}, {"media-type": "newspaper", "facebook": "https://www.facebook.com/pages/Carrizo-Springs-Javelin/253282267479", "website": "http://www.carrizospringsjavelin.com/", "name": "Javelin", "media-kind": "city-county", "city-county-lat": 28.524292, "video": "https://www.youtube.com/channel/UCUlUtKwyTPs1oeIkaR-S_mA", "twitter": "http://www.twitter.com/csjavelin", "city-county-name": "Carrizo Springs", "city-county-long": -99.83827, "open-search": [], "rss": []}, {"media-type": "newspaper", "facebook": "https://www.facebook.com/HillCountryNews", "website": "http://www.hillcountrynews.com/", "name": "Hill Country News", "media-kind": "city-county", "city-county-lat": 30.501272, "video": "https://www.youtube.com/user/HillCountryNews/videos", "twitter": "http://www.twitter.com/HillCountryNws", "city-county-name": "Cedar Park", "city-county-long": -97.83087, "open-search": ["http://www.hillcountrynews.com/search/opensearch/generic.xml"], "rss": []}, {"media-type": "newspaper", "facebook": "https://www.facebook.com/statesman", "website": "http://www.statesman.com/s/news/local/cedar-park-leander-statesman/", "name": "Leader", "media-kind": "city-county", "city-county-lat": 30.501272, "video": "", "twitter": "http://www.twitter.com/statesman", "city-county-name": "Cedar Park", "city-county-long": -97.83087, "open-search": [], "rss": []}, {"media-type": "newspaper", "facebook": "https://www.facebook.com/ChandlerBrownsboroStatesman", "website": "http://www.c-bstatesman.com/", "name": "Statesman", "media-kind": "city-county", "city-county-lat": 32.251068, "video": "", "twitter": "http://www.twitter.com/CBStatesman", "city-county-name": "Chandler", "city-county-long": -95.49667, "open-search": [], "rss": ["/news.xml"]}, {"media-type": "newspaper", "facebook": "https://www.facebook.com/TheEnterprise", "website": "http://www.clarendonlive.com/", "name": "Clarendon Enterprise", "media-kind": "city-county", "city-county-lat": 34.971719, "video": "https://www.youtube.com/user/ClarendonEnterprise/videos", "twitter": "http://www.twitter.com/ClarendonTxNews", "city-county-name": "Clarendon", "city-county-long": -100.90662, "open-search": [], "rss": ["http://www.clarendonlive.com/?feed=rss2", "http://www.clarendonlive.com/?feed=atom"]}, {"media-type": "newspaper", "facebook": "https://www.facebook.com/ctrnews", "website": "http://www.cleburnetimesreview.com/", "name": "Cleburne Times-Review", "media-kind": "city-county", "city-county-lat": 32.343115, "video": "https://www.youtube.com/user/cleburnetimesreview/videos", "twitter": "http://www.twitter.com/ctrnews", "city-county-name": "Cleburne", "city-county-long": -97.40081, "open-search": [], "rss": ["http://www.cleburnetimesreview.com/search/?f=rss&t=article&l=50&s=start_time&sd=desc&k[]=%23topstory"]}, {"media-type": "newspaper", "facebook": "https://www.facebook.com/pages/Cleveland-Advocate/343689323559", "website": "http://www.yourhoustonnews.com/cleveland/", "name": "Cleveland Advocate", "media-kind": "city-county", "city-county-lat": 30.35469, "video": "", "twitter": "http://www.twitter.com/MyClevelandNews", "city-county-name": "Cleveland", "city-county-long": -95.04514, "open-search": ["http://www.yourhoustonnews.com/search/opensearch/generic.xml"], "rss": []}, {"media-type": "newspaper", "facebook": "https://www.facebook.com/clifton.record", "website": "http://www.cliftonrecord.com/", "name": "Clifton Record", "media-kind": "city-county", "city-county-lat": 31.798454, "video": "", "twitter": "", "city-county-name": "Clifton", "city-county-long": -97.52516, "open-search": [], "rss": []}, {"media-type": "newspaper", "facebook": "https://www.facebook.com/pages/The-Facts/109047382448319", "website": "http://thefacts.com/", "name": "Facts", "media-kind": "city-county", "city-county-lat": 29.038068, "video": "https://www.youtube.com/user/thefactsvideo/videos", "twitter": "http://www.twitter.com/thefactsnews", "city-county-name": "Clute", "city-county-long": -95.40114, "open-search": [], "rss": ["http://thefacts.com/search/?f=rss&t=article&l=50&s=start_time&sd=desc&k[]=%23topstory"]}, {"media-type": "newspaper", "facebook": "https://www.facebook.com/pages/Coleman-Chronicle-Democrat-Voice/126135008038", "website": "http://www.colemannews.com/", "name": "ColemanNews.com", "media-kind": "city-county", "city-county-lat": 31.847973, "video": "", "twitter": "", "city-county-name": "Coleman", "city-county-long": -99.45514, "open-search": [], "rss": []}, {"media-type": "newspaper", "facebook": "https://www.facebook.com/coloradorecord", "website": "http://www.ccitynews.net/", "name": "Colorado City Record", "media-kind": "city-county", "city-county-lat": 32.368824, "video": "https://www.youtube.com/user/coloradorecord79512/videos", "twitter": "", "city-county-name": "Colorado City", "city-county-long": -100.93689, "open-search": [], "rss": ["/index.php?format=feed&type=rss", "/index.php?format=feed&type=atom"]}, {"media-type": "newspaper", "facebook": "https://www.facebook.com/pages/The-Colorado-County-Citizen/248838558174", "website": "http://www.coloradocountycitizen.com/", "name": "Colorado County Citizen", "media-kind": "city-county", "city-county-lat": 29.712052, "video": "", "twitter": "", "city-county-name": "Columbus", "city-county-long": -96.56134, "open-search": ["http://www.coloradocountycitizen.com/search/opensearch/generic.xml"], "rss": []}, {"media-type": "newspaper", "facebook": "https://www.facebook.com/starlocalmedia", "website": "http://starlocalmedia.com/coppellgazette/", "name": "Coppell Gazette", "media-kind": "city-county", "city-county-lat": 32.967341, "video": "", "twitter": "http://www.twitter.com/starlocalmedia", "city-county-name": "Coppell", "city-county-long": -96.98656, "open-search": [], "rss": ["http://starlocalmedia.com/search/?f=rss&t=article&c=coppellgazette&l=50&s=start_time&sd=desc"]}, {"media-type": "newspaper", "facebook": "https://www.facebook.com/pages/Copperas-Cove-Leader-Press/107232112668970", "website": "http://www.coveleaderpress.com/", "name": "Leader-Press", "media-kind": "city-county", "city-county-lat": 31.131076, "video": "", "twitter": "", "city-county-name": "Copperas Cove", "city-county-long": -97.91666, "open-search": [], "rss": ["http://www.coveleaderpress.com/rss.xml"]}, {"media-type": "newspaper", "facebook": "https://www.facebook.com/callertimes", "website": "http://www.caller.com/", "name": "Caller-Times", "media-kind": "city-county", "city-county-lat": 27.795805, "video": "https://www.youtube.com/user/CCCALLERTIMES/videos", "twitter": "http://www.twitter.com/callerdotcom", "city-county-name": "Corpus Christi", "city-county-long": -97.40019, "open-search": [], "rss": []}, {"media-type": "newspaper", "facebook": "", "website": "http://www.cblnews.com/", "name": "Legal & Business News", "media-kind": "city-county", "city-county-lat": 27.795805, "video": "", "twitter": "", "city-county-name": "Corpus Christi", "city-county-long": -97.40019, "open-search": [], "rss": []}, {"media-type": "newspaper", "facebook": "https://www.facebook.com/corsicanadailysun", "website": "http://corsicanadailysun.com/", "name": "Corsicana Daily Sun", "media-kind": "city-county", "city-county-lat": 32.078228, "video": "", "twitter": "http://www.twitter.com/TheDailySun", "city-county-name": "Corsicana", "city-county-long": -96.44612, "open-search": [], "rss": ["http://www.corsicanadailysun.com/search/?f=rss&t=article&l=50&s=start_time&sd=desc&k[]=%23topstory"]}, {"media-type": "newspaper", "facebook": "https://www.facebook.com/pages/Houston-County-Courier/181556585269178", "website": "http://www.hccourier.com/", "name": "Houston County Courier", "media-kind": "city-county", "city-county-lat": 31.315837, "video": "https://www.youtube.com/user/HoustonCountyCourier", "twitter": "", "city-county-name": "Crockett", "city-county-long": -95.47393, "open-search": ["http://www.hccourier.com/index.php/component/search/?format=opensearch"], "rss": ["/index.php?format=feed&type=rss", "/index.php?format=feed&type=atom"]}, {"media-type": "newspaper", "facebook": "https://www.facebook.com/pages/Zavala-County-Sentinel/115789271896948?rf=170504342963331", "website": "http://zavalacountysentinel.net/", "name": "Zavala County Sentinel", "media-kind": "city-county", "city-county-lat": 28.68906, "video": "https://www.youtube.com/channel/UCnpjF5ks8AyKBJnLn1lfLmg/videos", "twitter": "", "city-county-name": "Crystal City", "city-county-long": -99.81278, "open-search": [], "rss": []}, {"media-type": "newspaper", "facebook": "https://www.facebook.com/cuero.record", "website": "http://www.dewittcountytoday.com/", "name": "Cuero Record", "media-kind": "city-county", "city-county-lat": 29.09649, "video": "http://www.youtube.com/user/TheCueroRecord", "twitter": "", "city-county-name": "Cuero", "city-county-long": -97.28798, "open-search": [], "rss": []}, {"media-type": "newspaper", "facebook": "https://www.facebook.com/steelcountrybee", "website": "http://www.steelcountrybee.com/", "name": "Steel-Country Bee", "media-kind": "city-county", "city-county-lat": 33.02583, "video": "", "twitter": "", "city-county-name": "Daingerfield", "city-county-long": -94.72481, "open-search": [], "rss": []}, {"media-type": "newspaper", "facebook": "https://www.facebook.com/pages/The-Dalhart-Texan/140430259053", "website": "http://www.thedalharttexan.com/", "name": "Dalhart Texan", "media-kind": "city-county", "city-county-lat": 36.090281, "video": "https://www.youtube.com/user/TheDalhartTexan/videos", "twitter": "", "city-county-name": "Dalhart", "city-county-long": -102.60769, "open-search": [], "rss": []}, {"media-type": "newspaper", "facebook": "https://www.facebook.com/dallasbizjournal", "website": "http://www.bizjournals.com/dallas/", "name": "Dallas Business Journal", "media-kind": "city-county", "city-county-lat": 32.787629, "video": "https://www.youtube.com/user/DallasBizJournal/videos", "twitter": "http://www.twitter.com/DBJEvents", "city-county-name": "Dallas", "city-county-long": -96.79941, "open-search": [], "rss": []}, {"media-type": "newspaper", "facebook": "https://www.facebook.com/dallasmorningnews", "website": "http://www.dallasnews.com/", "name": "Dallas Morning News", "media-kind": "city-county", "city-county-lat": 32.787629, "video": "http://video.dallasnews.com/", "twitter": "http://www.twitter.com/dallasnews", "city-county-name": "Dallas", "city-county-long": -96.79941, "open-search": [], "rss": []}, {"media-type": "newspaper", "facebook": "https://www.facebook.com/DallasObserver", "website": "http://www.dallasobserver.com/", "name": "Dallas Observer", "media-kind": "city-county", "city-county-lat": 32.787629, "video": "https://www.youtube.com/user/ObserverDallas/videos", "twitter": "http://www.twitter.com/Dallas_Observer", "city-county-name": "Dallas", "city-county-long": -96.79941, "open-search": [], "rss": ["http://www.dallasobserver.com/index.rss"]}, {"media-type": "newspaper", "facebook": "https://www.facebook.com/ElHeraldoNews", "website": "http://elheraldonews.com/", "name": "El Heraldo News", "media-kind": "city-county", "city-county-lat": 32.787629, "video": "https://www.youtube.com/channel/UCvEYcVt_KqgDlGVAPyzSWDQ/videos", "twitter": "http://www.twitter.com/elheraldonewstx", "city-county-name": "Dallas", "city-county-long": -96.79941, "open-search": [], "rss": []}, {"media-type": "newspaper", "facebook": "https://www.facebook.com/ehndallastx", "website": "http://elhispanonews.com/", "name": "El Hispano News", "media-kind": "city-county", "city-county-lat": 32.787629, "video": "https://www.youtube.com/channel/UC8FxY9BFQjrHcpq4N7pZiJQ", "twitter": "", "city-county-name": "Dallas", "city-county-long": -96.79941, "open-search": [], "rss": []}, {"media-type": "newspaper", "facebook": "https://www.facebook.com/pcpeople", "website": "http://www.parkcitiespeople.com/", "name": "Park Cities People", "media-kind": "city-county", "city-county-lat": 32.787629, "video": "https://www.youtube.com/user/parkcitiespeople/videos", "twitter": "http://www.twitter.com/pcpeople", "city-county-name": "Dallas", "city-county-long": -96.79941, "open-search": [], "rss": ["http://www.parkcitiespeople.com/feed/", "http://www.parkcitiespeople.com/comments/feed/", "http://www.parkcitiespeople.com/wp-content/plugins/nextgen-gallery/products/photocrati_nextgen/modules/ngglegacy/xml/media-rss.php"]}, {"media-type": "newspaper", "facebook": "https://www.facebook.com/phollowpeople", "website": "http://www.prestonhollowpeople.com/", "name": "Preston Hollow People", "media-kind": "city-county", "city-county-lat": 32.787629, "video": "https://www.youtube.com/user/prestonhollowpeople/videos", "twitter": "http://www.twitter.com/phollowpeople", "city-county-name": "Dallas", "city-county-long": -96.79941, "open-search": [], "rss": ["http://www.prestonhollowpeople.com/feed/", "http://www.prestonhollowpeople.com/comments/feed/"]}, {"media-type": "newspaper", "facebook": "", "website": "http://deleonfreepress.com/", "name": "De Leon Free Press", "media-kind": "city-county", "city-county-lat": 32.122804, "video": "", "twitter": "", "city-county-name": "De Leon", "city-county-long": -98.55799, "open-search": [], "rss": []}, {"media-type": "newspaper", "facebook": "https://www.facebook.com/pages/Wise-County-Messenger/118492838214209", "website": "http://www.wcmessenger.com/", "name": "Wise County Messenger", "media-kind": "city-county", "city-county-lat": 33.263039, "video": "https://www.youtube.com/user/wcmessenger/videos", "twitter": "http://www.twitter.com/WCMessenger", "city-county-name": "Decatur", "city-county-long": -97.55657, "open-search": [], "rss": ["http://www.wcmessenger.com/feed/"]}, {"media-type": "newspaper", "facebook": "https://www.facebook.com/DRNewsHerald", "website": "http://delrionewsherald.com/", "name": "News Herald", "media-kind": "city-county", "city-county-lat": 29.404267, "video": "", "twitter": "http://www.twitter.com/DRNewsHerald", "city-county-name": "Del Rio", "city-county-long": -100.88116, "open-search": ["http://delrionewsherald.com/search/opensearch/generic.xml"], "rss": []}, {"media-type": "newspaper", "facebook": "https://www.facebook.com/dentonrc", "website": "http://www.dentonrc.com/", "name": "Denton Record-Chronicle", "media-kind": "city-county", "city-county-lat": 33.226598, "video": "", "twitter": "http://www.twitter.com/dentonrc", "city-county-name": "Denton", "city-county-long": -97.13061, "open-search": [], "rss": []}, {"media-type": "newspaper", "facebook": "https://www.facebook.com/diboll.freepress", "website": "http://dibollfreepress.com/", "name": "Diboll Free Press", "media-kind": "city-county", "city-county-lat": 31.195633, "video": "", "twitter": "", "city-county-name": "Diboll", "city-county-long": -94.77725, "open-search": [], "rss": ["http://dibollfreepress.com/feed/", "http://dibollfreepress.com/comments/feed/"]}, {"media-type": "newspaper", "facebook": "https://www.facebook.com/dublin.citizen.1", "website": "http://www.dublincitizen.com/", "name": "Dublin Citizen", "media-kind": "city-county", "city-county-lat": 32.07881, "video": "https://www.youtube.com/user/TheDublincitizen/videos", "twitter": "", "city-county-name": "Dublin", "city-county-long": -98.35073, "open-search": [], "rss": []}, {"media-type": "newspaper", "facebook": "https://www.facebook.com/MCNewsPress", "website": "http://www.moorenews.com/", "name": "News-Press", "media-kind": "city-county", "city-county-lat": 35.893121, "video": "https://www.youtube.com/user/mcnewspress/videos", "twitter": "http://www.twitter.com/mcnewspress", "city-county-name": "Dumas", "city-county-long": -101.95908, "open-search": [], "rss": []}, {"media-type": "newspaper", "facebook": "https://www.facebook.com/eaglelakeheadlightnewspaper", "website": "http://www.eaglelakeheadlight.com/", "name": "Eagle Lake Headlight", "media-kind": "city-county", "city-county-lat": 29.575458, "video": "", "twitter": "", "city-county-name": "Eagle Lake", "city-county-long": -96.32079, "open-search": [], "rss": []}, {"media-type": "newspaper", "facebook": "https://www.facebook.com/ecleadernews", "website": "http://www.leader-news.com/", "name": "Leader-News", "media-kind": "city-county", "city-county-lat": 29.197701, "video": "https://www.youtube.com/channel/UCY46nxC-bWjGWsASsJUBGhw", "twitter": "", "city-county-name": "El Campo", "city-county-long": -96.2774, "open-search": ["http://www.leader-news.com/search/opensearch/generic.xml"], "rss": []}, {"media-type": "newspaper", "facebook": "https://www.facebook.com/eptimes", "website": "http://www.elpasotimes.com/", "name": "El Paso Times", "media-kind": "city-county", "city-county-lat": 31.759558, "video": "https://www.youtube.com/user/elpasotimesonline/videos", "twitter": "http://www.twitter.com/elpasotimes", "city-county-name": "El Paso", "city-county-long": -106.48011, "open-search": [], "rss": []}, {"media-type": "newspaper", "facebook": "https://www.facebook.com/pages/Eldorado-Success-Newspaper/112385915456963", "website": "http://www.myeldorado.net/", "name": "Eldorado Success", "media-kind": "city-county", "city-county-lat": 30.860483, "video": "https://www.youtube.com/channel/UCp536rDj5ugflp2q-7ZkWbQ", "twitter": "", "city-county-name": "Eldorado", "city-county-long": -100.53988, "open-search": [], "rss": ["http://www.myeldorado.net/rss.xml"]}, {"media-type": "newspaper", "facebook": "https://www.facebook.com/pages/Elgin-Courier/182665988417547", "website": "http://www.elgincourier.com/", "name": "Elgin Courier", "media-kind": "city-county", "city-county-lat": 30.338279, "video": "", "twitter": "http://www.twitter.com/ElginCourier", "city-county-name": "Elgin", "city-county-long": -97.36611, "open-search": ["http://www.elgincourier.com/search/opensearch/generic.xml"], "rss": []}, {"media-type": "newspaper", "facebook": "https://www.facebook.com/rainscountyleader", "website": "http://www.rainscountyleader.com/", "name": "Rains County Leader", "media-kind": "city-county", "city-county-lat": 32.882305, "video": "https://www.youtube.com/channel/UCfj4VRlWGhyr5IxBe1DlHkg", "twitter": "http://www.twitter.com/RainsCounty", "city-county-name": "Emory", "city-county-long": -95.73842, "open-search": [], "rss": []}, {"media-type": "newspaper", "facebook": "https://www.facebook.com/EnnisDailyNews", "website": "http://www.ennisdailynews.com/", "name": "Ennis Daily News", "media-kind": "city-county", "city-county-lat": 32.331239, "video": "", "twitter": "", "city-county-name": "Ennis", "city-county-long": -96.61962, "open-search": [], "rss": ["http://www.ennisdailynews.com/feed/", "http://www.ennisdailynews.com/feed/atom/"]}, {"media-type": "newspaper", "facebook": "https://www.facebook.com/pages/Freestone-Co-Times/147875767832", "website": "http://www.freestonecountytimesonline.com/", "name": "Freestone County Times", "media-kind": "city-county", "city-county-lat": 31.763713, "video": "https://www.youtube.com/user/Fr33stnCoTImes/videos", "twitter": "http://www.twitter.com/FreestnCoTimes", "city-county-name": "Fairfield", "city-county-long": -96.10808, "open-search": [], "rss": ["/index.php?format=feed&type=rss", "/index.php?format=feed&type=atom"]}, {"media-type": "newspaper", "facebook": "https://www.facebook.com/pages/The-Farmersville-Times/101252965830", "website": "http://www.farmersvilletimes.com/", "name": "Farmersville Times", "media-kind": "city-county", "city-county-lat": 33.171899, "video": "", "twitter": "http://www.twitter.com/farmersville", "city-county-name": "Farmersville", "city-county-long": -96.35096, "open-search": [], "rss": ["http://farmersvilletimes.com/feed/", "http://farmersvilletimes.com/comments/feed/"]}, {"media-type": "newspaper", "facebook": "https://www.facebook.com/elliscountypress", "website": "http://www.elliscountypress.com/", "name": "Ellis County Press", "media-kind": "city-county", "city-county-lat": 32.533551, "video": "", "twitter": "", "city-county-name": "Ferris", "city-county-long": -96.65684, "open-search": [], "rss": ["http://www.elliscountypress.com/feed/"]}, {"media-type": "newspaper", "facebook": "https://www.facebook.com/wilsoncountynews", "website": "http://www.wilsoncountynews.com/", "name": "Wilson County News", "media-kind": "city-county", "city-county-lat": 29.150937, "video": "https://www.youtube.com/user/wilsoncountynews/videos", "twitter": "http://www.twitter.com/wcnonline", "city-county-name": "Floresville", "city-county-long": -98.17929, "open-search": [], "rss": []}, {"media-type": "newspaper", "facebook": "https://www.facebook.com/FCHesperianBeacon", "website": "http://www.hesperianbeacononline.com/", "name": "Hesperian-Beacon", "media-kind": "city-county", "city-county-lat": 33.941748, "video": "", "twitter": "", "city-county-name": "Floydada", "city-county-long": -101.30072, "open-search": [], "rss": []}, {"media-type": "newspaper", "facebook": "https://www.facebook.com/pages/Fort-Stockton-Pioneer/140791919306081", "website": "http://www.fortstocktonpioneer.com/", "name": "Fort Stockton Pioneer", "media-kind": "city-county", "city-county-lat": 30.877528, "video": "", "twitter": "http://www.twitter.com/FSPioneer", "city-county-name": "Fort Stockton", "city-county-long": -102.852, "open-search": ["http://www.fortstocktonpioneer.com/search/opensearch/generic.xml"], "rss": []}, {"media-type": "newspaper", "facebook": "https://www.facebook.com/pages/Fort-Worth-Business-Press/242371041620", "website": "http://fwbusinesspress.com/", "name": "Fort Worth Business Press", "media-kind": "city-county", "city-county-lat": 32.771419, "video": "", "twitter": "http://www.twitter.com/fwbusinesspress", "city-county-name": "Fort Worth", "city-county-long": -97.291484, "open-search": ["http://www.fortworthbusiness.com/search/opensearch/generic.xml"], "rss": []}, {"media-type": "newspaper", "facebook": "https://www.facebook.com/startelegram", "website": "http://www.star-telegram.com/", "name": "Fort Worth Star-Telegram", "media-kind": "city-county", "city-county-lat": 32.771419, "video": "https://www.youtube.com/user/STVideo2011/videos", "twitter": "http://www.twitter.com/startelegram", "city-county-name": "Fort Worth", "city-county-long": -97.291484, "open-search": [], "rss": ["http://www.star-telegram.com/?widgetName=rssfeed&widgetContentId=714290&getXmlFeed=true"]}, {"media-type": "newspaper", "facebook": "https://www.facebook.com/FortWorthWeekly", "website": "http://www.fwweekly.com/", "name": "Fort Worth Weekly", "media-kind": "city-county", "city-county-lat": 32.771419, "video": "https://www.youtube.com/channel/UCYuhv8McIA_0znEhEkaCn8Q", "twitter": "http://www.twitter.com/FortWorthWeekly", "city-county-name": "Fort Worth", "city-county-long": -97.291484, "open-search": [], "rss": ["http://www.fwweekly.com/feed/", "http://www.fwweekly.com/comments/feed/"]}, {"media-type": "newspaper", "facebook": "", "website": "http://www.frankstoncitizen.com/", "name": "Frankston Citizen", "media-kind": "city-county", "city-county-lat": 32.072339, "video": "", "twitter": "", "city-county-name": "Frankston", "city-county-long": -95.50433, "open-search": [], "rss": []}, {"media-type": "newspaper", "facebook": "https://www.facebook.com/fredericksburgstandard", "website": "http://www.fredericksburgstandard.com/", "name": "Standard Radio Post", "media-kind": "city-county", "city-county-lat": 30.279267, "video": "https://www.youtube.com/channel/UCUfy1Z7eeuAmjfq61HgZw2w", "twitter": "http://www.twitter.com/fbgstandard", "city-county-name": "Fredericksburg", "city-county-long": -98.88389, "open-search": [], "rss": ["http://www.fredericksburgstandard.com/rss.xml"]}, {"media-type": "newspaper", "facebook": "https://www.facebook.com/FriendswoodJournal", "website": "http://www.yourhoustonnews.com/friendswood/", "name": "Friendswood Journal", "media-kind": "city-county", "city-county-lat": 29.516873, "video": "https://www.youtube.com/user/HCNSouthGroup", "twitter": "http://www.twitter.com/FriendswoodNews", "city-county-name": "Friendswood", "city-county-long": -95.19472, "open-search": ["http://www.yourhoustonnews.com/search/opensearch/generic.xml"], "rss": []}, {"media-type": "newspaper", "facebook": "https://www.facebook.com/FrionaStar", "website": "http://www.frionaonline.com/", "name": "Friona Star", "media-kind": "city-county", "city-county-lat": 34.631714, "video": "", "twitter": "", "city-county-name": "Friona", "city-county-long": -102.72658, "open-search": [], "rss": []}, {"media-type": "newspaper", "facebook": "https://www.facebook.com/friscoenterprise", "website": "http://starlocalmedia.com/friscoenterprise/", "name": "Frisco Enterprise", "media-kind": "city-county", "city-county-lat": 33.143792, "video": "", "twitter": "http://www.twitter.com/friscoupdates", "city-county-name": "Frisco", "city-county-long": -96.83938, "open-search": [], "rss": ["http://starlocalmedia.com/search/?f=rss&t=article&c=friscoenterprise&l=50&s=start_time&sd=desc"]}, {"media-type": "newspaper", "facebook": "https://www.facebook.com/pages/Gainesville-Daily-Register/102051309831092", "website": "http://www.gainesvilleregister.com/", "name": "Gainesville Daily Register", "media-kind": "city-county", "city-county-lat": 33.627942, "video": "", "twitter": "", "city-county-name": "Gainesville", "city-county-long": -97.13636, "open-search": [], "rss": ["http://www.gainesvilleregister.com/search/?f=rss&t=article&l=50&s=start_time&sd=desc&k[]=%23topstory"]}, {"media-type": "newspaper", "facebook": "https://www.facebook.com/galvestoncountydailynews", "website": "http://www.galvnews.com/", "name": "Galveston County Daily News", "media-kind": "city-county", "city-county-lat": 29.298448, "video": "https://www.youtube.com/user/GALVESTONCOUNTYDAILY/videos", "twitter": "http://www.twitter.com/GalvNews", "city-county-name": "Galveston", "city-county-long": -94.79316, "open-search": ["http://www.galvnews.com/search/opensearch/generic.xml"], "rss": []}, {"media-type": "newspaper", "facebook": "https://www.facebook.com/thepolicenews", "website": "http://thepolicenews.net/", "name": "The Police News", "media-kind": "city-county", "city-county-lat": 29.298448, "video": "https://www.youtube.com/user/breckporter/videos", "twitter": "http://www.twitter.com/thepolicenews", "city-county-name": "Galveston", "city-county-long": -94.79316, "open-search": [], "rss": []}, {"media-type": "newspaper", "facebook": "https://www.facebook.com/pages/The-Gatesville-Messenger-Star-Forum/239243652839908", "website": "http://gatesvillemessenger.com/", "name": "Gatesville Messenger", "media-kind": "city-county", "city-county-lat": 31.43211, "video": "", "twitter": "", "city-county-name": "Gatesville", "city-county-long": -97.72602, "open-search": ["http://gatesvillemessenger.com/index.php/component/search/?id=1&Itemid=435&format=opensearch"], "rss": []}, {"media-type": "newspaper", "facebook": "https://www.facebook.com/AdvocateNewspaper", "website": "http://wilcoonline.com/", "name": "Georgetown Advocate", "media-kind": "city-county", "city-county-lat": 30.643058, "video": "", "twitter": "", "city-county-name": "Georgetown", "city-county-long": -97.64713, "open-search": [], "rss": []}, {"media-type": "newspaper", "facebook": "https://www.facebook.com/wilcosun", "website": "http://www.wilcosun.com/", "name": "Williamson County Sun", "media-kind": "city-county", "city-county-lat": 30.643058, "video": "https://www.youtube.com/user/WilCoSun", "twitter": "http://www.twitter.com/WilcoSun", "city-county-name": "Georgetown", "city-county-long": -97.64713, "open-search": [], "rss": []}, {"media-type": "newspaper", "facebook": "https://www.facebook.com/pages/The-Gilmer-Mirror/52627212244", "website": "http://www.gilmermirror.com/", "name": "Gilmer Mirror", "media-kind": "city-county", "city-county-lat": 32.727128, "video": "https://www.youtube.com/user/TheGilmerMirror/videos", "twitter": "http://www.twitter.com/TheGilmerMirror", "city-county-name": "Gilmer", "city-county-long": -94.9577, "open-search": [], "rss": []}, {"media-type": "newspaper", "facebook": "https://www.facebook.com/pages/The-Goldthwaite-Eagle/171192416288062", "website": "http://www.goldthwaiteeagle.com/", "name": "Goldthwaite Eagle", "media-kind": "city-county", "city-county-lat": 31.460782, "video": "https://www.youtube.com/user/goldthwaiteeagle2008/videos", "twitter": "", "city-county-name": "Goldthwaite", "city-county-long": -98.52618, "open-search": [], "rss": ["http://www.goldthwaiteeagle.com/feed/", "http://www.goldthwaiteeagle.com/comments/feed/"]}, {"media-type": "newspaper", "facebook": "https://www.facebook.com/pages/Gonzales-Inquirer/126334907393571", "website": "http://www.gonzalesinquirer.com/", "name": "Gonzales Inquirer", "media-kind": "city-county", "city-county-lat": 29.510439, "video": "https://www.youtube.com/user/GInquirer/videos", "twitter": "http://www.twitter.com/GonzInquirer", "city-county-name": "Gonzales", "city-county-long": -97.45352, "open-search": ["http://www.gonzalesinquirer.com/search/opensearch/generic.xml"], "rss": []}, {"media-type": "newspaper", "facebook": "https://www.facebook.com/pages/Lake-Country-Sun/345382108938", "website": "http://www.lakecountrysun.com/", "name": "Lake Country Sun", "media-kind": "city-county", "city-county-lat": 32.908714, "video": "", "twitter": "http://www.twitter.com/lakecountrysun", "city-county-name": "Graford", "city-county-long": -98.35727, "open-search": [], "rss": ["http://grahamleader.com/taxonomy/term/423/feed"]}, {"media-type": "newspaper", "facebook": "https://www.facebook.com/grahamleader", "website": "http://www.grahamleader.com/", "name": "Graham Leader", "media-kind": "city-county", "city-county-lat": 33.081863, "video": "", "twitter": "http://www.twitter.com/grahamleader", "city-county-name": "Graham", "city-county-long": -98.60091, "open-search": [], "rss": ["http://www.grahamleader.com/rss.xml"]}, {"media-type": "newspaper", "facebook": "https://www.facebook.com/HCNews", "website": "http://hcnews.com/", "name": "Hood County News", "media-kind": "city-county", "city-county-lat": 32.424695, "video": "https://www.youtube.com/user/HCNVIDEO/videos", "twitter": "http://www.twitter.com/HoodCountyNews", "city-county-name": "Granbury", "city-county-long": -97.78894, "open-search": [], "rss": ["//hcnews.com/pages/feed/", "//hcnews.com/pages/comments/feed/"]}, {"media-type": "newspaper", "facebook": "https://www.facebook.com/thecommercejournal", "website": "http://commercejournal.com/", "name": "Commerce Journal", "media-kind": "city-county", "city-county-lat": 33.15023, "video": "", "twitter": "", "city-county-name": "Greenville", "city-county-long": -96.11289, "open-search": [], "rss": ["http://www.commercejournal.com/search/?f=rss&t=article&l=50&s=start_time&sd=desc&k[]=%23topstory"]}, {"media-type": "newspaper", "facebook": "https://www.facebook.com/HeraldBanner", "website": "http://heraldbanner.com/", "name": "Greenville Herald Banner", "media-kind": "city-county", "city-county-lat": 33.15023, "video": "", "twitter": "http://www.twitter.com/heraldbanner", "city-county-name": "Greenville", "city-county-long": -96.11289, "open-search": [], "rss": ["http://www.heraldbanner.com/search/?f=rss&t=article&l=50&s=start_time&sd=desc&k[]=%23topstory"]}, {"media-type": "newspaper", "facebook": "https://www.facebook.com/pages/Groesbeck-Journal/126680787387353", "website": "http://www.groesbeckjournal.com/", "name": "Groesbeck Journal", "media-kind": "city-county", "city-county-lat": 31.510726, "video": "", "twitter": "http://www.twitter.com/GBTJournal1", "city-county-name": "Groesbeck", "city-county-long": -96.51529, "open-search": [], "rss": []}, {"media-type": "newspaper", "facebook": "https://www.facebook.com/pages/Hamilton-Herald-News-com/113569545457746", "website": "http://www.thehamiltonherald-news.com/", "name": "Hamilton Herald-News", "media-kind": "city-county", "city-county-lat": 31.696154, "video": "", "twitter": "", "city-county-name": "Hamilton", "city-county-long": -98.14834, "open-search": [], "rss": []}, {"media-type": "newspaper", "facebook": "https://www.facebook.com/Valleymorningstar", "website": "http://www.valleymorningstar.com/", "name": "Valley Morning Star", "media-kind": "city-county", "city-county-lat": 26.206602, "video": "https://www.youtube.com/user/ValleyMorning/videos", "twitter": "http://www.twitter.com/valleystar", "city-county-name": "Harlingen", "city-county-long": -97.68776, "open-search": ["http://www.valleymorningstar.com/search/opensearch/generic.xml"], "rss": []}, {"media-type": "newspaper", "facebook": "https://www.facebook.com/robconews", "website": "http://www.robconews.com/", "name": "Robertson County News", "media-kind": "city-county", "city-county-lat": 30.876658, "video": "", "twitter": "", "city-county-name": "Hearne", "city-county-long": -96.60205, "open-search": [], "rss": []}, {"media-type": "newspaper", "facebook": "https://www.facebook.com/HendersonDailyNews", "website": "http://www.hendersondailynews.com", "name": "Henderson Daily News", "media-kind": "city-county", "city-county-lat": 32.194938, "video": "https://www.youtube.com/channel/UC60NtszMQViNQRqXE5H5fkw/videos", "twitter": "http://www.twitter.com/theHDN", "city-county-name": "Henderson", "city-county-long": -94.75852, "open-search": ["http://www.hendersondailynews.com/search/opensearch/generic.xml"], "rss": []}, {"media-type": "newspaper", "facebook": "", "website": "http://www.hondoanvilherald.com/", "name": "Hondo Anvil Herald", "media-kind": "city-county", "city-county-lat": 29.379516, "video": "", "twitter": "", "city-county-name": "Hondo", "city-county-long": -99.12665, "open-search": [], "rss": ["http://www.hondoanvilherald.com/feed.xml"]}, {"media-type": "newspaper", "facebook": "https://www.facebook.com/forwardtimesonline", "website": "http://forwardtimesonline.com/", "name": "Forward Times", "media-kind": "city-county", "city-county-lat": 29.711257, "video": "", "twitter": "http://www.twitter.com/forwardtimes", "city-county-name": "Houston", "city-county-long": -95.304936, "open-search": [], "rss": []}, {"media-type": "newspaper", "facebook": "https://www.facebook.com/FPHNews", "website": "http://www.freepresshouston.com/", "name": "Free Press Houston", "media-kind": "city-county", "city-county-lat": 29.711257, "video": "https://www.youtube.com/user/FPHism/videos", "twitter": "http://www.twitter.com/free_press", "city-county-name": "Houston", "city-county-long": -95.304936, "open-search": [], "rss": ["http://www.freepresshouston.com/feed/", "http://www.freepresshouston.com/comments/feed/"]}, {"media-type": "newspaper", "facebook": "https://www.facebook.com/houstonbusinessjournals", "website": "http://www.bizjournals.com/houston/", "name": "Houston Business Journal", "media-kind": "city-county", "city-county-lat": 29.711257, "video": "", "twitter": "http://www.twitter.com/HOUBizjournal", "city-county-name": "Houston", "city-county-long": -95.304936, "open-search": [], "rss": []}, {"media-type": "newspaper", "facebook": "https://www.facebook.com/chroncom", "website": "http://www.chron.com/", "name": "Houston Chronicle", "media-kind": "city-county", "city-county-lat": 29.711257, "video": "https://www.youtube.com/user/HoustonChronicle/videos", "twitter": "http://www.twitter.com/HoustonChron", "city-county-name": "Houston", "city-county-long": -95.304936, "open-search": [], "rss": []}, {"media-type": "newspaper", "facebook": "https://www.facebook.com/YourHoustonNews", "website": "http://www.yourhoustonnews.com/", "name": "Houston Community Newspapers", "media-kind": "city-county", "city-county-lat": 29.711257, "video": "https://www.youtube.com/user/HCNSouthGroup/videos", "twitter": "http://www.twitter.com/hcnonline", "city-county-name": "Houston", "city-county-long": -95.304936, "open-search": ["http://www.yourhoustonnews.com/search/opensearch/generic.xml"], "rss": []}, {"media-type": "newspaper", "facebook": "https://www.facebook.com/HoustonPress", "website": "http://www.houstonpress.com/", "name": "Houston Press", "media-kind": "city-county", "city-county-lat": 29.711257, "video": "https://www.youtube.com/user/houstonpress/videos", "twitter": "http://www.twitter.com/HoustonPress", "city-county-name": "Houston", "city-county-long": -95.304936, "open-search": [], "rss": ["http://www.houstonpress.com/index.rss"]}, {"media-type": "newspaper", "facebook": "https://www.facebook.com/RUMBOnet", "website": "http://www.rumbotx.com/", "name": "Rumbo de Houston", "media-kind": "city-county", "city-county-lat": 29.711257, "video": "", "twitter": "http://www.twitter.com/RUMBOnet", "city-county-name": "Houston", "city-county-long": -95.304936, "open-search": [], "rss": ["http://www.laopinion.com/feed/", "http://www.laopinion.com/comments/feed/"]}, {"media-type": "newspaper", "facebook": "https://www.facebook.com/south.b.leader", "website": "http://www.southbeltleader.com/", "name": "South Belt-Ellington Leader", "media-kind": "city-county", "city-county-lat": 29.711257, "video": "", "twitter": "", "city-county-name": "Houston", "city-county-long": -95.304936, "open-search": [], "rss": []}, {"media-type": "newspaper", "facebook": "https://www.facebook.com/howeenterprise", "website": "http://www.howeenterprise.com/", "name": "Howe Enterprise", "media-kind": "city-county", "city-county-lat": 33.518979, "video": "https://www.youtube.com/channel/UCHeVWT6GS1KBfIIkNCa16yA", "twitter": "http://www.twitter.com/howeenterprise", "city-county-name": "Howe", "city-county-long": -96.63523, "open-search": [], "rss": ["http://howeenterprise.com/feed/", "http://howeenterprise.com/comments/feed/"]}, {"media-type": "newspaper", "facebook": "https://www.facebook.com/pages/The-Huntsville-Item/192612210786682", "website": "http://itemonline.com/", "name": "Huntsville Item", "media-kind": "city-county", "city-county-lat": 30.805099, "video": "https://www.youtube.com/user/ItemOnline", "twitter": "http://www.twitter.com/HuntsvilleItem", "city-county-name": "Huntsville", "city-county-long": -95.50719, "open-search": [], "rss": ["http://www.itemonline.com/search/?f=rss&t=article&l=50&s=start_time&sd=desc&k[]=%23topstory"]}, {"media-type": "newspaper", "facebook": "https://www.facebook.com/pages/The-Hutto-News/112277622143074", "website": "http://www.thehuttonews.com/", "name": "Hutto News", "media-kind": "city-county", "city-county-lat": 30.540874, "video": "", "twitter": "http://www.twitter.com/huttonews", "city-county-name": "Hutto", "city-county-long": -97.54611, "open-search": ["http://www.thehuttonews.com/search/opensearch/generic.xml"], "rss": []}, {"media-type": "newspaper", "facebook": "https://www.facebook.com/pages/West-Kerr-Current/293312497346037", "website": "http://wkcurrent.com", "name": "West Kerr Current", "media-kind": "city-county", "city-county-lat": 30.102854, "video": "", "twitter": "", "city-county-name": "Ingram", "city-county-long": -99.27685, "open-search": [], "rss": []}, {"media-type": "newspaper", "facebook": "https://www.facebook.com/italyneotribune", "website": "https://italy.neotrib.com/", "name": "Italy Neotribune", "media-kind": "city-county", "city-county-lat": 32.175783, "video": "http://www.youtube.com/user/ItalyNeotribune", "twitter": "http://www.twitter.com/italyneotribune", "city-county-name": "Italy", "city-county-long": -96.88018, "open-search": [], "rss": ["https://italy.neotrib.com/topics/4dc92d8cc29e068503000004.atom"]}, {"media-type": "newspaper", "facebook": "https://www.facebook.com/jacksboronewspapers", "website": "http://www.jacksboronewspapers.com/", "name": "Jack County Herald", "media-kind": "city-county", "city-county-lat": 33.200265, "video": "", "twitter": "http://www.twitter.com/jacksboro_news", "city-county-name": "Jacksboro", "city-county-long": -98.15778, "open-search": [], "rss": ["http://www.jacksboronewspapers.com/rss.xml"]}, {"media-type": "newspaper", "facebook": "", "website": "http://www.jacksonvilleprogress.com/", "name": "Jacksonville Daily Progress", "media-kind": "city-county", "city-county-lat": 31.953855, "video": "", "twitter": "http://www.twitter.com/jdprogress", "city-county-name": "Jacksonville", "city-county-long": -95.25281, "open-search": [], "rss": ["http://www.jacksonvilleprogress.com/search/?f=rss&t=article&l=50&s=start_time&sd=desc&k[]=%23topstory"]}, {"media-type": "newspaper", "facebook": "", "website": "http://www.beaumontenterprise.com/jasper/", "name": "Jasper Newsboy", "media-kind": "city-county", "city-county-lat": 30.941282, "video": "", "twitter": "", "city-county-name": "Jasper", "city-county-long": -94.03455, "open-search": [], "rss": []}, {"media-type": "newspaper", "facebook": "https://www.facebook.com/pages/Johnson-City-Record-Courier/50973152345", "website": "http://www.jcrecordcourier.com/", "name": "Johnson City Record Courier", "media-kind": "city-county", "city-county-lat": 30.286655, "video": "", "twitter": "http://www.twitter.com/jcrecord", "city-county-name": "Johnson City", "city-county-long": -98.39837, "open-search": [], "rss": ["/?format=feed&type=rss", "/?format=feed&type=atom"]}, {"media-type": "newspaper", "facebook": "https://www.facebook.com/pages/Junction-Eagle/125559754134987", "website": "http://www.junctioneagle.com/", "name": "Junction Eagle", "media-kind": "city-county", "city-county-lat": 30.478782, "video": "", "twitter": "", "city-county-name": "Junction", "city-county-long": -99.77444, "open-search": [], "rss": []}, {"media-type": "newspaper", "facebook": "https://www.facebook.com/karnescountywide", "website": "http://mysoutex.com/pages/home_karnes", "name": "Karnes Countywide", "media-kind": "city-county", "city-county-lat": 28.894382, "video": "https://www.youtube.com/user/mySouTex/videos", "twitter": "http://www.twitter.com/mysoutex", "city-county-name": "Karnes City", "city-county-long": -97.90102, "open-search": [], "rss": []}, {"media-type": "newspaper", "facebook": "https://www.facebook.com/pages/The-Katy-Times/111550505555160", "website": "http://katytimes.com/", "name": "Katy Times", "media-kind": "city-county", "city-county-lat": 29.825908, "video": "", "twitter": "", "city-county-name": "Katy", "city-county-long": -95.7301, "open-search": ["http://katytimes.com/search/opensearch/generic.xml"], "rss": []}, {"media-type": "newspaper", "facebook": "https://www.facebook.com/pages/The-Kaufman-Herald/139320549843", "website": "http://www.kaufmanherald.com/", "name": "Kaufman Herald", "media-kind": "city-county", "city-county-lat": 32.574299, "video": "https://www.youtube.com/channel/UCXnZrZ8eDe5t1fSPhQshetQ", "twitter": "", "city-county-name": "Kaufman", "city-county-long": -96.30377, "open-search": ["http://www.kaufmanherald.com/search/opensearch/generic.xml"], "rss": []}, {"media-type": "newspaper", "facebook": "https://www.facebook.com/startelegram", "website": "http://www.star-telegram.com/kellercitizen/", "name": "Keller Citizen", "media-kind": "city-county", "city-county-lat": 32.771419, "video": "", "twitter": "http://www.twitter.com/startelegram", "city-county-name": "Keller", "city-county-long": -97.291484, "open-search": [], "rss": ["http://www.star-telegram.com/news/local/community/keller-citizen/?widgetName=rssfeed&widgetContentId=714290&getXmlFeed=true"]}, {"media-type": "newspaper", "facebook": "https://www.facebook.com/kerrvilledailytimes", "website": "http://dailytimes.com/", "name": "Kerrville Daily Times", "media-kind": "city-county", "city-county-lat": 30.042529, "video": "https://www.youtube.com/user/kerrvilledailytimes/videos", "twitter": "http://www.twitter.com/kerrville", "city-county-name": "Kerrville", "city-county-long": -99.15152, "open-search": ["http://dailytimes.com/search/opensearch/generic.xml"], "rss": []}, {"media-type": "newspaper", "facebook": "https://www.facebook.com/pages/Kilgore-News-Herald/96353412148", "website": "http://www.kilgorenewsherald.com/", "name": "Kilgore News Herald", "media-kind": "city-county", "city-county-lat": 32.387151, "video": "https://www.youtube.com/channel/UCN_Pbfq06ZFE2FKkV4KPfVg", "twitter": "http://www.twitter.com/kilgorenews", "city-county-name": "Kilgore", "city-county-long": -94.87439, "open-search": [], "rss": []}, {"media-type": "newspaper", "facebook": "https://www.facebook.com/kdhnews", "website": "http://kdhnews.com/", "name": "Killeen Daily Herald", "media-kind": "city-county", "city-county-lat": 31.085833, "video": "https://www.youtube.com/user/killeendailyherald/videos", "twitter": "http://www.twitter.com/kdhnews", "city-county-name": "Killeen", "city-county-long": -97.357099, "open-search": ["http://kdhnews.com/search/opensearch/generic.xml"], "rss": []}, {"media-type": "newspaper", "facebook": "https://www.facebook.com/kingsvillerecord", "website": "http://www.kingsvillerecord.com/", "name": "Kingsville Record & Bishop News", "media-kind": "city-county", "city-county-lat": 27.496472, "video": "https://www.youtube.com/channel/UC2LeQ2qtFPg4YKsRT0KtT8Q", "twitter": "", "city-county-name": "Kingsville", "city-county-long": -97.86808, "open-search": ["http://www.kingsvillerecord.com/search/opensearch/generic.xml"], "rss": []}, {"media-type": "newspaper", "facebook": "https://www.facebook.com/haysfreepress", "website": "http://haysfreepress.com/", "name": "Hays County Free Press", "media-kind": "city-county", "city-county-lat": 29.996916, "video": "", "twitter": "http://www.twitter.com/haysfreepress", "city-county-name": "Kyle", "city-county-long": -97.84756, "open-search": [], "rss": ["http://haysfreepress.com/rss.xml"]}, {"media-type": "newspaper", "facebook": "https://www.facebook.com/fcr.news", "website": "http://fayettecountyrecord.com/", "name": "Fayette County Record", "media-kind": "city-county", "city-county-lat": 29.909764, "video": "https://www.youtube.com/channel/UC0Izz8_tUkKfwVMot59mIzA", "twitter": "", "city-county-name": "La Grange", "city-county-long": -96.8745, "open-search": [], "rss": []}, {"media-type": "newspaper", "facebook": "", "website": "http://www.pressreporter.com/", "name": "Lamesa Press Reporter", "media-kind": "city-county", "city-county-lat": 32.714521, "video": "", "twitter": "", "city-county-name": "Lamesa", "city-county-long": -101.94086, "open-search": [], "rss": []}, {"media-type": "newspaper", "facebook": "https://www.facebook.com/pages/Lampasas-Dispatch-Record/437142540480", "website": "http://www.lampasasdispatchrecord.com/", "name": "Dispatch Record", "media-kind": "city-county", "city-county-lat": 31.06639, "video": "", "twitter": "", "city-county-name": "Lampasas", "city-county-long": -98.19192, "open-search": [], "rss": ["/news.xml"]}, {"media-type": "newspaper", "facebook": "https://www.facebook.com/lmtonline", "website": "http://www.lmtonline.com/", "name": "Laredo Morning Times", "media-kind": "city-county", "city-county-lat": 27.514845, "video": "https://www.youtube.com/user/laredomorning/videos", "twitter": "http://www.twitter.com/lmtnews", "city-county-name": "Laredo", "city-county-long": -99.49991, "open-search": ["http://www.lmtonline.com/search/opensearch/generic.xml"], "rss": []}, {"media-type": "newspaper", "facebook": "https://www.facebook.com/pages/The-Hill-Country-Herald/178261938859621", "website": "http://hillcountryherald.net/", "name": "Hill Country Herald", "media-kind": "city-county", "city-county-lat": 29.756509, "video": "", "twitter": "http://www.twitter.com/HCHerald", "city-county-name": "Leakey", "city-county-long": -99.76665, "open-search": [], "rss": []}, {"media-type": "newspaper", "facebook": "https://www.facebook.com/statesman", "website": "http://www.statesman.com/s/news/local/cedar-park-leander-statesman/", "name": "Leander Ledger", "media-kind": "city-county", "city-county-lat": 30.547001, "video": "", "twitter": "http://www.twitter.com/statesman", "city-county-name": "Leander", "city-county-long": -97.87006, "open-search": [], "rss": []}, {"media-type": "newspaper", "facebook": "https://www.facebook.com/starlocalmedia", "website": "http://starlocalmedia.com/lewisvilleleader/", "name": "Lewisville Leader", "media-kind": "city-county", "city-county-lat": 33.20743, "video": "https://www.youtube.com/channel/UCdzRHc67pol9YbyQ56grtKg/videos", "twitter": "http://www.twitter.com/starlocalmedia", "city-county-name": "Lewisville", "city-county-long": -97.116282, "open-search": [], "rss": ["http://starlocalmedia.com/search/?f=rss&t=article&c=lewisvilleleader&l=50&s=start_time&sd=desc"]}, {"media-type": "newspaper", "facebook": "https://www.facebook.com/LewisvilleTexanJournal/", "website": "http://lewisvilletexan.com/", "name": "Lewisville Texan Journal", "media-kind": "city-county", "city-county-lat": 33.20743, "video": "https://www.youtube.com/user/Whosplayin", "twitter": "http://www.twitter.com/LewisvilleTexan", "city-county-name": "Lewisville", "city-county-long": -97.116282, "open-search": [], "rss": []}, {"media-type": "newspaper", "facebook": "", "website": "http://www.lexingtonleader.com/", "name": "Lexington Leader", "media-kind": "city-county", "city-county-lat": 30.414806, "video": "https://www.youtube.com/channel/UCObU4EifVpjL3t6istaj2xQ", "twitter": "", "city-county-name": "Lexington", "city-county-long": -97.03904, "open-search": [], "rss": ["/news.xml"]}, {"media-type": "newspaper", "facebook": "https://www.facebook.com/pages/Lindale-News-and-Times/239846822765044", "website": "http://www.lindalenews-times.com/", "name": "Lindale News & Times", "media-kind": "city-county", "city-county-lat": 32.522902, "video": "", "twitter": "", "city-county-name": "Lindale", "city-county-long": -95.42126, "open-search": [], "rss": []}, {"media-type": "newspaper", "facebook": "https://www.facebook.com/littleelmjournal", "website": "http://starlocalmedia.com/littleelmjournal/", "name": "Journal", "media-kind": "city-county", "city-county-lat": 33.173008, "video": "", "twitter": "http://www.twitter.com/starlocalmedia", "city-county-name": "Little Elm", "city-county-long": -96.95485, "open-search": [], "rss": ["http://starlocalmedia.com/search/?f=rss&t=article&c=littleelmjournal&l=50&s=start_time&sd=desc"]}, {"media-type": "newspaper", "facebook": "https://www.facebook.com/TheLlanoNews", "website": "http://www.llanonews.com/", "name": "Llano News", "media-kind": "city-county", "city-county-lat": 30.721302, "video": "", "twitter": "http://www.twitter.com/llanonews", "city-county-name": "Llano", "city-county-long": -98.66557, "open-search": [], "rss": ["/?format=feed&type=rss", "/?format=feed&type=atom"]}, {"media-type": "newspaper", "facebook": "https://www.facebook.com/pages/Lockhart-Post-Register/155968071085280", "website": "http://post-register.com/", "name": "Post-Register", "media-kind": "city-county", "city-county-lat": 29.872165, "video": "https://www.youtube.com/user/LockhartPostRegister/videos", "twitter": "http://www.twitter.com/LktPostRegister", "city-county-name": "Lockhart", "city-county-long": -97.68093, "open-search": [], "rss": ["http://post-register.com/feed/"]}, {"media-type": "newspaper", "facebook": "https://www.facebook.com/newsjournal", "website": "http://www.news-journal.com/", "name": "Longview News-Journal", "media-kind": "city-county", "city-county-lat": 32.505248, "video": "https://www.youtube.com/user/longviewnewsjournal/videos", "twitter": "http://www.twitter.com/newsjournal", "city-county-name": "Longview", "city-county-long": -94.73172, "open-search": [], "rss": []}, {"media-type": "newspaper", "facebook": "https://www.facebook.com/pages/Avalanche-Journal/95690719813", "website": "http://lubbockonline.com/", "name": "Lubbock Avalanche Journal", "media-kind": "city-county", "city-county-lat": 33.578935, "video": "https://www.youtube.com/user/LubbockAJ/videos", "twitter": "http://www.twitter.com/lubbockonline", "city-county-name": "Lubbock", "city-county-long": -101.8316, "open-search": [], "rss": []}, {"media-type": "newspaper", "facebook": "https://www.facebook.com/lufkindaily", "website": "http://lufkindailynews.com/", "name": "Lufkin Daily News", "media-kind": "city-county", "city-county-lat": 31.330567, "video": "https://www.youtube.com/user/LufkinDailyNews/videos", "twitter": "http://www.twitter.com/lufkindailynews", "city-county-name": "Lufkin", "city-county-long": -94.68667, "open-search": ["http://lufkindailynews.com/search/opensearch/generic.xml"], "rss": []}, {"media-type": "newspaper", "facebook": "https://www.facebook.com/pages/The-Hardin-County-News/161782043878290", "website": "http://www.beaumontenterprise.com/hardincountynews/", "name": "Hardin County News", "media-kind": "city-county", "city-county-lat": 30.240473, "video": "", "twitter": "", "city-county-name": "Lumberton", "city-county-long": -94.20172, "open-search": [], "rss": []}, {"media-type": "newspaper", "facebook": "https://www.facebook.com/pages/The-Monitor-Newspaper-Cedar-Creek-Lake/517133334968800", "website": "http://www.themonitor.net/", "name": "Monitor", "media-kind": "city-county", "city-county-lat": 32.314256, "video": "", "twitter": "", "city-county-name": "Mabank", "city-county-long": -96.11068, "open-search": [], "rss": ["http://themonitor.net/blog2/feed/", "http://themonitor.net/blog2/comments/feed/"]}, {"media-type": "newspaper", "facebook": "https://www.facebook.com/MansfieldNewsMirror", "website": "http://www.star-telegram.com/news/local/community/mansfield-news-mirror/", "name": "Mansfield News Mirror", "media-kind": "city-county", "city-county-lat": 32.57701, "video": "", "twitter": "", "city-county-name": "Mansfield", "city-county-long": -97.13485, "open-search": [], "rss": ["http://www.star-telegram.com/news/local/community/mansfield-news-mirror/?widgetName=rssfeed&widgetContentId=714290&getXmlFeed=true"]}, {"media-type": "newspaper", "facebook": "https://www.facebook.com/DailyTrib", "website": "http://www.dailytrib.com/", "name": "Daily Tribune", "media-kind": "city-county", "city-county-lat": 30.566681, "video": "", "twitter": "http://www.twitter.com/daily_trib", "city-county-name": "Marble Falls", "city-county-long": -98.30756, "open-search": [], "rss": ["http://www.dailytrib.com/feed/"]}, {"media-type": "newspaper", "facebook": "https://www.facebook.com/pages/The-Highlander/163419690342145", "website": "http://www.highlandernews.com/", "name": "Highlander", "media-kind": "city-county", "city-county-lat": 30.566681, "video": "", "twitter": "http://www.twitter.com/Highlander_News", "city-county-name": "Marble Falls", "city-county-long": -98.30756, "open-search": [], "rss": []}, {"media-type": "newspaper", "facebook": "https://www.facebook.com/BigBendNow", "website": "http://www.bigbendsentinel.com/", "name": "Big Bend Sentinel", "media-kind": "city-county", "city-county-lat": 30.217129, "video": "https://www.youtube.com/channel/UC460lbJGRHq-Pr2eu1B1vIg", "twitter": "http://www.twitter.com/bigbendnow", "city-county-name": "Marfa", "city-county-long": -104.22045, "open-search": [], "rss": []}, {"media-type": "newspaper", "facebook": "https://www.facebook.com/pages/Marlin-Democrat/193488574021504", "website": "http://www.marlindemocrat.com/", "name": "Marlin Democrat", "media-kind": "city-county", "city-county-lat": 31.310649, "video": "http://www.youtube.com/user/marlindemocrat", "twitter": "http://www.twitter.com/MarlinDemocrat", "city-county-name": "Marlin", "city-county-long": -96.87859, "open-search": [], "rss": []}, {"media-type": "newspaper", "facebook": "https://www.facebook.com/newsmessenger", "website": "http://www.marshallnewsmessenger.com/", "name": "News Messenger", "media-kind": "city-county", "city-county-lat": 32.547424, "video": "https://www.youtube.com/user/marshallnews/videos", "twitter": "http://www.twitter.com/News_Messenger", "city-county-name": "Marshall", "city-county-long": -94.37958, "open-search": [], "rss": []}, {"media-type": "newspaper", "facebook": "https://www.facebook.com/masoncountynews", "website": "http://www.masoncountynews.com/", "name": "Mason County News", "media-kind": "city-county", "city-county-lat": 30.75159, "video": "", "twitter": "http://www.twitter.com/masonnews", "city-county-name": "Mason", "city-county-long": -99.23238, "open-search": [], "rss": ["/?format=feed&type=rss", "/?format=feed&type=atom"]}, {"media-type": "newspaper", "facebook": "https://www.facebook.com/monitornews", "website": "http://www.themonitor.com/", "name": "Monitor", "media-kind": "city-county", "city-county-lat": 26.200001, "video": "https://www.youtube.com/user/monitornews/videos", "twitter": "http://www.twitter.com/monitornews", "city-county-name": "McAllen", "city-county-long": -98.231166, "open-search": [], "rss": ["http://www.themonitor.com/search/?f=rss&t=article&l=50&s=start_time&sd=desc&k[]=%23topstory"]}, {"media-type": "newspaper", "facebook": "https://www.facebook.com/texasborderbusiness", "website": "http://texasborderbusiness.com/", "name": "Texas Border Business", "media-kind": "city-county", "city-county-lat": 26.200001, "video": "", "twitter": "http://www.twitter.com/TBBusiness", "city-county-name": "McAllen", "city-county-long": -98.231166, "open-search": [], "rss": ["http://texasborderbusiness.com/feed/", "http://texasborderbusiness.com/comments/feed/", "http://texasborderbusiness.com/home/feed/"]}, {"media-type": "newspaper", "facebook": "", "website": "http://www.mcgregormirror.com/", "name": "McGregor Mirror", "media-kind": "city-county", "city-county-lat": 31.416926, "video": "", "twitter": "", "city-county-name": "McGregor", "city-county-long": -97.40095, "open-search": [], "rss": []}, {"media-type": "newspaper", "facebook": "https://www.facebook.com/mckinneycouriergazette", "website": "http://starlocalmedia.com/mckinneycouriergazette/", "name": "Courier-Gazette", "media-kind": "city-county", "city-county-lat": 33.195073, "video": "", "twitter": "http://www.twitter.com/starlocalmedia", "city-county-name": "McKinney", "city-county-long": -96.60363, "open-search": [], "rss": ["http://starlocalmedia.com/search/?f=rss&t=article&c=mckinneycouriergazette&l=50&s=start_time&sd=desc"]}, {"media-type": "newspaper", "facebook": "https://www.facebook.com/IonMesquite", "website": "http://www.ionmesquite.com/", "name": "IonMesquite", "media-kind": "city-county", "city-county-lat": 32.767329, "video": "https://www.youtube.com/user/IonMesquite/videos", "twitter": "http://www.twitter.com/ionmesquite", "city-county-name": "Mesquite", "city-county-long": -96.60759, "open-search": [], "rss": ["/index.php?format=feed&type=rss", "/index.php?format=feed&type=atom", "/index.php/component/fpss/module/296?format=feed&type=rss", "/index.php/component/fpss/module/296?format=feed&type=atom", "/index.php/component/fpss/module/215?format=feed&type=rss", "/index.php/component/fpss/module/215?format=feed&type=atom"]}, {"media-type": "newspaper", "facebook": "https://www.facebook.com/starlocalmedia", "website": "http://starlocalmedia.com/mesquitenews/", "name": "Mesquite News", "media-kind": "city-county", "city-county-lat": 32.767329, "video": "", "twitter": "http://www.twitter.com/starlocalmedia", "city-county-name": "Mesquite", "city-county-long": -96.60759, "open-search": [], "rss": ["http://starlocalmedia.com/search/?f=rss&t=article&c=mesquitenews&l=50&s=start_time&sd=desc"]}, {"media-type": "newspaper", "facebook": "https://www.facebook.com/TheReporterTelegram", "website": "http://www.mrt.com/", "name": "Midland Reporter Telegram", "media-kind": "city-county", "city-county-lat": 31.995623, "video": "https://www.youtube.com/user/mywesttexas/videos", "twitter": "http://www.twitter.com/mwtnews", "city-county-name": "Midland", "city-county-long": -102.08108, "open-search": ["http://www.mrt.com/search/opensearch/generic.xml"], "rss": ["http://www.mywesttexas.com/search/?q=&t=&l=10&d=&d1=&d2=&s=start_time&sd=desc&c[]=top_stories&f=rss"]}, {"media-type": "newspaper", "facebook": "https://www.facebook.com/mineralwellsindex", "website": "http://mineralwellsindex.com/", "name": "Index", "media-kind": "city-county", "city-county-lat": 32.810275, "video": "https://www.youtube.com/user/MineralWellsIndex/videos", "twitter": "http://www.twitter.com/mwindex", "city-county-name": "Mineral Wells", "city-county-long": -98.10707, "open-search": [], "rss": ["http://www.mineralwellsindex.com/search/?f=rss&t=article&l=50&s=start_time&sd=desc&k[]=%23topstory"]}, {"media-type": "newspaper", "facebook": "https://www.facebook.com/ProgressTimes", "website": "http://www.progresstimes.net/", "name": "Progress Times", "media-kind": "city-county", "city-county-lat": 26.232613, "video": "https://www.youtube.com/user/ProgressTimesVideos/videos", "twitter": "http://www.twitter.com/progresstimes", "city-county-name": "Mission", "city-county-long": -98.348534, "open-search": [], "rss": ["/?format=feed&type=rss", "/?format=feed&type=atom"]}, {"media-type": "newspaper", "facebook": "https://www.facebook.com/montgomery.countynews", "website": "http://montgomerycountynews.net/", "name": "Montgomery County News", "media-kind": "city-county", "city-county-lat": 30.329017, "video": "", "twitter": "", "city-county-name": "Montgomery", "city-county-long": -95.64985, "open-search": [], "rss": ["http://montgomerycountynews.net/clients/montgomerycountynews/headlines.rss"]}, {"media-type": "newspaper", "facebook": "https://www.facebook.com/dailytribune", "website": "http://www.dailytribune.net/", "name": "Daily Tribune", "media-kind": "city-county", "city-county-lat": 33.166739, "video": "https://www.youtube.com/channel/UCzd7dHP7w7zWt-XSPWyyh4g/videos", "twitter": "http://www.twitter.com/MPDailyTribune", "city-county-name": "Mount Pleasant", "city-county-long": -94.9814, "open-search": ["http://www.dailytribune.net/search/opensearch/generic.xml"], "rss": []}, {"media-type": "newspaper", "facebook": "https://www.facebook.com/opticmtherald", "website": "http://www.mt-vernon.com/", "name": "Optic Herald", "media-kind": "city-county", "city-county-lat": 33.151104, "video": "", "twitter": "", "city-county-name": "Mount Vernon", "city-county-long": -95.21965, "open-search": ["http://www.mt-vernon.com/component/search/?format=opensearch"], "rss": ["/?format=feed&type=rss", "/?format=feed&type=atom"]}, {"media-type": "newspaper", "facebook": "", "website": "http://www.muleshoejournal.com/", "name": "Muleshoe Journal", "media-kind": "city-county", "city-county-lat": 34.206848, "video": "http://www.youtube.com/user/MuleshoeJournal", "twitter": "", "city-county-name": "Muleshoe", "city-county-long": -102.78511, "open-search": [], "rss": []}, {"media-type": "newspaper", "facebook": "https://www.facebook.com/dailysentinel", "website": "http://dailysentinel.com/", "name": "Daily Sentinel", "media-kind": "city-county", "city-county-lat": 31.626011, "video": "", "twitter": "http://www.twitter.com/dailysentinel", "city-county-name": "Nacogdoches", "city-county-long": -94.60338, "open-search": ["http://dailysentinel.com/search/opensearch/generic.xml"], "rss": []}, {"media-type": "newspaper", "facebook": "https://www.facebook.com/pages/Navasota-Examiner/80394749022", "website": "http://www.navasotaexaminer.com/", "name": "Navasota Examiner", "media-kind": "city-county", "city-county-lat": 30.374501, "video": "https://www.youtube.com/user/NavasotaExaminer/videos", "twitter": "http://www.twitter.com/NavExaminer", "city-county-name": "Navasota", "city-county-long": -96.07999, "open-search": ["http://www.navasotaexaminer.com/search/opensearch/generic.xml"], "rss": []}, {"media-type": "newspaper", "facebook": "https://www.facebook.com/bmtenterprise", "website": "http://www.beaumontenterprise.com/news/midcounty/", "name": "Mid County Chronicle", "media-kind": "city-county", "city-county-lat": 29.974013, "video": "https://www.youtube.com/user/BeaumontEnterprise/videos", "twitter": "http://www.twitter.com/BmtEnterprise", "city-county-name": "Nederland", "city-county-long": -93.99986, "open-search": [], "rss": []}, {"media-type": "newspaper", "facebook": "https://www.facebook.com/pages/New-Braunfels-Herald-Zeitung/110394895661837", "website": "http://herald-zeitung.com/", "name": "Herald-Zeitung", "media-kind": "city-county", "city-county-lat": 29.699844, "video": "https://www.youtube.com/user/NBHeraldZeitung/videos", "twitter": "http://www.twitter.com/NewBraunfelsHZ", "city-county-name": "New Braunfels", "city-county-long": -98.10754, "open-search": ["http://herald-zeitung.com/search/opensearch/generic.xml"], "rss": []}, {"media-type": "newspaper", "facebook": "https://www.facebook.com/OdessaAmerican", "website": "http://www.oaoa.com/", "name": "Odessa American", "media-kind": "city-county", "city-county-lat": 31.765163, "video": "https://www.youtube.com/channel/UCnL-Z_1qsRp6iCKw9eIIs0g/videos", "twitter": "http://www.twitter.com/OdessaAmerican", "city-county-name": "Odessa", "city-county-long": -102.354346, "open-search": ["http://www.oaoa.com/search/opensearch/generic.xml"], "rss": []}, {"media-type": "newspaper", "facebook": "https://www.facebook.com/pages/The-Olney-Enterprise/264762117786", "website": "http://www.olneyenterprise.com/", "name": "Olney Enterprise", "media-kind": "city-county", "city-county-lat": 33.364868, "video": "", "twitter": "", "city-county-name": "Olney", "city-county-long": -98.75201, "open-search": [], "rss": ["http://www.olneyenterprise.com/rss.xml"]}, {"media-type": "newspaper", "facebook": "https://www.facebook.com/bmtenterprise", "website": "http://www.beaumontenterprise.com/news/orangecounty/", "name": "Orange County News", "media-kind": "city-county", "city-county-lat": 30.089757, "video": "https://www.youtube.com/user/BeaumontEnterprise/videos", "twitter": "http://www.twitter.com/BmtEnterprise", "city-county-name": "Orange", "city-county-long": -93.77408, "open-search": [], "rss": []}, {"media-type": "newspaper", "facebook": "https://www.facebook.com/theorangeleader", "website": "http://orangeleader.com/", "name": "Orange Leader", "media-kind": "city-county", "city-county-lat": 30.089757, "video": "https://www.youtube.com/user/OrangeLeader13/videos", "twitter": "http://www.twitter.com/Orangeleader13", "city-county-name": "Orange", "city-county-long": -93.77408, "open-search": [], "rss": []}, {"media-type": "newspaper", "facebook": "https://www.facebook.com/pages/Ozona-TX/The-Ozona-Stockman/104649083211", "website": "http://www.ozonastockman.com/", "name": "Ozona Stockman", "media-kind": "city-county", "city-county-lat": 30.620199, "video": "https://www.youtube.com/channel/UCV6aB6YC_vA-1dHCvLiYgaA", "twitter": "http://www.twitter.com/ozstockman", "city-county-name": "Ozona", "city-county-long": -101.24517, "open-search": [], "rss": []}, {"media-type": "newspaper", "facebook": "https://www.facebook.com/pages/Palacios-Beacon/310287416898", "website": "http://www.palaciosbeacon.com/", "name": "Palacios Beacon", "media-kind": "city-county", "city-county-lat": 28.735638, "video": "", "twitter": "", "city-county-name": "Palacios", "city-county-long": -96.22273, "open-search": [], "rss": []}, {"media-type": "newspaper", "facebook": "https://www.facebook.com/palestineheraldpress", "website": "http://www.palestineherald.com/", "name": "Herald-Press", "media-kind": "city-county", "city-county-lat": 31.779481, "video": "https://www.youtube.com/user/palestineherald/videos", "twitter": "http://www.twitter.com/palestineherald", "city-county-name": "Palestine", "city-county-long": -95.63325, "open-search": [], "rss": ["http://www.palestineherald.com/search/?f=rss&t=article&l=50&s=start_time&sd=desc&k[]=%23topstory"]}, {"media-type": "newspaper", "facebook": "https://www.facebook.com/pages/The-Pampa-News/170101603002074", "website": "http://www.thepampanews.com/", "name": "Pampa News", "media-kind": "city-county", "city-county-lat": 35.533093, "video": "", "twitter": "", "city-county-name": "Pampa", "city-county-long": -100.96041, "open-search": ["http://www.thepampanews.com/search/opensearch/generic.xml"], "rss": []}, {"media-type": "newspaper", "facebook": "https://www.facebook.com/theparisnews", "website": "http://theparisnews.com/", "name": "Paris News", "media-kind": "city-county", "city-county-lat": 33.660274, "video": "", "twitter": "http://www.twitter.com/TheParisNews", "city-county-name": "Paris", "city-county-long": -95.55958, "open-search": ["http://theparisnews.com/search/opensearch/generic.xml"], "rss": []}, {"media-type": "newspaper", "facebook": "https://www.facebook.com/PasadenaCitizen", "website": "http://www.yourhoustonnews.com/pasadena/", "name": "Pasadena Citizen", "media-kind": "city-county", "city-county-lat": 29.83399, "video": "https://www.youtube.com/user/HCNSouthGroup", "twitter": "http://www.twitter.com/PasadenaCitizen", "city-county-name": "Pasadena", "city-county-long": -95.434241, "open-search": ["http://www.yourhoustonnews.com/search/opensearch/generic.xml"], "rss": []}, {"media-type": "newspaper", "facebook": "https://www.facebook.com/PearlandJournal", "website": "http://www.yourhoustonnews.com/pearland/", "name": "Pearland Journal", "media-kind": "city-county", "city-county-lat": 29.56218, "video": "https://www.youtube.com/user/HCNSouthGroup", "twitter": "http://www.twitter.com/PearlandNews", "city-county-name": "Pearland", "city-county-long": -95.26982, "open-search": ["http://www.yourhoustonnews.com/search/opensearch/generic.xml"], "rss": []}, {"media-type": "newspaper", "facebook": "", "website": "http://www.pecos.net/news/", "name": "Pecos Enterprise", "media-kind": "city-county", "city-county-lat": 31.388404, "video": "", "twitter": "", "city-county-name": "Pecos", "city-county-long": -103.52515, "open-search": [], "rss": []}, {"media-type": "newspaper", "facebook": "https://www.facebook.com/pages/Pflugerville-Pflag/325501278661", "website": "http://www.statesman.com/s/news/local/pflugerville-pflag/", "name": "Pflugerville Pflag", "media-kind": "city-county", "city-county-lat": 30.450122, "video": "", "twitter": "http://www.twitter.com/PvillePflag", "city-county-name": "Pflugerville", "city-county-long": -97.623, "open-search": [], "rss": []}, {"media-type": "newspaper", "facebook": "https://www.facebook.com/PilotPointPostSignal", "website": "http://www.postsignal.com/", "name": "Post-Signal", "media-kind": "city-county", "city-county-lat": 33.385645, "video": "", "twitter": "http://www.twitter.com/postsignal", "city-county-name": "Pilot Point", "city-county-long": -96.95213, "open-search": [], "rss": ["http://www.postsignal.com/feed.xml"]}, {"media-type": "newspaper", "facebook": "https://www.facebook.com/pages/The-Pittsburg-Gazette/53430793154", "website": "http://www.campcountynow.com/", "name": "Pittsburg Gazette", "media-kind": "city-county", "city-county-lat": 32.97708, "video": "", "twitter": "", "city-county-name": "Pittsburg", "city-county-long": -94.96809, "open-search": [], "rss": []}, {"media-type": "newspaper", "facebook": "https://www.facebook.com/plainviewdailyherald", "website": "http://www.myplainview.com/", "name": "Plainview Daily Herald", "media-kind": "city-county", "city-county-lat": 34.191002, "video": "https://www.youtube.com/user/MyPlainview/videos", "twitter": "http://www.twitter.com/MyPlainview", "city-county-name": "Plainview", "city-county-long": -101.72506, "open-search": ["http://www.myplainview.com/search/opensearch/generic.xml"], "rss": []}, {"media-type": "newspaper", "facebook": "https://www.facebook.com/planostarcourier", "website": "http://starlocalmedia.com/planocourier/", "name": "Plano Star Courier", "media-kind": "city-county", "city-county-lat": 33.054671, "video": "", "twitter": "http://www.twitter.com/planonewspaper", "city-county-name": "Plano", "city-county-long": -96.73506, "open-search": [], "rss": ["http://starlocalmedia.com/search/?f=rss&t=article&c=planocourier&l=50&s=start_time&sd=desc"]}, {"media-type": "newspaper", "facebook": "https://www.facebook.com/pages/Pleasanton-Express/298864000133917", "website": "http://www.pleasantonexpress.com/", "name": "Pleasanton Express", "media-kind": "city-county", "city-county-lat": 28.958803, "video": "https://www.youtube.com/user/ThePE1909/videos", "twitter": "http://www.twitter.com/pe1909", "city-county-name": "Pleasanton", "city-county-long": -98.4639, "open-search": [], "rss": ["http://www.pleasantonexpress.com/rss.xml"]}, {"media-type": "newspaper", "facebook": "https://www.facebook.com/portasouthjetty", "website": "http://www.portasouthjetty.com/", "name": "Port Aransas South Jetty", "media-kind": "city-county", "city-county-lat": 27.818477, "video": "https://www.youtube.com/channel/UCqwQPYrolYXR2op5pieud3A", "twitter": "http://www.twitter.com/portasouthjetty", "city-county-name": "Port Aransas", "city-county-long": -97.07998, "open-search": [], "rss": ["/news.xml"]}, {"media-type": "newspaper", "facebook": "https://www.facebook.com/portarthurnews", "website": "http://panews.com/", "name": "Port Arthur News", "media-kind": "city-county", "city-county-lat": 29.879796, "video": "https://www.youtube.com/user/panews01/videos", "twitter": "http://www.twitter.com/panews", "city-county-name": "Port Arthur", "city-county-long": -93.95575, "open-search": [], "rss": []}, {"media-type": "newspaper", "facebook": "https://www.facebook.com/portlavacawave", "website": "http://portlavacawave.com/", "name": "Port Lavaca Wave", "media-kind": "city-county", "city-county-lat": 28.604717, "video": "https://www.youtube.com/user/PortLavacaWave/videos", "twitter": "http://www.twitter.com/portlavacawave", "city-county-name": "Port Lavaca", "city-county-long": -96.63023, "open-search": [], "rss": ["http://www.portlavacawave.com/search/?f=rss&t=article&l=50&s=start_time&sd=desc&k[]=%23topstory"]}, {"media-type": "newspaper", "facebook": "https://www.facebook.com/pages/The-Princeton-Herald/125163066000", "website": "http://www.princetonherald.com/", "name": "Princeton Herald", "media-kind": "city-county", "city-county-lat": 33.14572, "video": "", "twitter": "http://www.twitter.com/princetonherald", "city-county-name": "Princeton", "city-county-long": -96.49664, "open-search": [], "rss": ["http://princetonherald.com/feed/", "http://princetonherald.com/comments/feed/"]}, {"media-type": "newspaper", "facebook": "", "website": "http://www.raymondville-chronicle.com/", "name": "Chronicle-News", "media-kind": "city-county", "city-county-lat": 26.500175, "video": "", "twitter": "", "city-county-name": "Raymondville", "city-county-long": -97.81013, "open-search": [], "rss": ["/news.xml"]}, {"media-type": "newspaper", "facebook": "https://www.facebook.com/Recordstar", "website": "http://www.recordstar.com/", "name": "Nueces County Record Star", "media-kind": "city-county", "city-county-lat": 27.782255, "video": "https://www.youtube.com/user/NuecesCoRecordStar/videos", "twitter": "", "city-county-name": "Robstown", "city-county-long": -97.68609, "open-search": [], "rss": []}, {"media-type": "newspaper", "facebook": "https://www.facebook.com/pages/The-Rockdale-Reporter/149488941750719", "website": "http://www.rockdalereporter.com/", "name": "Rockdale Reporter", "media-kind": "city-county", "city-county-lat": 30.646291, "video": "", "twitter": "", "city-county-name": "Rockdale", "city-county-long": -97.01149, "open-search": [], "rss": ["/news.xml"]}, {"media-type": "newspaper", "facebook": "https://www.facebook.com/pages/The-Rockport-Pilot/201329203260801", "website": "http://www.rockportpilot.com/", "name": "Rockport Pilot", "media-kind": "city-county", "city-county-lat": 28.013108, "video": "https://www.youtube.com/channel/UCtB1S9P0O0ujEnhGXwDjCDA", "twitter": "", "city-county-name": "Rockport", "city-county-long": -97.09364, "open-search": ["http://www.rockportpilot.com/search/opensearch/generic.xml"], "rss": []}, {"media-type": "newspaper", "facebook": "https://www.facebook.com/RockwallHeraldBanner", "website": "http://rockwallheraldbanner.com/", "name": "Herald Banner", "media-kind": "city-county", "city-county-lat": 32.867103, "video": "", "twitter": "http://www.twitter.com/heraldbanner", "city-county-name": "Rockwall", "city-county-long": -96.44129, "open-search": [], "rss": ["http://www.rockwallheraldbanner.com/search/?f=rss&t=article&l=50&s=start_time&sd=desc&k[]=%23topstory"]}, {"media-type": "newspaper", "facebook": "https://www.facebook.com/fortbendherald", "website": "http://www.fbherald.com/", "name": "Fort Bend Herald", "media-kind": "city-county", "city-county-lat": 29.549455, "video": "https://www.youtube.com/channel/UCgPWzimzNY_6ECyBqdY_qrQ", "twitter": "http://www.twitter.com/fbheraldsports", "city-county-name": "Rosenberg", "city-county-long": -95.81901, "open-search": ["http://www.fbherald.com/search/opensearch/generic.xml"], "rss": []}, {"media-type": "newspaper", "facebook": "https://www.facebook.com/pages/Round-Rock-Leader-Newspaper/324103444745", "website": "http://www.statesman.com/s/news/local/round-rock-leader/", "name": "Round Rock Leader", "media-kind": "city-county", "city-county-lat": 30.514401, "video": "", "twitter": "http://www.twitter.com/roundrockleader", "city-county-name": "Round Rock", "city-county-long": -97.65549, "open-search": [], "rss": []}, {"media-type": "newspaper", "facebook": "https://www.facebook.com/starlocalmedia", "website": "http://starlocalmedia.com/rowlettlakeshoretimes/", "name": "Lakeshore Times", "media-kind": "city-county", "city-county-lat": 32.91747, "video": "", "twitter": "http://www.twitter.com/starlocalmedia", "city-county-name": "Rowlett", "city-county-long": -96.534737, "open-search": [], "rss": ["http://starlocalmedia.com/search/?f=rss&t=article&c=rowlettlakeshoretimes&l=50&s=start_time&sd=desc"]}, {"media-type": "newspaper", "facebook": "https://www.facebook.com/pages/Cherokeean-Herald-Newspaper/119576951478629", "website": "http://www.thecherokeean.com/", "name": "Cherokeean Herald", "media-kind": "city-county", "city-county-lat": 31.79364, "video": "", "twitter": "http://www.twitter.com/CHNewsDesk", "city-county-name": "Rusk", "city-county-long": -95.16761, "open-search": [], "rss": []}, {"media-type": "newspaper", "facebook": "https://www.facebook.com/pages/Salado-Village-Voice/196382125298", "website": "http://www.saladovillagevoice.com/", "name": "Salado Village Voice", "media-kind": "city-county", "city-county-lat": 30.955509, "video": "", "twitter": "http://www.twitter.com/saladovoice", "city-county-name": "Salado", "city-county-long": -97.56503, "open-search": [], "rss": ["http://saladovillagevoice.com/feed/", "http://saladovillagevoice.com/comments/feed/"]}, {"media-type": "newspaper", "facebook": "https://www.facebook.com/pages/The-Lakecaster-Magazine/339016626655", "website": "http://www.beaumontenterprise.com/lakecaster/", "name": "Lakecaster", "media-kind": "city-county", "city-county-lat": 31.0641, "video": "", "twitter": "", "city-county-name": "Sam Rayburn", "city-county-long": -94.0357, "open-search": [], "rss": []}, {"media-type": "newspaper", "facebook": "https://www.facebook.com/LivestockWeekly", "website": "http://www.livestockweekly.com/", "name": "Livestock Weekly", "media-kind": "city-county", "city-county-lat": 31.474132, "video": "", "twitter": "", "city-county-name": "San Angelo", "city-county-long": -100.5198, "open-search": [], "rss": []}, {"media-type": "newspaper", "facebook": "https://www.facebook.com/gosanangelo", "website": "http://www.gosanangelo.com/", "name": "Standard-Times", "media-kind": "city-county", "city-county-lat": 31.474132, "video": "https://www.youtube.com/user/sastgosanangelo/videos", "twitter": "http://www.twitter.com/gosanangelo", "city-county-name": "San Angelo", "city-county-long": -100.5198, "open-search": [], "rss": []}, {"media-type": "newspaper", "facebook": "https://www.facebook.com/SABusinessJournal", "website": "http://www.bizjournals.com/sanantonio/", "name": "Business Journal", "media-kind": "city-county", "city-county-lat": 29.55302, "video": "https://www.youtube.com/user/SABizJournal/videos", "twitter": "http://www.twitter.com/SABizJournal", "city-county-name": "San Antonio", "city-county-long": -98.486871, "open-search": [], "rss": []},