{"newspaper": [{"city-county-long": -86.22835, "open-search": ["http://www.sandmountainreporter.com/search/opensearch/generic.xml"], "rss": [], "media-class": "newspaper", "media-subclass": "city-county", "facebook": "https://www.facebook.com/pages/The-Sand-Mountain-Reporter/228007249376", "website": "http://www.sandmountainreporter.com/", "city-county-lat": 34.261878, "city-county-name": "Albertville", "twitter": "http://www.twitter.com/smrnews", "name": "Sand Mountain Reporter", "video": ""}, {"city-county-long": -85.92669, "open-search": [], "rss": [], "media-class": "newspaper", "media-subclass": "city-county", "facebook": "https://www.facebook.com/pages/The-Alexander-City-Outlook/84710064891", "website": "http://www.alexcityoutlook.com/", "city-county-lat": 32.903432, "city-county-name": "Alexander City", "twitter": "http://www.twitter.com/alexcityoutlook", "name": "Alexander City Outlook", "video": "http://www.youtube.com/user/AlexanderCityOutlook"}, {"city-county-long": -86.48699, "open-search": [], "rss": ["http://www.troymessenger.com/category/rss-general/feed/atom/"], "media-class": "newspaper", "media-subclass": "city-county", "facebook": "https://www.facebook.com/pages/Andalusia-Star-News/53866966722", "website": "http://www.andalusiastarnews.com/", "city-county-lat": 31.279043, "city-county-name": "Andalusia", "twitter": "", "name": "Andalusia Star-News", "video": ""}, {"city-county-long": -85.85178, "open-search": [], "rss": ["http://www.annistonstar.com/search/?f=rss&t=article&l=50&s=start_time&sd=desc&k[]=%23topstory"], "media-class": "newspaper", "media-subclass": "city-county", "facebook": "https://www.facebook.com/annistonstar", "website": "http://www.annistonstar.com/", "city-county-lat": 33.658803, "city-county-name": "Anniston", "twitter": "http://www.twitter.com/annistonstar", "name": "Anniston Star", "video": "http://www.youtube.com/user/AnnistonStar"}, {"city-county-long": -86.49278, "open-search": [], "rss": ["http://www.thearabtribune.com/search/?f=rss&t=article&l=50&s=start_time&sd=desc&k[]=%23topstory"], "media-class": "newspaper", "media-subclass": "city-county", "facebook": "https://www.facebook.com/pages/The-Arab-Tribune/178865138834401", "website": "http://www.thearabtribune.com/", "city-county-lat": 34.323715, "city-county-name": "Arab", "twitter": "http://www.twitter.com/ArabTribune", "name": "Arab Tribune", "video": ""}, {"city-county-long": -87.02767, "open-search": [], "rss": ["http://www.enewscourier.com/search/?f=rss&t=article&l=50&s=start_time&sd=desc&k[]=%23topstory"], "media-class": "newspaper", "media-subclass": "city-county", "facebook": "https://www.facebook.com/pages/The-News-Courier/112539230743", "website": "http://www.enewscourier.com/", "city-county-lat": 34.784028, "city-county-name": "Athens", "twitter": "http://www.twitter.com/newscourier", "name": "Athens News Courier", "video": "https://www.youtube.com/channel/UCzMQby44-DokkY7xUhr2NGw"}, {"city-county-long": -87.49715, "open-search": [], "rss": ["http://www.troymessenger.com/category/rss-general/feed/atom/"], "media-class": "newspaper", "media-subclass": "city-county", "facebook": "https://www.facebook.com/pages/Atmore-Advance/83649498468", "website": "http://www.atmoreadvance.com", "city-county-lat": 31.090528, "city-county-name": "Atmore", "twitter": "http://www.twitter.com/atmoreadvance", "name": "Atmore Advance", "video": "http://www.youtube.com/user/atmoreadvance"}, {"city-county-long": -87.49715, "open-search": [], "rss": ["http://www.atmorenews.com/comments/feed/", "http://www.atmorenews.com/feed/", "http://www.atmorenews.com/feed/atom/"], "media-class": "newspaper", "media-subclass": "city-county", "facebook": "https://www.facebook.com/newsatmore", "website": "http://www.atmorenews.com/", "city-county-lat": 31.090528, "city-county-name": "Atmore", "twitter": "", "name": "Atmore News", "video": ""}, {"city-county-long": -85.47282, "open-search": [], "rss": [], "media-class": "newspaper", "media-subclass": "city-county", "facebook": "https://www.facebook.com/theplainsman", "website": "http://theplainsman.com/", "city-county-lat": 32.577135, "city-county-name": "Auburn", "twitter": "http://www.twitter.com/TheAUPlainsman", "name": "Auburn Plainsman", "video": "http://www.youtube.com/user/TheAuburnPlainsman1"}, {"city-county-long": -87.76592, "open-search": [], "rss": [], "media-class": "newspaper", "media-subclass": "city-county", "facebook": "https://www.facebook.com/GulfCoastMedia/", "website": "http://www.gulfcoastnewstoday.com/the_baldwin_times/", "city-county-lat": 30.875697, "city-county-name": "Bay Minette", "twitter": "", "name": "Baldwin Times", "video": ""}, {"city-county-long": -86.801904, "open-search": [], "rss": ["http://www.alabamamessenger.com/feed/"], "media-class": "newspaper", "media-subclass": "city-county", "facebook": "https://www.facebook.com/pages/The-Alabama-Messenger/471601942875195", "website": "http://www.alabamamessenger.com/", "city-county-lat": 33.456412, "city-county-name": "Birmingham", "twitter": "", "name": "Alabama Messenger", "video": ""}, {"city-county-long": -86.801904, "open-search": [], "rss": [], "media-class": "newspaper", "media-subclass": "city-county", "facebook": "https://www.facebook.com/birminghamnews", "website": "http://www.al.com/birmingham/", "city-county-lat": 33.456412, "city-county-name": "Birmingham", "twitter": "http://www.twitter.com/ALcomBirmingham", "name": "Birmingham News", "video": ""}, {"city-county-long": -86.801904, "open-search": [], "rss": ["http://www.birminghamtimes.com/comments/feed/", "http://www.birminghamtimes.com/feed/"], "media-class": "newspaper", "media-subclass": "city-county", "facebook": "https://www.facebook.com/birmingham.times", "website": "http://www.birminghamtimes.com/", "city-county-lat": 33.456412, "city-county-name": "Birmingham", "twitter": "http://www.twitter.com/BirminghamTimes", "name": "Birmingham Times", "video": ""}, {"city-county-long": -86.801904, "open-search": [], "rss": ["http://feeds.bizjournals.com/bizj_birmingham"], "media-class": "newspaper", "media-subclass": "city-county", "facebook": "https://www.facebook.com/birminghambusinessjournal", "website": "http://www.bizjournals.com/birmingham/", "city-county-lat": 33.456412, "city-county-name": "Birmingham", "twitter": "http://www.twitter.com/bhambizjrnl", "name": "Business Journal", "video": ""}, {"city-county-long": -86.801904, "open-search": [], "rss": [], "media-class": "newspaper", "media-subclass": "city-county", "facebook": "https://www.facebook.com/pages/Over-the-Mountain-Journal/131637710184301", "website": "http://www.otmj.com/", "city-county-lat": 33.456412, "city-county-name": "Birmingham", "twitter": "", "name": "Over the Mountain Journal", "video": ""}, {"city-county-long": -87.10173, "open-search": [], "rss": ["http://www.troymessenger.com/category/rss-general/feed/atom/"], "media-class": "newspaper", "media-subclass": "city-county", "facebook": "https://www.facebook.com/pages/The-Brewton-Standard/73324917142", "website": "http://www.brewtonstandard.com/", "city-county-lat": 31.129008, "city-county-name": "Brewton", "twitter": "http://www.twitter.com/brewtonstandard", "name": "Brewton Standard", "video": "http://www.youtube.com/channel/UCZrTf86Mo7a0pm9OX-GpJww"}, {"city-county-long": -87.52728, "open-search": ["http://www.corridormessenger.com/search/opensearch/generic.xml"], "rss": [], "media-class": "newspaper", "media-subclass": "city-county", "facebook": "https://www.facebook.com/corridor.messenger", "website": "http://corridormessenger.com/", "city-county-lat": 33.87798, "city-county-name": "Carbon Hill", "twitter": "", "name": "Corridor Messenger", "video": ""}, {"city-county-long": -88.16866, "open-search": [], "rss": [], "media-class": "newspaper", "media-subclass": "city-county", "facebook": "https://www.facebook.com/PickensCountyHerald", "website": "http://pcherald.com/", "city-county-lat": 33.254197, "city-county-name": "Carrollton", "twitter": "http://www.twitter.com/PickensCoHerald", "name": "Pickens County Herald", "video": ""}, {"city-county-long": -85.60472, "open-search": ["http://www.northwestgeorgianews.com/search/opensearch/generic.xml"], "rss": [], "media-class": "newspaper", "media-subclass": "city-county", "facebook": "https://www.facebook.com/CherokeeCountyHerald", "website": "http://www.northwestgeorgianews.com/cherokee_county/", "city-county-lat": 34.141067, "city-county-name": "Centre", "twitter": "", "name": "Cherokee County Herald", "video": ""}, {"city-county-long": -85.60472, "open-search": [], "rss": [], "media-class": "newspaper", "media-subclass": "city-county", "facebook": "", "website": "http://www.epostpaper.com/", "city-county-lat": 34.141067, "city-county-name": "Centre", "twitter": "http://www.twitter.com/postpaper", "name": "Post Online", "video": ""}, {"city-county-long": -88.26781, "open-search": [], "rss": [], "media-class": "newspaper", "media-subclass": "city-county", "facebook": "https://www.facebook.com/pages/Washington-County-NewsHolmes-County-Advertiser/109405362449641", "website": "http://www.chipleypaper.com/", "city-county-lat": 31.463383, "city-county-name": "Chatom", "twitter": "http://www.twitter.com/wcn_hct", "name": "Washington County News", "video": ""}, {"city-county-long": -88.2633, "open-search": [], "rss": ["http://www.thecallnews.com/feed/", "http://www.thecallnews.com/comments/feed/"], "media-class": "newspaper", "media-subclass": "city-county", "facebook": "https://www.facebook.com/pages/The-Call-News/74580658175", "website": "http://www.thecallnews.com/", "city-county-lat": 31.0753, "city-county-name": "Citronelle", "twitter": "", "name": "Call News", "video": "https://www.youtube.com/user/callnews"}, {"city-county-long": -86.638819, "open-search": [], "rss": [], "media-class": "newspaper", "media-subclass": "city-county", "facebook": "https://www.facebook.com/clantonadvertiser", "website": "http://www.clantonadvertiser.com/", "city-county-lat": 32.859262, "city-county-name": "Clanton", "twitter": "http://www.twitter.com/clantonadv", "name": "Clanton Advertiser", "video": ""}, {"city-county-long": -85.43298, "open-search": [], "rss": [], "media-class": "newspaper", "media-subclass": "city-county", "facebook": "", "website": "http://www.theclaytonrecordonline.com/", "city-county-lat": 31.843675, "city-county-name": "Clayton", "twitter": "", "name": "Clayton Record", "video": ""}, {"city-county-long": -86.621931, "open-search": [], "rss": [], "media-class": "newspaper", "media-subclass": "city-county", "facebook": "https://www.facebook.com/shelbycountyreporter", "website": "http://www.shelbycountyreporter.com", "city-county-lat": 33.158454, "city-county-name": "Columbiana", "twitter": "http://www.twitter.com/shelbycreporter", "name": "Shelby County Reporter", "video": "http://www.youtube.com/user/shelbycountymedia"}, {"city-county-long": -86.82506, "open-search": [], "rss": ["http://www.cullmantimes.com/search/?f=rss&t=article&l=50&s=start_time&sd=desc&k[]=%23topstory"], "media-class": "newspaper", "media-subclass": "city-county", "facebook": "https://www.facebook.com/pages/The-Cullman-Times/136821583036613", "website": "http://www.cullmantimes.com/", "city-county-lat": 34.167893, "city-county-name": "Cullman", "twitter": "http://www.twitter.com/TheCullmanTimes", "name": "Cullman Times", "video": ""}, {"city-county-long": -86.82506, "open-search": [], "rss": [], "media-class": "newspaper", "media-subclass": "city-county", "facebook": "https://www.facebook.com/CullmanSense", "website": "http://www.cullmansense.com/", "city-county-lat": 34.167893, "city-county-name": "Cullman", "twitter": "http://www.twitter.com/cullmansense", "name": "CullmanSense", "video": "http://www.youtube.com/user/cullmansense"}, {"city-county-long": -85.79955, "open-search": [], "rss": [], "media-class": "newspaper", "media-subclass": "city-county", "facebook": "https://www.facebook.com/pages/Dadeville-Record/47940556546", "website": "http://www.alexcityoutlook.com/category/dadeville/", "city-county-lat": 32.787441, "city-county-name": "Dadeville", "twitter": "", "name": "Dadeville Record", "video": ""}, {"city-county-long": -85.72111, "open-search": ["http://www.southeastsun.com/search/opensearch/generic.xml"], "rss": [], "media-class": "newspaper", "media-subclass": "city-county", "facebook": "", "website": "http://www.southeastsun.com/daleville/", "city-county-lat": 31.284499, "city-county-name": "Daleville", "twitter": "", "name": "Daleville Sun-Courier", "video": ""}, {"city-county-long": -86.98786, "open-search": [], "rss": ["http://www.decaturdaily.com/search/?f=rss&t=article&l=50&s=start_time&sd=desc&k[]=%23topstory"], "media-class": "newspaper", "media-subclass": "city-county", "facebook": "https://www.facebook.com/decaturdaily", "website": "http://www.decaturdaily.com", "city-county-lat": 34.595332, "city-county-name": "Decatur", "twitter": "http://www.twitter.com/decaturdaily", "name": "Decatur Daily", "video": "http://www.youtube.com/user/DecaturDailyDemocrat"}, {"city-county-long": -87.84521, "open-search": [], "rss": [], "media-class": "newspaper", "media-subclass": "city-county", "facebook": "https://www.facebook.com/pages/The-Demopolis-Times/48146854758", "website": "http://www.demopolistimes.com", "city-county-lat": 32.495484, "city-county-name": "Demopolis", "twitter": "http://www.twitter.com/demopolistimes", "name": "Demopolis Times", "video": ""}, {"city-county-long": -85.4045, "open-search": ["http://www.dothaneagle.com/search/opensearch/generic.xml"], "rss": [], "media-class": "newspaper", "media-subclass": "city-county", "facebook": "https://www.facebook.com/dothaneagle", "website": "http://www.dothaneagle.com/", "city-county-lat": 31.180076, "city-county-name": "Dothan", "twitter": "http://www.twitter.com/dothaneagle", "name": "Dothan Eagle", "video": "http://www.youtube.com/user/dothaneagle"}, {"city-county-long": -85.4045, "open-search": ["http://www.dothaneagle.com/search/opensearch/generic.xml"], "rss": [], "media-class": "newspaper", "media-subclass": "city-county", "facebook": "https://www.facebook.com/dothaneagle", "website": "http://www.dothaneagle.com/news/dothan_progress/", "city-county-lat": 31.180076, "city-county-name": "Dothan", "twitter": "http://www.twitter.com/dothaneagle", "name": "Dothan Progress", "video": "http://www.youtube.com/user/dothaneagle"}, {"city-county-long": -86.07271, "open-search": [], "rss": [], "media-class": "newspaper", "media-subclass": "city-county", "facebook": "", "website": "http://www.elba-clipper.com/", "city-county-lat": 31.428389, "city-county-name": "Elba", "twitter": "", "name": "Elba Clipper", "video": ""}, {"city-county-long": -85.84117, "open-search": ["http://www.dothaneagle.com/search/opensearch/generic.xml"], "rss": [], "media-class": "newspaper", "media-subclass": "city-county", "facebook": "https://www.facebook.com/pages/Enterprise-Ledger/80064758818", "website": "http://www.dothaneagle.com/enterprise_ledger/", "city-county-lat": 31.32579, "city-county-name": "Enterprise", "twitter": "http://www.twitter.com/ledgernews", "name": "Enterprise Ledger", "video": "http://www.youtube.com/user/enterpriseledger"}, {"city-county-long": -85.84117, "open-search": ["http://www.southeastsun.com/search/opensearch/generic.xml"], "rss": [], "media-class": "newspaper", "media-subclass": "city-county", "facebook": "https://www.facebook.com/pages/The-Southeast-Sun/41320314986", "website": "http://www.southeastsun.com", "city-county-lat": 31.32579, "city-county-name": "Enterprise", "twitter": "http://www.twitter.com/southeastsun", "name": "Southeast Sun", "video": "http://www.youtube.com/user/SoutheastSun"}, {"city-county-long": -85.17362, "open-search": ["http://www.dothaneagle.com/search/opensearch/generic.xml"], "rss": [], "media-class": "newspaper", "media-subclass": "city-county", "facebook": "https://www.facebook.com/pages/Eufaula-Tribune/102586439777206", "website": "http://www.dothaneagle.com/eufaula_tribune/", "city-county-lat": 31.876168, "city-county-name": "Eufaula", "twitter": "http://www.twitter.com/eufaulatribnews", "name": "Eufaula Tribune", "video": "http://www.youtube.com/user/eufaulatribune"}, {"city-county-long": -87.83026, "open-search": [], "rss": [], "media-class": "newspaper", "media-subclass": "city-county", "facebook": "", "website": "http://www.mytrpaper.com/", "city-county-lat": 33.681768, "city-county-name": "Fayette", "twitter": "", "name": "Times-Record", "video": ""}, {"city-county-long": -87.66253, "open-search": ["http://www.courierjournal.net/search/opensearch/generic.xml"], "rss": [], "media-class": "newspaper", "media-subclass": "city-county", "facebook": "https://www.facebook.com/florencecourierjournal", "website": "http://www.courierjournal.net/", "city-county-lat": 34.817537, "city-county-name": "Florence", "twitter": "", "name": "Courier Journal", "video": ""}, {"city-county-long": -87.66253, "open-search": [], "rss": ["http://www.timesdaily.com/search/?f=rss&t=article&l=50&s=start_time&sd=desc&k[]=%23topstory"], "media-class": "newspaper", "media-subclass": "city-county", "facebook": "https://www.facebook.com/timesdaily", "website": "http://www.timesdaily.com", "city-county-lat": 34.817537, "city-county-name": "Florence", "twitter": "http://www.twitter.com/TimesDaily", "name": "Times Daily", "video": ""}, {"city-county-long": -86.57087, "open-search": [], "rss": ["http://www.lowndessignal.com/index.php/feed/"], "media-class": "newspaper", "media-subclass": "city-county", "facebook": "https://www.facebook.com/LowndesSignal", "website": "http://www.lowndessignal.com/", "city-county-lat": 31.984289, "city-county-name": "Fort Deposit", "twitter": "http://www.twitter.com/lowndes_signal", "name": "Lowndes Signal", "video": ""}, {"city-county-long": -85.71078, "open-search": ["http://times-journal.com/search/opensearch/generic.xml"], "rss": [], "media-class": "newspaper", "media-subclass": "city-county", "facebook": "https://www.facebook.com/timesjournal", "website": "http://times-journal.com/", "city-county-lat": 34.429472, "city-county-name": "Fort Payne", "twitter": "http://www.twitter.com/fptimesjournal", "name": "Times-Journal", "video": ""}, {"city-county-long": -85.99282, "open-search": [], "rss": ["http://gadsdenmessenger.com/feed/", "http://gadsdenmessenger.com/comments/feed/"], "media-class": "newspaper", "media-subclass": "city-county", "facebook": "https://www.facebook.com/TheMessengerGadsden", "website": "http://gadsdenmessenger.com/", "city-county-lat": 34.016747, "city-county-name": "Gadsden", "twitter": "http://www.twitter.com/gad_messenger", "name": "Gadsden Messenger", "video": ""}, {"city-county-long": -85.99282, "open-search": [], "rss": [], "media-class": "newspaper", "media-subclass": "city-county", "facebook": "https://www.facebook.com/GadsdenTimes", "website": "http://www.gadsdentimes.com", "city-county-lat": 34.016747, "city-county-name": "Gadsden", "twitter": "http://www.twitter.com/gadsdentimes", "name": "Gadsden Times", "video": "http://www.youtube.com/user/GadsdenTimes"}, {"city-county-long": -86.8206, "open-search": [], "rss": ["http://www.njeffersonnews.com/search/?f=rss&t=article&l=50&s=start_time&sd=desc&k[]=%23topstory"], "media-class": "newspaper", "media-subclass": "city-county", "facebook": "https://www.facebook.com/NorthJeffersonNews", "website": "http://www.njeffersonnews.com/", "city-county-lat": 33.67933, "city-county-name": "Gardendale", "twitter": "http://www.twitter.com/NorthJeffNews", "name": "North Jefferson News", "video": "https://www.youtube.com/channel/UCFEeqoeuHzLzXi380gtIqhg"}, {"city-county-long": -85.87941, "open-search": [], "rss": ["http://www.oppnewsonline.com/comments/feed/", "http://www.oppnewsonline.com/feed/"], "media-class": "newspaper", "media-subclass": "city-county", "facebook": "https://www.facebook.com/pages/Geneva-County-Reaper/133754646654708", "website": "http://www.oppnewsonline.com/23136/1964/geneva-county-reaperpdf", "city-county-lat": 31.043454, "city-county-name": "Geneva", "twitter": "", "name": "Geneva County Reaper", "video": ""}, {"city-county-long": -85.87941, "open-search": [], "rss": ["http://www.oppnewsonline.com/comments/feed/", "http://www.oppnewsonline.com/feed/"], "media-class": "newspaper", "media-subclass": "city-county", "facebook": "", "website": "http://www.oppnewsonline.com/20680/1964/hartford-newsheraldpdf", "city-county-lat": 31.043454, "city-county-name": "Geneva", "twitter": "", "name": "Hartford News-Herald", "video": ""}, {"city-county-long": -88.28508, "open-search": [], "rss": [], "media-class": "newspaper", "media-subclass": "city-county", "facebook": "https://www.facebook.com/choctawsun", "website": "http://www.choctawsun.org/", "city-county-lat": 31.891177, "city-county-name": "Gilbertown", "twitter": "", "name": "Choctaw Sun", "video": "https://www.youtube.com/channel/UCV40upHYovteOs4uAUH9LjQ"}, {"city-county-long": -86.60591, "open-search": [], "rss": [], "media-class": "newspaper", "media-subclass": "city-county", "facebook": "https://www.facebook.com/GreenvilleAdvocate", "website": "http://www.greenvilleadvocate.com/", "city-county-lat": 31.8007, "city-county-name": "Greenville", "twitter": "http://www.twitter.com/GvilleAdvocate", "name": "Greenville Advocate", "video": ""}, {"city-county-long": -87.77773, "open-search": [], "rss": ["/news.xml"], "media-class": "newspaper", "media-subclass": "city-county", "facebook": "https://www.facebook.com/pages/Clarke-County-Democrat/282374158462974", "website": "http://www.clarkecountydemocrat.com/", "city-county-lat": 31.704736, "city-county-name": "Grove Hill", "twitter": "http://www.twitter.com/CCDemocrat", "name": "Clarke County Democrat", "video": ""}, {"city-county-long": -87.72784, "open-search": [], "rss": [], "media-class": "newspaper", "media-subclass": "city-county", "facebook": "https://www.facebook.com/GulfCoastMedia/", "website": "http://www.gulfcoastnewstoday.com/the_islander/", "city-county-lat": 30.262276, "city-county-name": "Gulf Shores", "twitter": "", "name": "Gulf Shores Islander", "video": ""}, {"city-county-long": -86.30475, "open-search": ["http://www.advertisergleam.com/search/opensearch/generic.xml"], "rss": [], "media-class": "newspaper", "media-subclass": "city-county", "facebook": "https://www.facebook.com/advertisergleam", "website": "http://www.advertisergleam.com/", "city-county-lat": 34.350835, "city-county-name": "Guntersville", "twitter": "", "name": "Advertiser-Gleam", "video": ""}, {"city-county-long": -87.6118, "open-search": [], "rss": [], "media-class": "newspaper", "media-subclass": "city-county", "facebook": "", "website": "http://www.mynwapaper.com/", "city-county-lat": 34.225425, "city-county-name": "Haleyville", "twitter": "", "name": "Northwest Alabamian", "video": ""}, {"city-county-long": -86.94027, "open-search": [], "rss": ["http://www.troymessenger.com/category/rss-general/feed/atom/"], "media-class": "newspaper", "media-subclass": "city-county", "facebook": "https://www.facebook.com/pages/Hartselle-Enquirer/55079151637", "website": "http://www.hartselleenquirer.com", "city-county-lat": 34.442184, "city-county-name": "Hartselle", "twitter": "http://www.twitter.com/hartselleenq", "name": "Hartselle Enquirer", "video": ""}, {"city-county-long": -85.55457, "open-search": [], "rss": ["http://www.annistonstar.com/search/?f=rss&t=article&c=cleburne_news&l=50&s=start_time&sd=desc"], "media-class": "newspaper", "media-subclass": "city-county", "facebook": "https://www.facebook.com/pages/Cleburne-News/174078529314804", "website": "http://www.annistonstar.com/cleburne_news/", "city-county-lat": 33.613541, "city-county-name": "Heflin", "twitter": "", "name": "Cleburne News", "video": ""}, {"city-county-long": -86.57316, "open-search": [], "rss": [], "media-class": "newspaper", "media-subclass": "city-county", "facebook": "https://www.facebook.com/huntsvilletimes", "website": "http://www.al.com/huntsville/", "city-county-lat": 34.72879, "city-county-name": "Huntsville", "twitter": "http://www.twitter.com/ALcomHuntsville", "name": "Huntsville Times", "video": ""}, {"city-county-long": -86.57316, "open-search": [], "rss": ["http://www.speakinoutweeklynews.com/feed.xml"], "media-class": "newspaper", "media-subclass": "city-county", "facebook": "https://www.facebook.com/speakinoutnews", "website": "http://www.speakinoutweeklynews.com/", "city-county-lat": 34.72879, "city-county-name": "Huntsville", "twitter": "", "name": "Speakin' Out News", "video": ""}, {"city-county-long": -86.57316, "open-search": [], "rss": ["http://valleyplanet.com/sample-page/feed/", "http://valleyplanet.com/comments/feed/", "http://valleyplanet.com/feed/"], "media-class": "newspaper", "media-subclass": "city-county", "facebook": "https://www.facebook.com/pages/Valley-Planet/29498957774", "website": "http://www.valleyplanet.com", "city-county-lat": 34.72879, "city-county-name": "Huntsville", "twitter": "http://www.twitter.com/valleyplanet", "name": "Valley Planet", "video": ""}, {"city-county-long": -87.88346, "open-search": [], "rss": ["/news.xml"], "media-class": "newspaper", "media-subclass": "city-county", "facebook": "", "website": "http://www.southalabamian.com/", "city-county-lat": 31.508231, "city-county-name": "Jackson", "twitter": "", "name": "South Alabamian", "video": ""}, {"city-county-long": -85.77037, "open-search": [], "rss": ["http://www.annistonstar.com/search/?f=rss&t=article&c=jacksonville_news&l=50&s=start_time&sd=desc"], "media-class": "newspaper", "media-subclass": "city-county", "facebook": "https://www.facebook.com/annistonstar", "website": "http://www.annistonstar.com/jacksonville_news/", "city-county-lat": 33.824496, "city-county-name": "Jacksonville", "twitter": "http://www.twitter.com/annistonstar", "name": "Jacksonville News", "video": ""}, {"city-county-long": -87.27632, "open-search": [], "rss": [], "media-class": "newspaper", "media-subclass": "city-county", "facebook": "https://www.facebook.com/mountaineagle", "website": "http://www.mountaineagle.com/", "city-county-lat": 33.828412, "city-county-name": "Jasper", "twitter": "http://www.twitter.com/DailyMtnEagle", "name": "Daily Mountain Eagle", "video": ""}, {"city-county-long": -85.42905, "open-search": [], "rss": ["http://thelafayettesun.com/feed/", "http://thelafayettesun.com/comments/feed/"], "media-class": "newspaper", "media-subclass": "city-county", "facebook": "https://www.facebook.com/pages/The-LaFayette-Sun-Newspaper/116010268416021", "website": "http://www.thelafayettesun.com/", "city-county-lat": 32.903922, "city-county-name": "Lafayette", "twitter": "http://www.twitter.com/lsunnews", "name": "LaFayette Sun", "video": ""}, {"city-county-long": -85.221739, "open-search": [], "rss": [], "media-class": "newspaper", "media-subclass": "city-county", "facebook": "", "website": "http://www.valleytimes-news.com", "city-county-lat": 32.890759, "city-county-name": "Lanett", "twitter": "", "name": "Valley Times-News", "video": ""}, {"city-county-long": -88.12485, "open-search": [], "rss": [], "media-class": "newspaper", "media-subclass": "city-county", "facebook": "https://www.facebook.com/recordjournalnewspaper", "website": "http://www.recordjournal.net", "city-county-lat": 32.558949, "city-county-name": "Livingston", "twitter": "", "name": "Sumter Co. Record-Journal", "video": "https://www.youtube.com/user/screcordjournal"}, {"city-county-long": -86.26946, "open-search": [], "rss": [], "media-class": "newspaper", "media-subclass": "city-county", "facebook": "https://www.facebook.com/LuverneJournal", "website": "http://www.greenvilleadvocate.com/category/luverne/", "city-county-lat": 31.737407, "city-county-name": "Luverne", "twitter": "http://www.twitter.com/Luverne_Journal", "name": "Luverne Journal", "video": "https://www.youtube.com/channel/UCorshkhu8upUY3NXgQdWRqA"}, {"city-county-long": -86.80159, "open-search": [], "rss": ["http://www.troymessenger.com/category/rss-general/feed/atom/"], "media-class": "newspaper", "media-subclass": "city-county", "facebook": "https://www.facebook.com/pages/The-Madison-Record/111490242234428", "website": "http://www.madisoncountyrecord.com/", "city-county-lat": 34.630103, "city-county-name": "Madison", "twitter": "http://www.twitter.com/madisonrecord", "name": "Madison Record", "video": ""}, {"city-county-long": -88.103184, "open-search": [], "rss": ["http://lagniappemobile.com/comments/feed/", "http://lagniappemobile.com/feed/"], "media-class": "newspaper", "media-subclass": "city-county", "facebook": "https://www.facebook.com/lagniappemobile", "website": "http://www.lagniappemobile.com/", "city-county-lat": 30.701142, "city-county-name": "Mobile", "twitter": "http://www.twitter.com/LagniappeMobile", "name": "Lagniappe", "video": "http://www.youtube.com/user/lagniappe72402"}, {"city-county-long": -88.103184, "open-search": [], "rss": [], "media-class": "newspaper", "media-subclass": "city-county", "facebook": "https://www.facebook.com/PressRegisterConnect", "website": "http://www.al.com/mobile/", "city-county-lat": 30.701142, "city-county-name": "Mobile", "twitter": "http://www.twitter.com/alcommobile", "name": "Press-Register", "video": ""}, {"city-county-long": -87.32416, "open-search": [], "rss": ["http://monroejournal.com/feed/", "http://monroejournal.com/comments/feed/"], "media-class": "newspaper", "media-subclass": "city-county", "facebook": "https://www.facebook.com/pages/Monroe-JournalMonroe360com/69530007402", "website": "http://www.monroejournal.com/", "city-county-lat": 31.509039, "city-county-name": "Monroeville", "twitter": "http://www.twitter.com/monroe360", "name": "Monroe Journal", "video": ""}, {"city-county-long": -86.257817, "open-search": [], "rss": [], "media-class": "newspaper", "media-subclass": "city-county", "facebook": "https://www.facebook.com/montgomeryadvertiser", "website": "http://www.montgomeryadvertiser.com/", "city-county-lat": 32.356988, "city-county-name": "Montgomery", "twitter": "http://www.twitter.com/mgmadvertiser", "name": "Montgomery Advertiser", "video": ""}, {"city-county-long": -87.27802, "open-search": ["http://www.moultonadvertiser.com/search/opensearch/generic.xml"], "rss": [], "media-class": "newspaper", "media-subclass": "city-county", "facebook": "https://www.facebook.com/moultonadvertiser", "website": "http://www.moultonadvertiser.com/", "city-county-lat": 34.496476, "city-county-name": "Moulton", "twitter": "http://www.twitter.com/MoultonAdv", "name": "Moulton Advertiser", "video": ""}, {"city-county-long": -86.45813, "open-search": [], "rss": ["/news.xml"], "media-class": "newspaper", "media-subclass": "city-county", "facebook": "https://www.facebook.com/pages/The-Blount-Countian/131695643542580", "website": "http://www.blountcountian.com/", "city-county-lat": 33.944897, "city-county-name": "Oneonta", "twitter": "", "name": "Blount Countian", "video": ""}, {"city-county-long": -85.39917, "open-search": ["http://www.oanow.com/search/opensearch/generic.xml"], "rss": [], "media-class": "newspaper", "media-subclass": "city-county", "facebook": "https://www.facebook.com/oanow", "website": "http://www.oanow.com/", "city-county-lat": 32.660497, "city-county-name": "Opelika", "twitter": "http://www.twitter.com/oanow", "name": "Opelika-Auburn News", "video": "https://www.youtube.com/channel/UCm8BFuyDeGQ7Mi80hNKe7ZA"}, {"city-county-long": -86.25484, "open-search": [], "rss": ["http://www.oppnewsonline.com/comments/feed/", "http://www.oppnewsonline.com/feed/"], "media-class": "newspaper", "media-subclass": "city-county", "facebook": "https://www.facebook.com/pages/The-Opp-News/199982373361642", "website": "http://www.oppnewsonline.com/", "city-county-lat": 31.280048, "city-county-name": "Opp", "twitter": "", "name": "Opp News", "video": ""}, {"city-county-long": -86.28912, "open-search": [], "rss": ["http://www.newsaegis.com/search/?f=rss&t=article&l=50&s=start_time&sd=desc&k[]=%23topstory"], "media-class": "newspaper", "media-subclass": "city-county", "facebook": "https://www.facebook.com/pages/St-Clair-News-Aegis/289445752292", "website": "http://www.newsaegis.com/", "city-county-lat": 33.606663, "city-county-name": "Pell City", "twitter": "http://www.twitter.com/SCNewsAegis", "name": "St. Clair News-Aegis", "video": ""}, {"city-county-long": -86.28912, "open-search": [], "rss": ["http://www.annistonstar.com/search/?f=rss&t=article&c=the_st_clair_times&l=50&s=start_time&sd=desc"], "media-class": "newspaper", "media-subclass": "city-county", "facebook": "https://www.facebook.com/pages/St-Clair-Times/166861103332609", "website": "http://www.annistonstar.com/the_st_clair_times/", "city-county-lat": 33.606663, "city-county-name": "Pell City", "twitter": "", "name": "St. Clair Times", "video": ""}, {"city-county-long": -85.61491, "open-search": [], "rss": ["http://www.annistonstar.com/search/?f=rss&t=article&c=piedmont_journal&l=50&s=start_time&sd=desc"], "media-class": "newspaper", "media-subclass": "city-county", "facebook": "", "website": "http://www.annistonstar.com/piedmont_journal/", "city-county-lat": 33.948018, "city-county-name": "Piedmont", "twitter": "", "name": "Piedmont Journal", "video": ""}, {"city-county-long": -86.42746, "open-search": [], "rss": [], "media-class": "newspaper", "media-subclass": "city-county", "facebook": "https://www.facebook.com/PrattvilleProgress", "website": "http://www.montgomeryadvertiser.com/news/prattville/", "city-county-lat": 32.459435, "city-county-name": "Prattville", "twitter": "", "name": "Prattville Progress", "video": ""}, {"city-county-long": -85.36865, "open-search": ["http://www.therandolphleader.com/search/opensearch/generic.xml"], "rss": [], "media-class": "newspaper", "media-subclass": "city-county", "facebook": "https://www.facebook.com/therandolphleader", "website": "http://www.therandolphleader.com/", "city-county-lat": 33.159848, "city-county-name": "Roanoke", "twitter": "http://www.twitter.com/randolphleader", "name": "Randolph Leader", "video": "http://www.youtube.com/user/therandolphleader"}, {"city-county-long": -87.63936, "open-search": [], "rss": [], "media-class": "newspaper", "media-subclass": "city-county", "facebook": "https://www.facebook.com/GulfCoastMedia/", "website": "http://www.gulfcoastnewstoday.com/the_independent/", "city-county-lat": 30.5822, "city-county-name": "Robertsdale", "twitter": "", "name": "Robertsdale Independent", "video": ""}, {"city-county-long": -87.78077, "open-search": [], "rss": [], "media-class": "newspaper", "media-subclass": "city-county", "facebook": "https://www.facebook.com/pages/The-Franklin-County-Times/88679907892", "website": "http://www.franklincountytimes.com/", "city-county-lat": 34.519453, "city-county-name": "Russellville", "twitter": "http://www.twitter.com/franklincotimes", "name": "Franklin County Times", "video": ""}, {"city-county-long": -86.08387, "open-search": ["http://thedailysentinel.com/search/opensearch/generic.xml"], "rss": [], "media-class": "newspaper", "media-subclass": "city-county", "facebook": "https://www.facebook.com/pages/The-Daily-Sentinel/189413290563", "website": "http://thedailysentinel.com/", "city-county-lat": 34.712327, "city-county-name": "Scottsboro", "twitter": "http://www.twitter.com/dailysentineljc", "name": "Daily Sentinel", "video": ""}, {"city-county-long": -86.08387, "open-search": [], "rss": ["/index.php?format=feed&type=rss", "/index.php?format=feed&type=atom"], "media-class": "newspaper", "media-subclass": "city-county", "facebook": "https://www.facebook.com/theclarionnewspaper", "website": "http://www.theclarion.org/", "city-county-lat": 34.712327, "city-county-name": "Scottsboro", "twitter": "http://www.twitter.com/theclarionpaper", "name": "Scottsboro Clarion", "video": ""}, {"city-county-long": -87.03809, "open-search": [], "rss": [], "media-class": "newspaper", "media-subclass": "city-county", "facebook": "https://www.facebook.com/SelmaTimesJournal", "website": "http://www.selmatimesjournal.com", "city-county-lat": 32.429066, "city-county-name": "Selma", "twitter": "http://www.twitter.com/SelmaTimes", "name": "Selma Times-Journal", "video": ""}, {"city-county-long": -88.13117, "open-search": [], "rss": [], "media-class": "newspaper", "media-subclass": "city-county", "facebook": "https://www.facebook.com/lamar.leader", "website": "http://www.lamarleader.com/", "city-county-lat": 33.864591, "city-county-name": "Sulligent", "twitter": "", "name": "Lamar Leader", "video": ""}, {"city-county-long": -86.10908, "open-search": [], "rss": ["http://www.annistonstar.com/search/?f=rss&t=article&c=the_daily_home&l=50&s=start_time&sd=desc"], "media-class": "newspaper", "media-subclass": "city-county", "facebook": "https://www.facebook.com/pages/Daily-Home-Newspaper/123994364892", "website": "http://www.annistonstar.com/the_daily_home/", "city-county-lat": 33.415449, "city-county-name": "Talladega", "twitter": "http://www.twitter.com/dailyhome", "name": "Daily Home", "video": ""}, {"city-county-long": -85.9136, "open-search": [], "rss": [], "media-class": "newspaper", "media-subclass": "city-county", "facebook": "https://www.facebook.com/pages/The-Tallassee-Tribune/247004912816", "website": "http://tallasseetribune.com/", "city-county-lat": 32.553036, "city-county-name": "Tallassee", "twitter": "http://www.twitter.com/TallasseeTrib", "name": "Tallassee Tribune", "video": ""}, {"city-county-long": -87.77013, "open-search": [], "rss": ["/news.xml"], "media-class": "newspaper", "media-subclass": "city-county", "facebook": "https://www.facebook.com/thomasvilletimes", "website": "http://www.thethomasvilletimes.com/", "city-county-lat": 31.936003, "city-county-name": "Thomasville", "twitter": "http://www.twitter.com/tvilletimes", "name": "Thomasville Times", "video": "http://www.youtube.com/user/tvilletimes"}, {"city-county-long": -85.992, "open-search": [], "rss": ["http://www.troymessenger.com/category/rss-general/feed/atom/"], "media-class": "newspaper", "media-subclass": "city-county", "facebook": "https://www.facebook.com/pages/Troy-Messenger/49304321607", "website": "http://www.troymessenger.com/", "city-county-lat": 31.780847, "city-county-name": "Troy", "twitter": "http://www.twitter.com/troymessenger", "name": "Troy Messenger", "video": "http://www.youtube.com/user/troymessenger"}, {"city-county-long": -86.58546, "open-search": [], "rss": [], "media-class": "newspaper", "media-subclass": "city-county", "facebook": "https://www.facebook.com/pages/The-Trussville-News/133375750041404", "website": "http://www.thetrussvillenews.com/", "city-county-lat": 33.623485, "city-county-name": "Trussville", "twitter": "", "name": "Trussville News", "video": ""}, {"city-county-long": -87.56843, "open-search": [], "rss": ["http://www.tuscaloosanews.com/rss/articles/NEWS/1007/30"], "media-class": "newspaper", "media-subclass": "city-county", "facebook": "https://www.facebook.com/tuscnews", "website": "http://www.tuscaloosanews.com", "city-county-lat": 33.193818, "city-county-name": "Tuscaloosa", "twitter": "http://www.twitter.com/tuscaloosanews", "name": "Tuscaloosa News", "video": "http://www.youtube.com/user/Tuscaloosa"}, {"city-county-long": -85.69542, "open-search": [], "rss": [], "media-class": "newspaper", "media-subclass": "city-county", "facebook": "https://www.facebook.com/pages/The-Tuskegee-News/288542497462", "website": "http://www.thetuskegeenews.com/", "city-county-lat": 32.427987, "city-county-name": "Tuskegee", "twitter": "http://www.twitter.com/tuskegeenews", "name": "Tuskegee News", "video": ""}, {"city-county-long": -86.21902, "open-search": [], "rss": [], "media-class": "newspaper", "media-subclass": "city-county", "facebook": "https://www.facebook.com/pages/The-Wetumpka-Herald/363087648683", "website": "http://thewetumpkaherald.com/", "city-county-lat": 32.592889, "city-county-name": "Wetumpka", "twitter": "http://www.twitter.com/WetumpkaHerald", "name": "Wetumpka Herald", "video": "http://www.youtube.com/user/wetumpkaherald"}, {"city-county-long": -85.4952, "open-search": [], "rss": [], "media-class": "newspaper", "media-subclass": "college", "facebook": "https://www.facebook.com/theplainsman", "website": "http://www.theplainsman.com/", "city-county-lat": 32.5934, "city-county-name": "Auburn", "twitter": "http://www.twitter.com/TheAUPlainsman", "name": "Plainsman", "video": "http://www.youtube.com/user/TheAuburnPlainsman1"}, {"city-county-long": -85.7663, "open-search": ["https://thechanticleer.wordpress.com/osd.xml", "https://s1.wp.com/opensearch.xml"], "rss": ["https://thechanticleer.wordpress.com/feed/", "https://thechanticleer.wordpress.com/comments/feed/"], "media-class": "newspaper", "media-subclass": "college", "facebook": "https://www.facebook.com/JacksonvilleStateUniversity", "website": "http://www.jsu.edu/chanticleer/", "city-county-lat": 33.8231, "city-county-name": "Jacksonville State", "twitter": "http://www.twitter.com/JSUNews", "name": "The Chanticleer", "video": "http://www.youtube.com/JacksonvilleStateU"}, {"city-county-long": -88.1366, "open-search": [], "rss": [], "media-class": "newspaper", "media-subclass": "college", "facebook": "", "website": "http://issuu.com/thespringhillian", "city-county-lat": 30.6937, "city-county-name": "Spring Hill", "twitter": "", "name": "SpringHillian", "video": ""}, {"city-county-long": -85.9574, "open-search": [], "rss": ["http://tropnews.com/feed", "http://tropnews.com/feed/podcast", "http://tropnews.com/comments/feed"], "media-class": "newspaper", "media-subclass": "college", "facebook": "https://www.facebook.com/Tropolitan", "website": "http://tropnews.com/", "city-county-lat": 31.7988, "city-county-name": "Troy State", "twitter": "http://www.twitter.com/Tropolitan", "name": "Tropolitan", "video": "http://www.youtube.com/user/TheTropolitan"}, {"city-county-long": -86.8095, "open-search": ["http://www.uab.edu/studentmedia/component/search/?layout=blog&id=8&Itemid=174&format=opensearch"], "rss": ["/studentmedia/?format=feed&type=rss", "/studentmedia/?format=feed&type=atom"], "media-class": "newspaper", "media-subclass": "college", "facebook": "https://www.facebook.com/uabkscope", "website": "http://studentmedia.uab.edu/", "city-county-lat": 33.4962, "city-county-name": "Univ of Alabama Birmingham", "twitter": "http://www.twitter.com/UABkscope", "name": "Kaleidoscope", "video": ""}, {"city-county-long": -87.5391, "open-search": [], "rss": [], "media-class": "newspaper", "media-subclass": "college", "facebook": "https://www.facebook.com/TheCrimsonWhite", "website": "http://cw.ua.edu/", "city-county-lat": 33.214, "city-county-name": "Univ of Alabama Tuscaloosa", "twitter": "http://www.twitter.com/TheCrimsonWhite", "name": "Crimson White", "video": "http://www.youtube.com/user/UACrimsonWhite"}, {"city-county-long": -87.68, "open-search": ["http://www.florala.net/search/opensearch/generic.xml"], "rss": [], "media-class": "newspaper", "media-subclass": "college", "facebook": "https://www.facebook.com/pages/The-Flor-Ala/137911642917581", "website": "http://www.florala.net/", "city-county-lat": 34.8074, "city-county-name": "Univ of North Alabama", "twitter": "http://www.twitter.com/UNAFlorAla", "name": "The Flor-Ala", "video": ""}, {"city-county-long": -88.1788, "open-search": [], "rss": [], "media-class": "newspaper", "media-subclass": "college", "facebook": "https://www.facebook.com/TheVanguardUSA", "website": "http://thevanguardonline.com/", "city-county-lat": 30.6954, "city-county-name": "Univ of South Alabama", "twitter": "http://www.twitter.com/TheVanguardUSA", "name": "The Vanguard", "video": ""}], "radio": [{"city-county-long": -86.22835, "open-search": [], "rss": ["http://www.wqsb.com/feed/", "http://www.wqsb.com/comments/feed/"], "media-class": "radio", "media-subclass": "Country", "facebook": "http://www.facebook.com/105wqsb", "website": "http://www.wqsb.com/", "city-county-lat": 34.261878, "city-county-name": "Albertville", "twitter": "http://www.twitter.com/wqsb", "name": "WQSB 105.1 FM", "video": ""}, {"city-county-long": -86.48699, "open-search": [], "rss": [], "media-class": "radio", "media-subclass": "Country", "facebook": "http://www.facebook.com/pages/WAAO/230891976841", "website": "http://www.waao.com/", "city-county-lat": 31.279043, "city-county-name": "Andalusia", "twitter": "http://www.twitter.com/103COUNTRY", "name": "WAAO 103.7 FM", "video": ""}, {"city-county-long": -86.48699, "open-search": [], "rss": [], "media-class": "radio", "media-subclass": "Country", "facebook": "https://www.facebook.com/fox107.7", "website": "http://www.fox107.com/", "city-county-lat": 31.279043, "city-county-name": "Andalusia", "twitter": "http://www.twitter.com/fox107", "name": "WFXX 103.7 FM", "video": ""}, {"city-county-long": -86.49278, "open-search": [], "rss": [], "media-class": "radio", "media-subclass": "Oldies", "facebook": "https://www.facebook.com/pages/Fun-927-WAFN-FM/98497425374", "website": "http://www.fun927.com/", "city-county-lat": 34.323715, "city-county-name": "Arab", "twitter": "http://www.twitter.com/fun927", "name": "WAFN 92.7 FM", "video": ""}, {"city-county-long": -87.02767, "open-search": [], "rss": [], "media-class": "radio", "media-subclass": "Classic", "facebook": "http://www.facebook.com/WKAC1080AM", "website": "http://wkac1080.com/", "city-county-lat": 34.784028, "city-county-name": "Athens", "twitter": "http://www.twitter.com/WKAC1080", "name": "WKAC 1080 AM", "video": ""}, {"city-county-long": -87.02767, "open-search": [], "rss": ["http://www.wvnn.com/home/feed/", "http://www.wvnn.com/comments/feed/", "http://www.wvnn.com/feed/"], "media-class": "radio", "media-subclass": "Classic", "facebook": "http://www.facebook.com/NewsTalkWVNN", "website": "http://www.wvnn.com/", "city-county-lat": 34.784028, "city-county-name": "Athens", "twitter": "http://www.twitter.com/WVNN", "name": "WVNN 1080 AM", "video": ""}, {"city-county-long": -85.47282, "open-search": [], "rss": ["http://wp.auburn.edu/wegl/?feed=comments-rss2", "http://wp.auburn.edu/wegl/?feed=rss2"], "media-class": "radio", "media-subclass": "Variety", "facebook": "http://www.facebook.com/pages/WEGL-911-FM/344059572341710", "website": "http://wegl.auburn.edu/", "city-county-lat": 32.577135, "city-county-name": "Auburn", "twitter": "http://www.twitter.com/WEGL_AU", "name": "WEGL 91.1 FM", "video": ""}, {"city-county-long": -86.801904, "open-search": [], "rss": ["http://www.watv900.com/home/feed/", "http://www.watv900.com/feed/", "http://www.watv900.com/comments/feed/"], "media-class": "radio", "media-subclass": "Urban", "facebook": "", "website": "http://www.900goldwatv.com/", "city-county-lat": 33.456412, "city-county-name": "Birmingham", "twitter": "", "name": "WATV 900 AM", "video": ""}, {"city-county-long": -86.801904, "open-search": [], "rss": [], "media-class": "radio", "media-subclass": "Urban", "facebook": "http://www.facebook.com/familyradio", "website": "http://www.familyradio.com/", "city-county-lat": 33.456412, "city-county-name": "Birmingham", "twitter": "", "name": "WBFR 900 AM", "video": ""}, {"city-county-long": -86.801904, "open-search": [], "rss": ["http://www.957jamz.com/feed/", "http://www.957jamz.com/comments/feed/"], "media-class": "radio", "media-subclass": "Urban", "facebook": "https://www.facebook.com/957JAMZ", "website": "http://www.957jamz.com/", "city-county-lat": 33.456412, "city-county-name": "Birmingham", "twitter": "http://www.twitter.com/957Jamz", "name": "WBHJ 900 AM", "video": ""}, {"city-county-long": -86.801904, "open-search": [], "rss": ["http://www.987kiss.com/comments/feed/", "http://www.987kiss.com/feed/"], "media-class": "radio", "media-subclass": "Urban", "facebook": "https://www.facebook.com/987kissfmbirmingham", "website": "http://www.987kiss.com/", "city-county-lat": 33.456412, "city-county-name": "Birmingham", "twitter": "http://www.twitter.com/987kissradio", "name": "WBHK 900 AM", "video": ""}, {"city-county-long": -86.801904, "open-search": [], "rss": [], "media-class": "radio", "media-subclass": "Urban", "facebook": "http://www.facebook.com/WBHM90.3", "website": "http://www.wbhm.org/", "city-county-lat": 33.456412, "city-county-name": "Birmingham", "twitter": "", "name": "WBHM 900 AM", "video": ""}, {"city-county-long": -86.801904, "open-search": [], "rss": ["http://www.birminghamseagle.com/comments/feed/", "http://www.birminghamseagle.com/feed/"], "media-class": "radio", "media-subclass": "Urban", "facebook": "https://www.facebook.com/1069theeagle", "website": "http://www.birminghamseagle.com/", "city-county-lat": 33.456412, "city-county-name": "Birmingham", "twitter": "", "name": "WBPT 900 AM", "video": ""}, {"city-county-long": -86.801904, "open-search": [], "rss": ["http://wdjconline.com/feed/"], "media-class": "radio", "media-subclass": "Urban", "facebook": "https://www.facebook.com/937WDJC", "website": "http://www.wdjconline.com/", "city-county-lat": 33.456412, "city-county-name": "Birmingham", "twitter": "http://www.twitter.com/wdjcstudio", "name": "WDJC 900 AM", "video": ""}, {"city-county-long": -86.801904, "open-search": [], "rss": [], "media-class": "radio", "media-subclass": "Urban", "facebook": "https://www.facebook.com/easy973", "website": "http://www.easy973.com/", "city-county-lat": 33.456412, "city-county-name": "Birmingham", "twitter": "http://www.twitter.com/easy973", "name": "WEZZ 900 AM", "video": ""}, {"city-county-long": -86.801904, "open-search": [], "rss": [], "media-class": "radio", "media-subclass": "Urban", "facebook": "", "website": "http://www.gleniris.net/wgib/", "city-county-lat": 33.456412, "city-county-name": "Birmingham", "twitter": "http://www.twitter.com/GlenIrisChurch", "name": "WGIB 900 AM", "video": "http://vimeo.com/user13103378"}, {"city-county-long": -86.801904, "open-search": [], "rss": ["http://www.joxfm.com/comments/feed/", "http://www.joxfm.com/feed/", "http://www.joxfm.com/home/feed/"], "media-class": "radio", "media-subclass": "Urban", "facebook": "https://www.facebook.com/WJOX945", "website": "http://www.joxfm.com/", "city-county-lat": 33.456412, "city-county-name": "Birmingham", "twitter": "http://www.twitter.com/WJOX945", "name": "WJOX 900 AM", "video": "http://www.youtube.com/user/JOXFM945"}, {"city-county-long": -86.801904, "open-search": [], "rss": ["http://briarwood.org/wljr-radio/comments/feed/", "http://briarwood.org/wljr-radio/feed/"], "media-class": "radio", "media-subclass": "Urban", "facebook": "http://www.facebook.com/BriarwoodPCA", "website": "http://briarwood.org/wljr-radio/", "city-county-lat": 33.456412, "city-county-name": "Birmingham", "twitter": "http://www.twitter.com/briarwoodpca", "name": "WLJR 900 AM", "video": ""}, {"city-county-long": -86.801904, "open-search": [], "rss": [], "media-class": "radio", "media-subclass": "Urban", "facebook": "http://www.facebook.com/Magic965", "website": "http://www.magic96.com/", "city-county-lat": 33.456412, "city-county-name": "Birmingham", "twitter": "http://www.twitter.com/magic965", "name": "WMJJ 900 AM", "video": ""}, {"city-county-long": -86.801904, "open-search": [], "rss": [], "media-class": "radio", "media-subclass": "Urban", "facebook": "https://www.facebook.com/1037theq", "website": "http://www.1037theq.com/", "city-county-lat": 33.456412, "city-county-name": "Birmingham", "twitter": "http://www.twitter.com/1037theq", "name": "WQEN 900 AM", "video": "http://www.youtube.com/user/TheQBirmingham"}, {"city-county-long": -86.801904, "open-search": [], "rss": ["http://www.hot1077radio.com/comments/feed/", "http://www.hot1077radio.com/home/feed/", "http://www.hot1077radio.com/feed/"], "media-class": "radio", "media-subclass": "Urban", "facebook": "https://www.facebook.com/1077wuht", "website": "http://www.hot1077radio.com/", "city-county-lat": 33.456412, "city-county-name": "Birmingham", "twitter": "http://www.twitter.com/Hot1077", "name": "WUHT 900 AM", "video": ""}, {"city-county-long": -86.801904, "open-search": [], "rss": [], "media-class": "radio", "media-subclass": "Urban", "facebook": "https://www.facebook.com/wvsufm", "website": "http://www.samford.edu/wvsu/", "city-county-lat": 33.456412, "city-county-name": "Birmingham", "twitter": "", "name": "WVSU 900 AM", "video": ""}, {"city-county-long": -86.801904, "open-search": [], "rss": ["http://www.talk995.com/comments/feed/", "http://www.talk995.com/feed/", "http://www.talk995.com/home/feed/"], "media-class": "radio", "media-subclass": "Urban", "facebook": "", "website": "http://www.995thevibe.com/", "city-county-lat": 33.456412, "city-county-name": "Birmingham", "twitter": "http://www.twitter.com/995TheVibe", "name": "WZRR 900 AM", "video": ""}, {"city-county-long": -86.801904, "open-search": [], "rss": ["http://www.wzzk.com/feed/", "http://www.wzzk.com/comments/feed/"], "media-class": "radio", "media-subclass": "Urban", "facebook": "http://www.facebook.com/1047wzzk", "website": "http://www.wzzk.com/", "city-county-lat": 33.456412, "city-county-name": "Birmingham", "twitter": "http://www.twitter.com/1047wzzk", "name": "WZZK 900 AM", "video": "http://www.youtube.com/user/1047WZZK"}, {"city-county-long": -86.82506, "open-search": [], "rss": [], "media-class": "radio", "media-subclass": "Country", "facebook": "http://www.facebook.com/WKULFM", "website": "http://www.wkul.com/", "city-county-lat": 34.167893, "city-county-name": "Cullman", "twitter": "http://www.twitter.com/WKULFM", "name": "WKUL 92.1 FM", "video": ""}, {"city-county-long": -87.84521, "open-search": [], "rss": [], "media-class": "radio", "media-subclass": "Religious", "facebook": "http://www.facebook.com/MoodyRadioSouth", "website": "http://www.moodyradiosouth.fm/", "city-county-lat": 32.495484, "city-county-name": "Demopolis", "twitter": "", "name": "WMBV 91.9 FM", "video": ""}, {"city-county-long": -85.4045, "open-search": [], "rss": [], "media-class": "radio", "media-subclass": "Religious", "facebook": "https://www.facebook.com/JoyFMDothan", "website": "http://alabama.thejoyfm.com/", "city-county-lat": 31.180076, "city-county-name": "Dothan", "twitter": "http://www.twitter.com/JoyFMDHN", "name": "WIZB 94.3 FM", "video": ""}, {"city-county-long": -85.4045, "open-search": [], "rss": ["http://www.wkmx.com/home/feed/", "http://www.wkmx.com/feed/", "http://www.wkmx.com/comments/feed/"], "media-class": "radio", "media-subclass": "Religious", "facebook": "https://www.facebook.com/1067Kmx", "website": "http://www.wkmx.com/", "city-county-lat": 31.180076, "city-county-name": "Dothan", "twitter": "", "name": "WKMX 94.3 FM", "video": ""}, {"city-county-long": -85.4045, "open-search": [], "rss": [], "media-class": "radio", "media-subclass": "Religious", "facebook": "", "website": "http://www.997wooffm.com/", "city-county-lat": 31.180076, "city-county-name": "Dothan", "twitter": "", "name": "WOOF 94.3 FM", "video": ""}, {"city-county-long": -85.4045, "open-search": [], "rss": ["http://www.955wtvy.com/feed/", "http://www.955wtvy.com/home/feed/", "http://www.955wtvy.com/comments/feed/"], "media-class": "radio", "media-subclass": "Religious", "facebook": "https://www.facebook.com/955wtvy", "website": "http://www.955wtvy.com/", "city-county-lat": 31.180076, "city-county-name": "Dothan", "twitter": "http://www.twitter.com/WTVY", "name": "WTVY 94.3 FM", "video": ""}, {"city-county-long": -85.84117, "open-search": [], "rss": [], "media-class": "radio", "media-subclass": "Adult Contemp", "facebook": "https://www.facebook.com/pages/KW-and-Wendy-in-the-Morning/165716313530174", "website": "http://www.mix969.net/", "city-county-lat": 31.32579, "city-county-name": "Enterprise", "twitter": "", "name": "WDJR 96.9 FM", "video": ""}, {"city-county-long": -87.83026, "open-search": [], "rss": [], "media-class": "radio", "media-subclass": "Country", "facebook": "https://www.facebook.com/pages/WLDX/112222387290", "website": "http://www.wldx.com/", "city-county-lat": 33.681768, "city-county-name": "Fayette", "twitter": "", "name": "WLDX 990 AM", "video": ""}, {"city-county-long": -87.83026, "open-search": [], "rss": [], "media-class": "radio", "media-subclass": "Country", "facebook": "http://www.facebook.com/98txt", "website": "http://www.98txt.com/", "city-county-lat": 33.681768, "city-county-name": "Fayette", "twitter": "http://www.twitter.com/981txt", "name": "WTXT 990 AM", "video": "http://www.youtube.com/user/981txt"}, {"city-county-long": -87.66253, "open-search": [], "rss": [], "media-class": "radio", "media-subclass": "News", "facebook": "https://www.facebook.com/NewsTalk97", "website": "http://www.wbcf.com/", "city-county-lat": 34.817537, "city-county-name": "Florence", "twitter": "", "name": "WBCF 1240 AM", "video": ""}, {"city-county-long": -87.66253, "open-search": [], "rss": ["http://www.wqlt.com/feed/", "http://www.wqlt.com/home/feed/", "http://www.wqlt.com/comments/feed/"], "media-class": "radio", "media-subclass": "News", "facebook": "http://www.facebook.com/wqltfm", "website": "http://www.wqlt.com/", "city-county-lat": 34.817537, "city-county-name": "Florence", "twitter": "http://www.twitter.com/q107radio", "name": "WQLT 1240 AM", "video": ""}, {"city-county-long": -85.45227, "open-search": [], "rss": [], "media-class": "radio", "media-subclass": "Rock", "facebook": "https://www.facebook.com/kiss1027", "website": "http://www.gradickcommunications.com/", "city-county-lat": 33.761052, "city-county-name": "Fruithurst", "twitter": "http://www.twitter.com/Kiss1027", "name": "WCKS 102.7 FM", "video": ""}, {"city-county-long": -86.94027, "open-search": [], "rss": [], "media-class": "radio", "media-subclass": "Rock", "facebook": "https://www.facebook.com/1061WTAK", "website": "http://www.wtak.com/", "city-county-lat": 34.442184, "city-county-name": "Hartselle", "twitter": "http://www.twitter.com/1061WTAK", "name": "WTAK 106.1 FM", "video": "http://www.youtube.com/user/1061WTAK"}, {"city-county-long": -86.57316, "open-search": [], "rss": ["http://mystar99.com/?feed=rss2", "http://mystar99.com/?feed=comments-rss2"], "media-class": "radio", "media-subclass": "Variety", "facebook": "http://www.facebook.com/MyStar99", "website": "http://mystar99.com/", "city-county-lat": 34.72879, "city-county-name": "Huntsville", "twitter": "", "name": "WAHR 99.1 FM", "video": ""}, {"city-county-long": -86.57316, "open-search": [], "rss": ["http://www.wayfm.com/feed/", "http://www.wayfm.com/comments/feed/"], "media-class": "radio", "media-subclass": "Variety", "facebook": "https://www.facebook.com/WAYFMHuntsville", "website": "http://wayh.wayfm.com/", "city-county-lat": 34.72879, "city-county-name": "Huntsville", "twitter": "http://www.twitter.com/WayFMHuntsville", "name": "WAYH 99.1 FM", "video": "https://www.youtube.com/user/WAYFMHSV/videos"}, {"city-county-long": -86.57316, "open-search": [], "rss": [], "media-class": "radio", "media-subclass": "Variety", "facebook": "https://www.facebook.com/1021wdrm", "website": "http://www.wdrm.com/", "city-county-lat": 34.72879, "city-county-name": "Huntsville", "twitter": "http://www.twitter.com/WDRMRadio", "name": "WDRM 99.1 FM", "video": "http://www.youtube.com/user/1021WDRM"}, {"city-county-long": -86.57316, "open-search": [], "rss": [], "media-class": "radio", "media-subclass": "Variety", "facebook": "https://www.facebook.com/WTKIWEKI", "website": "http://www.wekiradio.com/", "city-county-lat": 34.72879, "city-county-name": "Huntsville", "twitter": "", "name": "WEKI 99.1 FM", "video": ""}, {"city-county-long": -86.57316, "open-search": [], "rss": [], "media-class": "radio", "media-subclass": "Variety", "facebook": "https://www.facebook.com/pages/1031-WEUP-Fans/136817219670366", "website": "http://www.103weup.com/", "city-county-lat": 34.72879, "city-county-name": "Huntsville", "twitter": "http://www.twitter.com/1031WEUP", "name": "WEUP 99.1 FM", "video": "https://www.youtube.com/user/WEUPTV/videos"}, {"city-county-long": -86.57316, "open-search": [], "rss": [], "media-class": "radio", "media-subclass": "Variety", "facebook": "http://www.facebook.com/pages/WJAB-909FM/151697978194", "website": "http://www2.aamu.edu/wjab/", "city-county-lat": 34.72879, "city-county-name": "Huntsville", "twitter": "", "name": "WJAB 99.1 FM", "video": ""}, {"city-county-long": -86.57316, "open-search": [], "rss": [], "media-class": "radio", "media-subclass": "Variety", "facebook": "https://www.facebook.com/Praise90.1FM", "website": "http://www.wjou.org/", "city-county-lat": 34.72879, "city-county-name": "Huntsville", "twitter": "", "name": "WJOU 99.1 FM", "video": ""}, {"city-county-long": -86.57316, "open-search": [], "rss": [], "media-class": "radio", "media-subclass": "Variety", "facebook": "http://www.facebook.com/HuntsvillePublicRadio", "website": "http://www.wlrh.org/", "city-county-lat": 34.72879, "city-county-name": "Huntsville", "twitter": "http://www.twitter.com/WLRH_893FMHD", "name": "WLRH 99.1 FM", "video": ""}, {"city-county-long": -86.57316, "open-search": [], "rss": ["http://www.mix969huntsville.com/comments/feed/", "http://www.mix969huntsville.com/home-2/feed/", "http://www.mix969huntsville.com/feed/"], "media-class": "radio", "media-subclass": "Variety", "facebook": "http://www.facebook.com/Lite96.9", "website": "http://www.lite969.com/", "city-county-lat": 34.72879, "city-county-name": "Huntsville", "twitter": "http://www.twitter.com/Lite9691", "name": "WRSA 99.1 FM", "video": ""}, {"city-county-long": -86.57316, "open-search": [], "rss": ["http://therocket951.com/?feed=rss2", "http://therocket951.com/?feed=comments-rss2"], "media-class": "radio", "media-subclass": "Variety", "facebook": "https://www.facebook.com/rocket951", "website": "http://therocket951.com/", "city-county-lat": 34.72879, "city-county-name": "Huntsville", "twitter": "", "name": "WRTT 99.1 FM", "video": ""}, {"city-county-long": -86.57316, "open-search": [], "rss": [], "media-class": "radio", "media-subclass": "Variety", "facebook": "https://www.facebook.com/WTKIWEKI", "website": "http://www.wtkiradio.com/", "city-county-lat": 34.72879, "city-county-name": "Huntsville", "twitter": "", "name": "WTKI 99.1 FM", "video": ""}, {"city-county-long": -86.57316, "open-search": [], "rss": [], "media-class": "radio", "media-subclass": "Variety", "facebook": "", "website": "http://www.wtwx.com/", "city-county-lat": 34.72879, "city-county-name": "Huntsville", "twitter": "", "name": "WTWX 99.1 FM", "video": ""}, {"city-county-long": -86.57316, "open-search": [], "rss": ["http://www.umpsports.com/comments/feed/", "http://www.umpsports.com/feed/", "http://www.umpsports.com/home/feed/"], "media-class": "radio", "media-subclass": "Variety", "facebook": "https://www.facebook.com/730theUMP", "website": "http://www.730ump.com/", "city-county-lat": 34.72879, "city-county-name": "Huntsville", "twitter": "http://www.twitter.com/730TheUMP", "name": "WUMP 99.1 FM", "video": ""}, {"city-county-long": -86.57316, "open-search": [], "rss": [], "media-class": "radio", "media-subclass": "Variety", "facebook": "http://www.facebook.com/bbnradio", "website": "http://www.bbnradio.org/wcm4/english/Stations/tabid/691/StationID/9/Default.aspx", "city-county-lat": 34.72879, "city-county-name": "Huntsville", "twitter": "http://www.twitter.com/BBNRadio", "name": "WYFD 99.1 FM", "video": "http://www.youtube.com/user/BBNRadio"}, {"city-county-long": -86.57316, "open-search": [], "rss": ["http://www.wzyp.com/home/feed/", "http://www.wzyp.com/feed/", "http://www.wzyp.com/comments/feed/"], "media-class": "radio", "media-subclass": "Variety", "facebook": "http://www.facebook.com/1043wzyp", "website": "http://www.wzyp.com/", "city-county-lat": 34.72879, "city-county-name": "Huntsville", "twitter": "http://www.twitter.com/1043WZYP", "name": "WZYP 99.1 FM", "video": "http://www.youtube.com/user/1043WZYP"}, {"city-county-long": -85.77037, "open-search": [], "rss": [], "media-class": "radio", "media-subclass": "Alternative", "facebook": "http://www.facebook.com/wljs919fm", "website": "http://www.919fm.webs.com/", "city-county-lat": 33.824496, "city-county-name": "Jacksonville", "twitter": "", "name": "WLJS 91.9 FM", "video": "http://www.youtube.com/user/wljs919"}, {"city-county-long": -88.103184, "open-search": [], "rss": ["http://www.thebigstation93blx.com/feed/", "http://www.thebigstation93blx.com/comments/feed/"], "media-class": "radio", "media-subclass": "Urban", "facebook": "http://www.facebook.com/93blx", "website": "http://www.thebigstation93blx.com/", "city-county-lat": 30.701142, "city-county-name": "Mobile", "twitter": "http://www.twitter.com/93BLX", "name": "WBLX 92.9 FM", "video": ""}, {"city-county-long": -88.103184, "open-search": [], "rss": ["http://apr.org/rss.xml"], "media-class": "radio", "media-subclass": "Urban", "facebook": "http://www.facebook.com/pages/Alabama-Public-Radio/10080419371", "website": "http://apr.org/", "city-county-lat": 30.701142, "city-county-name": "Mobile", "twitter": "http://www.twitter.com/ALPublicRadio", "name": "WHIL 92.9 FM", "video": ""}, {"city-county-long": -88.103184, "open-search": [], "rss": [], "media-class": "radio", "media-subclass": "Urban", "facebook": "http://www.facebook.com/95KSJ", "website": "http://www.95ksj.com/", "city-county-lat": 30.701142, "city-county-name": "Mobile", "twitter": "http://www.twitter.com/95KSJ", "name": "WKSJ 92.9 FM", "video": "http://www.youtube.com/user/95KSJStaff"}, {"city-county-long": -88.103184, "open-search": [], "rss": [], "media-class": "radio", "media-subclass": "Urban", "facebook": "http://www.facebook.com/kloveradio", "website": "http://www.klove.com/", "city-county-lat": 30.701142, "city-county-name": "Mobile", "twitter": "http://www.twitter.com/kloveradio", "name": "WLVM 92.9 FM", "video": "http://www.youtube.com/user/kloveradio"}, {"city-county-long": -88.103184, "open-search": [], "rss": [], "media-class": "radio", "media-subclass": "Urban", "facebook": "http://www.facebook.com/litemix999", "website": "http://www.litemix.com/", "city-county-lat": 30.701142, "city-county-name": "Mobile", "twitter": "http://www.twitter.com/litemix99", "name": "WMXC 92.9 FM", "video": ""}, {"city-county-long": -88.103184, "open-search": [], "rss": [], "media-class": "radio", "media-subclass": "Urban", "facebook": "http://www.facebook.com/wnspfm", "website": "http://www.wnsp.com/", "city-county-lat": 30.701142, "city-county-name": "Mobile", "twitter": "http://www.twitter.com/WNSP", "name": "WNSP 92.9 FM", "video": "http://www.youtube.com/user/WNSP105"}, {"city-county-long": -88.103184, "open-search": [], "rss": [], "media-class": "radio", "media-subclass": "Urban", "facebook": "http://www.facebook.com/unclehenryshow", "website": "http://www.newsradio710.com/", "city-county-lat": 30.701142, "city-county-name": "Mobile", "twitter": "http://www.twitter.com/unclehenry", "name": "WNTM 92.9 FM", "video": ""}, {"city-county-long": -88.103184, "open-search": [], "rss": [], "media-class": "radio", "media-subclass": "Urban", "facebook": "http://www.facebook.com/961therocket", "website": "http://www.961therocket.com/", "city-county-lat": 30.701142, "city-county-name": "Mobile", "twitter": "http://www.twitter.com/961TheRocket", "name": "WRKH 92.9 FM", "video": "http://www.youtube.com/user/961TheRocketStaff"}, {"city-county-long": -88.103184, "open-search": [], "rss": ["http://92zew.net/comments/feed/", "http://92zew.net/feed/"], "media-class": "radio", "media-subclass": "Urban", "facebook": "https://www.facebook.com/92ZEW.Mobile", "website": "http://92zew.net/", "city-county-lat": 30.701142, "city-county-name": "Mobile", "twitter": "http://www.twitter.com/92zew", "name": "WZEW 92.9 FM", "video": "http://www.youtube.com/user/ZewMobile"}, {"city-county-long": -86.257817, "open-search": [], "rss": ["http://newstalkwani.com/comments/feed/", "http://newstalkwani.com/homepage/feed/", "http://newstalkwani.com/feed/"], "media-class": "radio", "media-subclass": "News", "facebook": "https://www.facebook.com/pages/WANI-Auburn-Opelika-This-Morning/397415247020138", "website": "http://www.wani1400.com/", "city-county-lat": 32.356988, "city-county-name": "Montgomery", "twitter": "http://www.twitter.com/waniAOTM", "name": "WANI 1400 AM", "video": ""}, {"city-county-long": -86.257817, "open-search": [], "rss": ["http://feeds.feedburner.com/wbam", "http://bamacountry.com/comments/feed/"], "media-class": "radio", "media-subclass": "News", "facebook": "http://www.facebook.com/bamacountry989", "website": "http://bamacountry.com/", "city-county-lat": 32.356988, "city-county-name": "Montgomery", "twitter": "http://www.twitter.com/BamaCountry", "name": "WBAM 1400 AM", "video": ""}, {"city-county-long": -86.257817, "open-search": [], "rss": ["http://979jamz.com/comments/feed/", "http://feeds.feedburner.com/wjwz"], "media-class": "radio", "media-subclass": "News", "facebook": "https://www.facebook.com/979jamz", "website": "http://979jamz.com/", "city-county-lat": 32.356988, "city-county-name": "Montgomery", "twitter": "http://www.twitter.com/979Jamz", "name": "WJWZ 1400 AM", "video": "http://www.youtube.com/user/979JamzMontgomery"}, {"city-county-long": -86.257817, "open-search": [], "rss": [], "media-class": "radio", "media-subclass": "News", "facebook": "https://www.facebook.com/FaithRadio", "website": "http://www.faithradio.org/", "city-county-lat": 32.356988, "city-county-name": "Montgomery", "twitter": "http://www.twitter.com/FaithRadio", "name": "WLBF 1400 AM", "video": ""}, {"city-county-long": -86.257817, "open-search": [], "rss": ["http://www.wlwi.com/feed/", "http://www.wlwi.com/comments/feed/", "http://www.wlwi.com/home/feed/"], "media-class": "radio", "media-subclass": "News", "facebook": "http://www.facebook.com/pages/I-92-WLWI-FM/70903394223", "website": "http://www.wlwi.com/", "city-county-lat": 32.356988, "city-county-name": "Montgomery", "twitter": "", "name": "WLWI 1400 AM", "video": ""}, {"city-county-long": -86.257817, "open-search": [], "rss": ["http://www.sportsradio740.com/home/feed/", "http://www.sportsradio740.com/feed/", "http://www.sportsradio740.com/comments/feed/"], "media-class": "radio", "media-subclass": "News", "facebook": "https://www.facebook.com/SportsRadio740Montgomery", "website": "http://www.sportsradio740.com/", "city-county-lat": 32.356988, "city-county-name": "Montgomery", "twitter": "http://www.twitter.com/SportsRadio740", "name": "WMSP 1400 AM", "video": ""}, {"city-county-long": -86.257817, "open-search": [], "rss": ["http://www.mix103.com/home/feed/", "http://www.mix103.com/feed/", "http://www.mix103.com/comments/feed/"], "media-class": "radio", "media-subclass": "News", "facebook": "https://www.facebook.com/MIX103JTANDLEANNE", "website": "http://www.mix103.com/", "city-county-lat": 32.356988, "city-county-name": "Montgomery", "twitter": "http://www.twitter.com/mix103mgy", "name": "WMXS 1400 AM", "video": ""}, {"city-county-long": -86.257817, "open-search": [], "rss": ["http://wvasfm.org/rss.xml"], "media-class": "radio", "media-subclass": "News", "facebook": "https://www.facebook.com/pages/WVAS-FM/80862097925", "website": "http://wvasfm.org/", "city-county-lat": 32.356988, "city-county-name": "Montgomery", "twitter": "http://www.twitter.com/WVAS", "name": "WVAS 1400 AM", "video": ""}, {"city-county-long": -86.257817, "open-search": [], "rss": ["http://www.wxfx.com/comments/feed/", "http://www.wxfx.com/feed/", "http://www.wxfx.com/home/feed/"], "media-class": "radio", "media-subclass": "News", "facebook": "http://www.facebook.com/951TheFox", "website": "http://www.wxfx.com/", "city-county-lat": 32.356988, "city-county-name": "Montgomery", "twitter": "", "name": "WXFX 1400 AM", "video": ""}, {"city-county-long": -86.25484, "open-search": [], "rss": [], "media-class": "radio", "media-subclass": "Community", "facebook": "https://www.facebook.com/WOPP.NEWS", "website": "http://www.wopp.com/", "city-county-lat": 31.280048, "city-county-name": "Opp", "twitter": "", "name": "WOPP 1290 AM", "video": ""}, {"city-county-long": -85.36865, "open-search": [], "rss": [], "media-class": "radio", "media-subclass": "News/Sports", "facebook": "", "website": "http://www.eagle1023.com/stations/1360/1360.html", "city-county-lat": 33.159848, "city-county-name": "Roanoke", "twitter": "", "name": "WLWE 1360 AM", "video": ""}, {"city-county-long": -87.03809, "open-search": [], "rss": ["http://apr.org/rss.xml"], "media-class": "radio", "media-subclass": "Public Radio", "facebook": "http://www.facebook.com/pages/Alabama-Public-Radio/10080419371", "website": "http://apr.org/", "city-county-lat": 32.429066, "city-county-name": "Selma", "twitter": "http://www.twitter.com/ALPublicRadio", "name": "WAPR 88.3 FM", "video": ""}, {"city-county-long": -87.03809, "open-search": [], "rss": [], "media-class": "radio", "media-subclass": "Public Radio", "facebook": "http://www.facebook.com/americanfamilyradio", "website": "http://www.afa.net/Radio/", "city-county-lat": 32.429066, "city-county-name": "Selma", "twitter": "http://www.twitter.com/AFRnet", "name": "WAQU 88.3 FM", "video": ""}, {"city-county-long": -87.03809, "open-search": [], "rss": ["/home/?format=feed&type=rss", "/home/?format=feed&type=atom"], "media-class": "radio", "media-subclass": "Public Radio", "facebook": "https://www.facebook.com/dixiecountrysuperstation", "website": "http://www.dixiecountry.net/", "city-county-lat": 32.429066, "city-county-name": "Selma", "twitter": "", "name": "WDXX 88.3 FM", "video": ""}, {"city-county-long": -87.69317, "open-search": [], "rss": [], "media-class": "radio", "media-subclass": "Religious", "facebook": "http://www.facebook.com/pages/Alabama-Public-Radio/10080419371", "website": "http://www.afa.net/Radio/", "city-county-lat": 34.759738, "city-county-name": "Sheffield", "twitter": "http://www.twitter.com/ALPublicRadio", "name": "WAKD 89.9 FM", "video": ""}, {"city-county-long": -85.992, "open-search": [], "rss": [], "media-class": "radio", "media-subclass": "Community", "facebook": "http://www.facebook.com/wtbftroy", "website": "http://www.wtbf.com/", "city-county-lat": 31.780847, "city-county-name": "Troy", "twitter": "", "name": "WTBF 94.7 FM", "video": ""}, {"city-county-long": -87.56843, "open-search": [], "rss": ["http://wtug.com/feed/"], "media-class": "radio", "media-subclass": "Urban", "facebook": "http://www.facebook.com/92.9wtug", "website": "http://wtug.com/", "city-county-lat": 33.193818, "city-county-name": "Tuscaloosa", "twitter": "http://www.twitter.com/WTUGFM", "name": "WTUG 92.9 FM", "video": ""}, {"city-county-long": -87.56843, "open-search": [], "rss": ["http://apr.org/rss.xml"], "media-class": "radio", "media-subclass": "Urban", "facebook": "http://www.facebook.com/pages/Alabama-Public-Radio/10080419371", "website": "http://apr.org/", "city-county-lat": 33.193818, "city-county-name": "Tuscaloosa", "twitter": "http://www.twitter.com/ALPublicRadio", "name": "WUAL 92.9 FM", "video": ""}, {"city-county-long": -87.56843, "open-search": [], "rss": ["http://wvuafm.ua.edu/comments/feed/", "http://wvuafm.ua.edu/feed/"], "media-class": "radio", "media-subclass": "Urban", "facebook": "http://www.facebook.com/WVUAFM", "website": "http://wvuafm.ua.edu/", "city-county-lat": 33.193818, "city-county-name": "Tuscaloosa", "twitter": "http://www.twitter.com/WVUAFM", "name": "WVUA 92.9 FM", "video": "http://www.youtube.com/user/WVUAsports"}], "state-name": "Alabama_AL", "tv": [{"city-county-long": -85.85178, "open-search": [], "rss": ["http://www.tv24.tv/feed.xml"], "media-class": "tv", "media-subclass": "", "facebook": "https://www.facebook.com/WEACTV24", "website": "http://www.tv24.tv/", "city-county-lat": 33.658803, "city-county-name": "Anniston", "twitter": "http://www.twitter.com/TV24PrimetimeNe", "name": "WEAC", "video": "http://www.youtube.com/user/ProductionTV24"}, {"city-county-long": -85.85178, "open-search": [], "rss": [], "media-class": "tv", "media-subclass": "", "facebook": "https://www.facebook.com/abc3340", "website": "http://www.abc3340.com/", "city-county-lat": 33.658803, "city-county-name": "Anniston", "twitter": "http://www.twitter.com/abc3340", "name": "WJSU", "video": "http://www.youtube.com/user/abc3340"}, {"city-county-long": -86.801904, "open-search": [], "rss": [], "media-class": "tv", "media-subclass": "", "facebook": "https://www.facebook.com/My68Bham", "website": "http://www.wabm68.com/", "city-county-lat": 33.456412, "city-county-name": "Birmingham", "twitter": "http://www.twitter.com/MY68WABM", "name": "WABM", "video": ""}, {"city-county-long": -86.801904, "open-search": [], "rss": [], "media-class": "tv", "media-subclass": "", "facebook": "https://www.facebook.com/PublicTelevision", "website": "http://www.aptv.org/", "city-county-lat": 33.456412, "city-county-name": "Birmingham", "twitter": "http://www.twitter.com/APTV", "name": "WBIQ", "video": "https://www.youtube.com/channel/UCdrbbiqDDIM3hJLvu_JaEJQ"}, {"city-county-long": -86.801904, "open-search": [], "rss": [], "media-class": "tv", "media-subclass": "", "facebook": "https://www.facebook.com/abc3340", "website": "http://www.abc3340.com/", "city-county-lat": 33.456412, "city-county-name": "Birmingham", "twitter": "http://www.twitter.com/abc3340", "name": "WBMA", "video": "http://www.youtube.com/user/abc3340"}, {"city-county-long": -86.801904, "open-search": [], "rss": ["http://www.wbrc.com/Global/category.asp?C=120652&clienttype=rss", "http://www.wbrc.com/category/73801/entertainment?clienttype=rss", "http://twitter.com/statuses/user_timeline/22882864.rss", "http://myfoxalvideo.blogspot.com/atom.xml", "http://www.wbrc.com/category/169327/recipes?clienttype=rss", "http://www.foxalabamanews.com/atom.xml", "http://alabama.raycomweather.com/feed/", "http://www.wbrc.com/category/151717/sports?clienttype=rss", "http://www.wbrc.com/category/169351/good-day-alabama?clienttype=rss", "http://www.foxalabamasports.com/atom.xml", "http://twitter.com/statuses/user_timeline/66999872.rss", "http://www.wbrc.com/category/151716/news?clienttype=rss", "http://myalpolitics.blogspot.com/atom.xml", "http://myfoxalcommunityevents.blogspot.com/atom.xml", "http://myfoxal.blogspot.com/atom.xml", "http://www.wbrc.com/category/169358/hot-stories?clienttype=rss", "http://myfoxfinebaum.blogspot.com/atom.xml", "http://twitter.com/statuses/user_timeline/25220817.rss"], "media-class": "tv", "media-subclass": "", "facebook": "https://www.facebook.com/WBRCweather/", "website": "http://www.myfoxal.com/", "city-county-lat": 33.456412, "city-county-name": "Birmingham", "twitter": "http://www.twitter.com/WBRC", "name": "WBRC", "video": "http://www.youtube.com/user/MyFoxAL"}, {"city-county-long": -86.801904, "open-search": [], "rss": [], "media-class": "tv", "media-subclass": "", "facebook": "https://www.facebook.com/PublicTelevision", "website": "http://www.aptv.org/", "city-county-lat": 33.456412, "city-county-name": "Birmingham", "twitter": "http://www.twitter.com/APTV", "name": "WCIQ", "video": "https://www.youtube.com/channel/UCdrbbiqDDIM3hJLvu_JaEJQ"}, {"city-county-long": -86.801904, "open-search": ["http://wiat.com/osd.xml", "https://s1.wp.com/opensearch.xml"], "rss": ["http://wiat.com/feed/", "http://wiat.com/comments/feed/"], "media-class": "tv", "media-subclass": "", "facebook": "https://www.facebook.com/WIAT42", "website": "http://www.cbs42.com/", "city-county-lat": 33.456412, "city-county-name": "Birmingham", "twitter": "http://www.twitter.com/wiat42", "name": "WIAT", "video": "http://www.youtube.com/user/wiatCBS42"}, {"city-county-long": -86.801904, "open-search": [], "rss": [], "media-class": "tv", "media-subclass": "", "facebook": "https://www.facebook.com/thecw21", "website": "http://www.wtto21.com/", "city-county-lat": 33.456412, "city-county-name": "Birmingham", "twitter": "http://www.twitter.com/THECW21", "name": "WTTO", "video": ""}, {"city-county-long": -86.801904, "open-search": [], "rss": [], "media-class": "tv", "media-subclass": "", "facebook": "https://www.facebook.com/WVTM13", "website": "http://www.wvtm13.com/", "city-county-lat": 33.456412, "city-county-name": "Birmingham", "twitter": "http://www.twitter.com/WVTM13", "name": "WVTM", "video": "http://www.youtube.com/user/Alabamas13"}, {"city-county-long": -87.84521, "open-search": [], "rss": [], "media-class": "tv", "media-subclass": "", "facebook": "https://www.facebook.com/PublicTelevision", "website": "http://www.aptv.org/", "city-county-lat": 32.495484, "city-county-name": "Demopolis", "twitter": "http://www.twitter.com/APTV", "name": "WIIQ", "video": "https://www.youtube.com/channel/UCdrbbiqDDIM3hJLvu_JaEJQ"}, {"city-county-long": -85.4045, "open-search": [], "rss": [], "media-class": "tv", "media-subclass": "", "facebook": "https://www.facebook.com/DothanFirst", "website": "http://dothanfirst.com/", "city-county-lat": 31.180076, "city-county-name": "Dothan", "twitter": "http://www.twitter.com/WDHN", "name": "WDHN", "video": "http://www.youtube.com/user/WDHNNEWS"}, {"city-county-long": -85.4045, "open-search": [], "rss": [], "media-class": "tv", "media-subclass": "", "facebook": "https://www.facebook.com/wtvynews4", "website": "http://www.wtvy.com/", "city-county-lat": 31.180076, "city-county-name": "Dothan", "twitter": "http://www.twitter.com/WTVYNews4", "name": "WTVY", "video": "https://www.youtube.com/user/WTVYnews4"}, {"city-county-long": -86.37618, "open-search": [], "rss": [], "media-class": "tv", "media-subclass": "", "facebook": "https://www.facebook.com/PublicTelevision", "website": "http://www.aptv.org/", "city-county-lat": 31.474803, "city-county-name": "Dozier", "twitter": "http://www.twitter.com/APTV", "name": "WDIQ", "video": "https://www.youtube.com/channel/UCdrbbiqDDIM3hJLvu_JaEJQ"}, {"city-county-long": -87.66253, "open-search": [], "rss": [], "media-class": "tv", "media-subclass": "", "facebook": "https://www.facebook.com/PublicTelevision", "website": "http://www.aptv.org/", "city-county-lat": 34.817537, "city-county-name": "Florence", "twitter": "http://www.twitter.com/APTV", "name": "WFIQ", "video": "https://www.youtube.com/channel/UCdrbbiqDDIM3hJLvu_JaEJQ"}, {"city-county-long": -86.57316, "open-search": [], "rss": ["http://www.waaytv.com/search/?f=rss&t=article&l=50&s=start_time&sd=desc&k[]=%23topstory"], "media-class": "tv", "media-subclass": "", "facebook": "https://facebook.com/waaytv", "website": "http://www.waaytv.com/", "city-county-lat": 34.72879, "city-county-name": "Huntsville", "twitter": "http://www.twitter.com/waaytv", "name": "WAAY", "video": "http://www.youtube.com/user/WAAYTV"}, {"city-county-long": -86.57316, "open-search": [], "rss": [], "media-class": "tv", "media-subclass": "", "facebook": "https://www.facebook.com/waff48", "website": "http://www.waff.com/", "city-county-lat": 34.72879, "city-county-name": "Huntsville", "twitter": "http://www.twitter.com/waff48", "name": "WAFF", "video": "http://www.youtube.com/user/waff48newscommunity"}, {"city-county-long": -86.57316, "open-search": [], "rss": [], "media-class": "tv", "media-subclass": "", "facebook": "https://www.facebook.com/PublicTelevision", "website": "http://www.aptv.org/", "city-county-lat": 34.72879, "city-county-name": "Huntsville", "twitter": "http://www.twitter.com/APTV", "name": "WHIQ", "video": "https://www.youtube.com/channel/UCdrbbiqDDIM3hJLvu_JaEJQ"}, {"city-county-long": -86.57316, "open-search": ["http://whnt.com/osd.xml", "https://s1.wp.com/opensearch.xml"], "rss": ["http://whnt.com/comments/feed/", "http://whnt.com/feed/"], "media-class": "tv", "media-subclass": "", "facebook": "https://www.facebook.com/whntnews19", "website": "http://whnt.com/", "city-county-lat": 34.72879, "city-county-name": "Huntsville", "twitter": "http://www.twitter.com/whnt", "name": "WHNT", "video": "http://www.youtube.com/user/whntnews19"}, {"city-county-long": -86.57316, "open-search": [], "rss": [], "media-class": "tv", "media-subclass": "", "facebook": "https://www.facebook.com/fox54huntsville", "website": "http://www.rocketcitynow.com/", "city-county-lat": 34.72879, "city-county-name": "Huntsville", "twitter": "", "name": "WZDX", "video": ""}, {"city-county-long": -85.58908, "open-search": [], "rss": [], "media-class": "tv", "media-subclass": "", "facebook": "https://www.facebook.com/PublicTelevision", "website": "http://www.aptv.org/", "city-county-lat": 31.776734, "city-county-name": "Louisville", "twitter": "http://www.twitter.com/APTV", "name": "WGIQ", "video": "https://www.youtube.com/channel/UCdrbbiqDDIM3hJLvu_JaEJQ"}, {"city-county-long": -88.103184, "open-search": [], "rss": [], "media-class": "tv", "media-subclass": "", "facebook": "https://www.facebook.com/PublicTelevision", "website": "http://www.aptv.org/", "city-county-lat": 30.701142, "city-county-name": "Mobile", "twitter": "http://www.twitter.com/APTV", "name": "WEIQ", "video": "https://www.youtube.com/channel/UCdrbbiqDDIM3hJLvu_JaEJQ"}, {"city-county-long": -88.103184, "open-search": ["http://wkrg.com/osd.xml", "https://s1.wp.com/opensearch.xml"], "rss": ["http://wkrg.com/feed/", "http://wkrg.com/comments/feed/"], "media-class": "tv", "media-subclass": "", "facebook": "https://www.facebook.com/WKRG.News.5", "website": "http://www.wkrg.com/", "city-county-lat": 30.701142, "city-county-name": "Mobile", "twitter": "http://www.twitter.com/WKRG", "name": "WKRG", "video": "http://www.youtube.com/user/WKRGNews"}, {"city-county-long": -88.103184, "open-search": [], "rss": [], "media-class": "tv", "media-subclass": "", "facebook": "https://www.facebook.com/LOCAL15News", "website": "http://www.local15tv.com/", "city-county-lat": 30.701142, "city-county-name": "Mobile", "twitter": "http://www.twitter.com/local15news", "name": "WPMI", "video": "https://www.youtube.com/user/WPMI15"}, {"city-county-long": -86.257817, "open-search": [], "rss": [], "media-class": "tv", "media-subclass": "", "facebook": "https://www.facebook.com/PublicTelevision", "website": "http://www.aptv.org/", "city-county-lat": 32.356988, "city-county-name": "Montgomery", "twitter": "http://www.twitter.com/APTV", "name": "WAIQ", "video": "https://www.youtube.com/channel/UCdrbbiqDDIM3hJLvu_JaEJQ"}, {"city-county-long": -86.257817, "open-search": [], "rss": ["http://www.alabamanews.net/feed/", "http://www.alabamanews.net/comments/feed/"], "media-class": "tv", "media-subclass": "", "facebook": "https://www.facebook.com/AlabamaNewsNetwork", "website": "http://www.alabamanews.net/", "city-county-lat": 32.356988, "city-county-name": "Montgomery", "twitter": "http://www.twitter.com/ALNewsNetwork", "name": "WAKA", "video": "https://www.youtube.com/channel/UCQlJfYWnh_HGlqFnivw_lCQ"}, {"city-county-long": -86.257817, "open-search": [], "rss": [], "media-class": "tv", "media-subclass": "", "facebook": "https://www.facebook.com/wcov20", "website": "http://www.wcov.com/", "city-county-lat": 32.356988, "city-county-name": "Montgomery", "twitter": "http://www.twitter.com/wcovfox20", "name": "WCOV", "video": "https://www.youtube.com/channel/UCSTzJQSngczdg_b6uF1-rkg"}, {"city-county-long": -86.257817, "open-search": [], "rss": [], "media-class": "tv", "media-subclass": "", "facebook": "https://www.facebook.com/WSFA12", "website": "http://www.wsfa.com/", "city-county-lat": 32.356988, "city-county-name": "Montgomery", "twitter": "http://www.twitter.com/wsfa12news", "name": "WSFA", "video": "https://www.youtube.com/user/WSFA12News"}, {"city-county-long": -87.03809, "open-search": [], "rss": ["http://www.alabamanews.net/feed/", "http://www.alabamanews.net/comments/feed/"], "media-class": "tv", "media-subclass": "", "facebook": "https://www.facebook.com/AlabamaNewsNetwork", "website": "http://www.alabamanews.net/", "city-county-lat": 32.429066, "city-county-name": "Selma", "twitter": "http://www.twitter.com/ALNewsNetwork", "name": "WAKA", "video": "https://www.youtube.com/channel/UCQlJfYWnh_HGlqFnivw_lCQ"}, {"city-county-long": -87.56843, "open-search": [], "rss": [], "media-class": "tv", "media-subclass": "", "facebook": "https://www.facebook.com/abc3340", "website": "http://www.abc3340.com/", "city-county-lat": 33.193818, "city-county-name": "Tuscaloosa", "twitter": "http://www.twitter.com/abc3340", "name": "WCFT", "video": "http://www.youtube.com/user/abc3340"}]}