{"newspaper": [{"city-county-long": -112.83218, "open-search": [], "rss": ["http://www.press-times.com/comments/feed", "http://www.press-times.com/feed"], "media-class": "newspaper", "media-subclass": "city-county", "facebook": "https://www.facebook.com/pages/Power-County-Press/120933881289308", "website": "http://www.press-times.com/", "city-county-lat": 42.97228, "city-county-name": "Aberdeen", "twitter": "", "name": "Aberdeen Times", "video": ""}, {"city-county-long": -112.91931, "open-search": [], "rss": ["http://www.press-times.com/comments/feed", "http://www.press-times.com/feed"], "media-class": "newspaper", "media-subclass": "city-county", "facebook": "https://www.facebook.com/pages/Power-County-Press/120933881289308", "website": "http://www.press-times.com/", "city-county-lat": 42.75159, "city-county-name": "American Falls", "twitter": "", "name": "Power County Press", "video": ""}, {"city-county-long": -112.39454, "open-search": [], "rss": ["http://www.am-news.com/rss.xml"], "media-class": "newspaper", "media-subclass": "city-county", "facebook": "https://www.facebook.com/am.news", "website": "http://www.am-news.com/", "city-county-lat": 43.211238, "city-county-name": "Blackfoot", "twitter": "", "name": "Morning News", "video": ""}, {"city-county-long": -116.272921, "open-search": [], "rss": ["http://www.boiseweekly.com/boise/Rss.xml?id=comments", "http://www.boiseweekly.com/boise/Rss.xml"], "media-class": "newspaper", "media-subclass": "city-county", "facebook": "https://www.facebook.com/boiseweekly", "website": "http://www.boiseweekly.com/", "city-county-lat": 43.603768, "city-county-name": "Boise", "twitter": "http://www.twitter.com/Boiseweekly", "name": "Boise Weekly", "video": "http://www.youtube.com/user/Boiseweekly"}, {"city-county-long": -116.272921, "open-search": [], "rss": ["http://idahobusinessreview.com/feed/", "http://idahobusinessreview.com/comments/feed/"], "media-class": "newspaper", "media-subclass": "city-county", "facebook": "https://www.facebook.com/IdahoBusinessReview", "website": "http://www.idahobusinessreview.com/", "city-county-lat": 43.603768, "city-county-name": "Boise", "twitter": "http://www.twitter.com/IBRnews", "name": "Idaho Business Review", "video": ""}, {"city-county-long": -116.272921, "open-search": [], "rss": [], "media-class": "newspaper", "media-subclass": "city-county", "facebook": "https://www.facebook.com/pages/Idaho-Senior-News/141367006069308", "website": "http://idahoseniornews.com/", "city-county-lat": 43.603768, "city-county-name": "Boise", "twitter": "", "name": "Idaho Senior News", "video": ""}, {"city-county-long": -116.272921, "open-search": [], "rss": ["http://www.idahostatesman.com/?widgetName=rssfeed&widgetContentId=36823518&getXmlFeed=true"], "media-class": "newspaper", "media-subclass": "city-county", "facebook": "https://www.facebook.com/idahostatesman", "website": "http://www.idahostatesman.com/", "city-county-lat": 43.603768, "city-county-name": "Boise", "twitter": "http://www.twitter.com/idahostatesman", "name": "Idaho Statesman", "video": "http://www.youtube.com/user/idahostatesman"}, {"city-county-long": -116.272921, "open-search": [], "rss": [], "media-class": "newspaper", "media-subclass": "city-county", "facebook": "", "website": "http://www.idahoworld.com/", "city-county-lat": 43.603768, "city-county-name": "Boise", "twitter": "", "name": "Idaho World", "video": ""}, {"city-county-long": -116.41051, "open-search": [], "rss": [], "media-class": "newspaper", "media-subclass": "city-county", "facebook": "https://www.facebook.com/pages/Bonners-Ferry-Herald/215534449916", "website": "http://www.bonnersferryherald.com/", "city-county-lat": 48.770783, "city-county-name": "Bonners Ferry", "twitter": "", "name": "Bonners Ferry Herald", "video": ""}, {"city-county-long": -113.79857, "open-search": ["http://www.minicassia.com/search/opensearch/generic.xml"], "rss": [], "media-class": "newspaper", "media-subclass": "city-county", "facebook": "https://www.facebook.com/Weekly-Mailer-827420304031596/", "website": "http://www.minicassia.com/", "city-county-lat": 42.496588, "city-county-name": "Burley", "twitter": "", "name": "Weekly Mailer", "video": ""}, {"city-county-long": -114.18803, "open-search": [], "rss": [], "media-class": "newspaper", "media-subclass": "city-county", "facebook": "", "website": "http://www.challismessenger.com/", "city-county-lat": 44.53742, "city-county-name": "Challis", "twitter": "", "name": "Challis Messenger", "video": ""}, {"city-county-long": -116.7805, "open-search": ["http://cdapress.com/search/opensearch/generic.xml"], "rss": [], "media-class": "newspaper", "media-subclass": "city-county", "facebook": "https://www.facebook.com/CDAPress", "website": "http://www.cdapress.com/", "city-county-lat": 47.6777, "city-county-name": "Coeur d Alene", "twitter": "", "name": "Coeur d'Alene Press", "video": ""}, {"city-county-long": -116.7805, "open-search": [], "rss": [], "media-class": "newspaper", "media-subclass": "city-county", "facebook": "https://www.facebook.com/spokesmanreview", "website": "http://www.spokesman.com/", "city-county-lat": 47.6777, "city-county-name": "Coeur d Alene", "twitter": "http://www.twitter.com/spokesmanreview", "name": "Spokesman Review", "video": "https://www.youtube.com/user/Spokesmanreview"}, {"city-county-long": -116.38568, "open-search": [], "rss": [], "media-class": "newspaper", "media-subclass": "city-county", "facebook": "", "website": "http://www.cottonwoodchronicle.com/", "city-county-lat": 46.041157, "city-county-name": "Cottonwood", "twitter": "", "name": "Cottonwood Chronicle", "video": ""}, {"city-county-long": -116.55344, "open-search": [], "rss": ["http://www.theadamscountyrecord.com/comments/feed/", "http://www.theadamscountyrecord.com/welcome/feed/", "http://www.theadamscountyrecord.com/feed/"], "media-class": "newspaper", "media-subclass": "city-county", "facebook": "https://www.facebook.com/pages/The-Adams-County-Record/100521236678536", "website": "http://www.theadamscountyrecord.com/", "city-county-lat": 44.829994, "city-county-name": "Council", "twitter": "", "name": "Adams County Record", "video": ""}, {"city-county-long": -111.11484, "open-search": [], "rss": ["http://www.tetonvalleynews.net/search/?f=rss&t=article&l=50&s=start_time&sd=desc&k[]=%23topstory"], "media-class": "newspaper", "media-subclass": "city-county", "facebook": "https://www.facebook.com/TetonValleyNews", "website": "http://www.tetonvalleynews.net/", "city-county-lat": 43.726688, "city-county-name": "Driggs", "twitter": "http://www.twitter.com/tetonvalleynews", "name": "Teton Valley News", "video": "http://www.youtube.com/user/tetonvalleynews"}, {"city-county-long": -116.36346, "open-search": [], "rss": ["http://www.theindnews.com/comments/feed/", "http://www.theindnews.com/feed/"], "media-class": "newspaper", "media-subclass": "city-county", "facebook": "https://www.facebook.com/indnews", "website": "http://www.theindnews.com/", "city-county-lat": 43.705551, "city-county-name": "Eagle", "twitter": "", "name": "Eagle Independent News", "video": ""}, {"city-county-long": -116.5143, "open-search": [], "rss": ["http://www.messenger-index.com/search/?f=rss&t=article&l=50&s=start_time&sd=desc&k[]=%23topstory"], "media-class": "newspaper", "media-subclass": "city-county", "facebook": "https://www.facebook.com/messenger.index", "website": "http://www.messenger-index.com/", "city-county-lat": 43.888285, "city-county-name": "Emmett", "twitter": "", "name": "Messenger Index", "video": ""}, {"city-county-long": -112.48638, "open-search": [], "rss": [], "media-class": "newspaper", "media-subclass": "city-county", "facebook": "https://www.facebook.com/pages/Sho-Ban-News/176905705682113", "website": "http://www.shobannews.com/", "city-county-lat": 43.040466, "city-county-name": "Fort Hall", "twitter": "", "name": "Sho-Ban News", "video": "https://www.youtube.com/channel/UChSbeXOSPrtT4-XiZsNwJjw"}, {"city-county-long": -116.13146, "open-search": [], "rss": [], "media-class": "newspaper", "media-subclass": "city-county", "facebook": "https://www.facebook.com/idahocountyfreepress", "website": "http://www.idahocountyfreepress.com/", "city-county-lat": 45.923869, "city-county-name": "Grangeville", "twitter": "", "name": "Idaho County Free Press", "video": "http://www.youtube.com/user/IdahoCountyFreePress"}, {"city-county-long": -116.9484, "open-search": [], "rss": [], "media-class": "newspaper", "media-subclass": "city-county", "facebook": "https://www.facebook.com/OwyheeAvalanche", "website": "http://www.owyheepublishing.com/", "city-county-lat": 43.598319, "city-county-name": "Homedale", "twitter": "", "name": "Owyhee Avalanche", "video": ""}, {"city-county-long": -111.98136, "open-search": [], "rss": [], "media-class": "newspaper", "media-subclass": "city-county", "facebook": "https://www.facebook.com/pages/Post-Register/440983490430", "website": "http://www.postregister.com/", "city-county-lat": 43.528891, "city-county-name": "Idaho Falls", "twitter": "http://www.twitter.com/clarkcorbin", "name": "Post Register", "video": ""}, {"city-county-long": -116.03726, "open-search": [], "rss": ["/index.php?format=feed&type=rss", "/index.php?format=feed&type=atom"], "media-class": "newspaper", "media-subclass": "city-county", "facebook": "https://www.facebook.com/ClearwaterProgress", "website": "https://www.clearwaterprogress.com/", "city-county-lat": 46.224145, "city-county-name": "Kamiah", "twitter": "", "name": "Clearwater Progress", "video": ""}, {"city-county-long": -114.5198, "open-search": ["http://www.mtexpress.com/search/opensearch/generic.xml"], "rss": [], "media-class": "newspaper", "media-subclass": "city-county", "facebook": "https://www.facebook.com/MountainExpress", "website": "http://www.mtexpress.com/", "city-county-lat": 43.750744, "city-county-name": "Ketchum", "twitter": "http://www.twitter.com/IdahoMtExpress", "name": "Idaho Mountain Express", "video": "https://www.youtube.com/channel/UCBOk_MWkWCVOmPR5vzVLhAA"}, {"city-county-long": -116.39311, "open-search": [], "rss": ["http://www.kunamelbanews.com/search/?f=rss&t=article&l=50&s=start_time&sd=desc&k[]=%23topstory"], "media-class": "newspaper", "media-subclass": "city-county", "facebook": "https://www.facebook.com/pages/Kuna-Melba-News/87263131377", "website": "http://www.kunamelba.com/", "city-county-lat": 43.463644, "city-county-name": "Kuna", "twitter": "", "name": "Kuna Melba News", "video": "http://www.youtube.com/user/KunaMelbaNews"}, {"city-county-long": -116.98484, "open-search": [], "rss": ["http://lmtribune.com/search/?f=rss&t=article&l=50&s=start_time&sd=desc&k[]=%23topstory"], "media-class": "newspaper", "media-subclass": "city-county", "facebook": "https://www.facebook.com/lewistontribune", "website": "http://lmtribune.com/", "city-county-lat": 46.388753, "city-county-name": "Lewiston", "twitter": "http://www.twitter.com/lewistontribune", "name": "Lewiston Tribune", "video": "http://www.youtube.com/user/lewistontribune"}, {"city-county-long": -116.04991, "open-search": [], "rss": [], "media-class": "newspaper", "media-subclass": "city-county", "facebook": "", "website": "http://www.mccallstarnews.com/", "city-county-lat": 44.854428, "city-county-name": "McCall", "twitter": "", "name": "Star News", "video": ""}, {"city-county-long": -116.39642, "open-search": [], "rss": [], "media-class": "newspaper", "media-subclass": "city-county", "facebook": "", "website": "http://www.valleytimesidaho.com/", "city-county-lat": 43.609434, "city-county-name": "Meridian", "twitter": "", "name": "Meridian Valley Times", "video": ""}, {"city-county-long": -111.32637, "open-search": [], "rss": ["http://www.news-examiner.net/search/?f=rss&t=article&l=50&s=start_time&sd=desc&k[]=%23topstory"], "media-class": "newspaper", "media-subclass": "city-county", "facebook": "https://www.facebook.com/Montpelier.News.Examiner", "website": "http://www.news-examiner.net/", "city-county-lat": 42.327996, "city-county-name": "Montpelier", "twitter": "", "name": "News-Examiner", "video": ""}, {"city-county-long": -116.98067, "open-search": [], "rss": ["http://dnews.com/search/?f=rss&t=article&l=50&s=start_time&sd=desc&k[]=%23topstory"], "media-class": "newspaper", "media-subclass": "city-county", "facebook": "https://www.facebook.com/PalouseNews", "website": "http://dnews.com/", "city-county-lat": 46.727636, "city-county-name": "Moscow", "twitter": "http://www.twitter.com/mpdailynews", "name": "Moscow-Pullman Daily News", "video": "http://www.youtube.com/user/TheMPDailyNews"}, {"city-county-long": -115.62345, "open-search": [], "rss": [], "media-class": "newspaper", "media-subclass": "city-county", "facebook": "https://www.facebook.com/pages/Mountain-Home-News/162883000442737", "website": "http://www.mountainhomenews.com/", "city-county-lat": 43.208029, "city-county-name": "Mountain Home", "twitter": "", "name": "Mountain Home News", "video": ""}, {"city-county-long": -116.58697, "open-search": [], "rss": ["http://www.idahopress.com/search/?f=rss&t=article&l=50&s=start_time&sd=desc&k[]=%23topstory"], "media-class": "newspaper", "media-subclass": "city-county", "facebook": "https://www.facebook.com/Idaho.Press.Tribune", "website": "http://www.idahopress.com/", "city-county-lat": 43.583454, "city-county-name": "Nampa", "twitter": "http://www.twitter.com/IdahoPressTrib", "name": "Idaho Press-Tribune", "video": "http://www.youtube.com/user/IdahoPressTribune"}, {"city-county-long": -116.20071, "open-search": ["http://www.clearwatertribune.com/search/opensearch/generic.xml"], "rss": [], "media-class": "newspaper", "media-subclass": "city-county", "facebook": "https://www.facebook.com/clearwatertribune", "website": "http://www.clearwatertribune.com/", "city-county-lat": 46.485334, "city-county-name": "Orofino", "twitter": "", "name": "Clearwater Tribune", "video": ""}, {"city-county-long": -116.20071, "open-search": [], "rss": [], "media-class": "newspaper", "media-subclass": "city-county", "facebook": "https://www.facebook.com/windowontheclearwater", "website": "http://www.windowontheclearwater.com/", "city-county-lat": 46.485334, "city-county-name": "Orofino", "twitter": "", "name": "Window on the Clearwater", "video": ""}, {"city-county-long": -116.89433, "open-search": [], "rss": ["http://www.argusobserver.com/search/?f=rss&t=article&c=independent&l=50&s=start_time&sd=desc"], "media-class": "newspaper", "media-subclass": "city-county", "facebook": "https://www.facebook.com/pages/Independent-Enterprise/278704388823790", "website": "http://www.argusobserver.com/independent/", "city-county-lat": 44.079947, "city-county-name": "Payette", "twitter": "", "name": "Independent Enterprise", "video": ""}, {"city-county-long": -112.43968, "open-search": [], "rss": ["http://idahostatejournal.com/search/?f=rss&t=article&l=50&s=start_time&sd=desc&k[]=%23topstory"], "media-class": "newspaper", "media-subclass": "city-county", "facebook": "https://www.facebook.com/idahostatejournal", "website": "http://www.idahostatejournal.com/", "city-county-lat": 42.883214, "city-county-name": "Pocatello", "twitter": "http://www.twitter.com/IdahoStateJ", "name": "Idaho State Journal", "video": "http://www.youtube.com/user/IdahoStateJournal"}, {"city-county-long": -111.82369, "open-search": [], "rss": ["http://www.prestoncitizen.com/search/?f=rss&t=article&l=50&s=start_time&sd=desc&k[]=%23topstory"], "media-class": "newspaper", "media-subclass": "city-county", "facebook": "https://www.facebook.com/prestoncitizen", "website": "http://www.prestoncitizen.com/", "city-county-lat": 42.165399, "city-county-name": "Preston", "twitter": "", "name": "Preston Citizen", "video": ""}, {"city-county-long": -116.90904, "open-search": [], "rss": [], "media-class": "newspaper", "media-subclass": "city-county", "facebook": "", "website": "http://www.priestrivertimes.com/", "city-county-lat": 48.315799, "city-county-name": "Priest River", "twitter": "", "name": "Priest River Times", "video": ""}, {"city-county-long": -111.80942, "open-search": [], "rss": ["http://www.rexburgstandardjournal.com/search/?f=rss&t=article&l=50&s=start_time&sd=desc&k[]=%23topstory"], "media-class": "newspaper", "media-subclass": "city-county", "facebook": "https://www.facebook.com/uppervalleystandardjournal", "website": "http://www.rexburgstandardjournal.com/", "city-county-lat": 43.80991, "city-county-name": "Rexburg", "twitter": "http://www.twitter.com/uvsj", "name": "Standard Journal", "video": "http://www.youtube.com/user/standardjournal"}, {"city-county-long": -111.87407, "open-search": [], "rss": [], "media-class": "newspaper", "media-subclass": "city-county", "facebook": "https://www.facebook.com/pages/Jefferson-Star/199569900079469", "website": "http://www.jeffersonstarnews.com/", "city-county-lat": 43.67511, "city-county-name": "Rigby", "twitter": "", "name": "Jefferson Star", "video": ""}, {"city-county-long": -116.57392, "open-search": ["http://www.gazetterecord.com/search/opensearch/generic.xml"], "rss": [], "media-class": "newspaper", "media-subclass": "city-county", "facebook": "https://www.facebook.com/pages/St-Maries-Gazette-Record/181216955240356", "website": "http://www.gazetterecord.com/", "city-county-lat": 47.274904, "city-county-name": "Saint Maries", "twitter": "", "name": "Gazette-Record", "video": ""}, {"city-county-long": -116.55101, "open-search": [], "rss": [], "media-class": "newspaper", "media-subclass": "city-county", "facebook": "https://www.facebook.com/bonnercountydailybee", "website": "http://www.bonnercountydailybee.com/", "city-county-lat": 48.362033, "city-county-name": "Sandpoint", "twitter": "http://www.twitter.com/DailyBee", "name": "Bonner County Daily Bee", "video": "http://www.youtube.com/user/bonnercountydailybee"}, {"city-county-long": -112.11712, "open-search": [], "rss": [], "media-class": "newspaper", "media-subclass": "city-county", "facebook": "https://www.facebook.com/pages/The-Shelley-Pioneer/153178944695762", "website": "http://www.theshelleypioneer.com/", "city-county-lat": 43.366017, "city-county-name": "Shelley", "twitter": "", "name": "Shelley Pioneer", "video": ""}, {"city-county-long": -114.40997, "open-search": [], "rss": [], "media-class": "newspaper", "media-subclass": "city-county", "facebook": "https://www.facebook.com/pages/Shoshone-News-Press/196796317047275", "website": "http://www.shoshonenewspress.com/", "city-county-lat": 43.036666, "city-county-name": "Shoshone", "twitter": "", "name": "Shoshone News Press", "video": "http://www.youtube.com/user/ShoshoneNewsPress"}, {"city-county-long": -114.47509, "open-search": [], "rss": ["http://www.theprairiestar.com/search/?f=rss&t=article&c=agweekly&l=50&s=start_time&sd=desc"], "media-class": "newspaper", "media-subclass": "city-county", "facebook": "https://www.facebook.com/farmtimes", "website": "http://www.theprairiestar.com/agweekly/", "city-county-lat": 42.530288, "city-county-name": "Twin Falls", "twitter": "", "name": "Ag Weekly", "video": ""}, {"city-county-long": -114.47509, "open-search": [], "rss": ["http://magicvalley.com/search/?f=rss&t=article&l=50&s=start_time&sd=desc&k[]=%23topstory"], "media-class": "newspaper", "media-subclass": "city-county", "facebook": "https://www.facebook.com/thetimesnews", "website": "http://magicvalley.com/", "city-county-lat": 42.530288, "city-county-name": "Twin Falls", "twitter": "http://www.twitter.com/twinfallstn", "name": "Times-News", "video": "http://www.youtube.com/user/timesnews"}, {"city-county-long": -116.93326, "open-search": [], "rss": [], "media-class": "newspaper", "media-subclass": "city-county", "facebook": "https://www.facebook.com/pages/Weiser-Signal-American/313736165412445", "website": "http://www.signalamerican.org/", "city-county-lat": 44.310781, "city-county-name": "Weiser", "twitter": "", "name": "Signal American", "video": ""}, {"city-county-long": -116.1996, "open-search": [], "rss": ["https://arbiteronline.com/feed/", "https://arbiteronline.com/comments/feed/"], "media-class": "newspaper", "media-subclass": "college", "facebook": "https://www.facebook.com/boisestatearbiter", "website": "http://arbiteronline.com/", "city-county-lat": 43.6026, "city-county-name": "Boise State", "twitter": "http://www.twitter.com/arbiteronline", "name": "Arbiter", "video": ""}, {"city-county-long": -111.7828, "open-search": [], "rss": ["http://byuiscroll.org/comments/feed/", "http://byuiscroll.org/feed/"], "media-class": "newspaper", "media-subclass": "college", "facebook": "https://www.facebook.com/byuiscroll", "website": "http://byuiscroll.org/", "city-county-lat": 43.8181, "city-county-name": "Brigham Young Univ", "twitter": "http://www.twitter.com/byuiscroll", "name": "Scroll", "video": ""}, {"city-county-long": -112.433, "open-search": [], "rss": ["http://isubengal.com/feed/", "http://isubengal.com/comments/feed/"], "media-class": "newspaper", "media-subclass": "college", "facebook": "https://www.facebook.com/isubengal", "website": "http://isubengal.com/", "city-county-lat": 42.8614, "city-county-name": "Idaho State Univ", "twitter": "http://www.twitter.com/isubengal", "name": "The Bengal", "video": ""}, {"city-county-long": -117.0259, "open-search": [], "rss": ["http://www.piolog.com/feed/", "http://www.piolog.com/comments/feed/"], "media-class": "newspaper", "media-subclass": "college", "facebook": "https://www.facebook.com/pages/The-Pioneer-Log/497419460570", "website": "http://www.piolog.com/", "city-county-lat": 46.4113, "city-county-name": "Lewis-Clark College", "twitter": "http://www.twitter.com/ThePioneerLog", "name": "The Pioneer Log", "video": ""}, {"city-county-long": -116.5669, "open-search": [], "rss": ["http://www.nnu.edu/blog/rss/all.rss"], "media-class": "newspaper", "media-subclass": "college", "facebook": "https://www.facebook.com/northwestnazarene", "website": "http://www.nnu.edu/", "city-county-lat": 43.5631, "city-county-name": "NW Nazarene Univ", "twitter": "http://www.twitter.com/nwnazarene", "name": "NNU News", "video": "http://www.youtube.com/user/nwnazarene"}, {"city-county-long": -117.0126, "open-search": [], "rss": ["https://www.uiargonaut.com/feed/", "https://www.uiargonaut.com/comments/feed/"], "media-class": "newspaper", "media-subclass": "college", "facebook": "https://www.facebook.com/uiargonaut", "website": "http://www.uiargonaut.com/", "city-county-lat": 46.7288, "city-county-name": "University of Idaho", "twitter": "http://www.twitter.com/uiargonaut", "name": "Argonaut", "video": "https://www.youtube.com/user/argonautonline/videos"}], "radio": [{"city-county-long": -116.272921, "open-search": [], "rss": ["http://www.kboi.com/comments/feed/", "http://www.kboi.com/home/feed/", "http://www.kboi.com/feed/"], "media-class": "radio", "media-subclass": " News and Talk", "facebook": "https://www.facebook.com/kboi.boise", "website": "http://www.670kboi.com/", "city-county-lat": 43.603768, "city-county-name": "Boise", "twitter": "http://www.twitter.com/kboi670", "name": "KBOI 670 AM", "video": ""}, {"city-county-long": -116.272921, "open-search": [], "rss": ["http://boisestatepublicradio.org/rss.xml"], "media-class": "radio", "media-subclass": " News and Talk", "facebook": "http://www.facebook.com/boisestatepublicradio", "website": "http://boisestatepublicradio.org/", "city-county-lat": 43.603768, "city-county-name": "Boise", "twitter": "", "name": "KBSU 670 AM", "video": "http://www.youtube.com/user/bspradio"}, {"city-county-long": -116.272921, "open-search": [], "rss": ["http://580kido.com/feed/"], "media-class": "radio", "media-subclass": " News and Talk", "facebook": "https://www.facebook.com/kidoradio", "website": "http://580kido.com/", "city-county-lat": 43.603768, "city-county-name": "Boise", "twitter": "http://www.twitter.com/580KIDO", "name": "KIDO 670 AM", "video": "https://www.youtube.com/user/580kido/videos"}, {"city-county-long": -116.272921, "open-search": [], "rss": ["http://www.kizn.com/comments/feed/", "http://www.kizn.com/feed/", "http://www.kizn.com/home/feed/"], "media-class": "radio", "media-subclass": " News and Talk", "facebook": "https://www.facebook.com/KIZN.Kissin92", "website": "http://www.kizn.com/", "city-county-lat": 43.603768, "city-county-name": "Boise", "twitter": "http://www.twitter.com/kissin923", "name": "KIZN 670 AM", "video": ""}, {"city-county-long": -116.272921, "open-search": [], "rss": ["http://www.kkgl.com/home/feed/", "http://www.kkgl.com/feed/", "http://www.kkgl.com/comments/feed/"], "media-class": "radio", "media-subclass": " News and Talk", "facebook": "https://www.facebook.com/96.9theEagleBoise", "website": "http://www.96-9theeagle.com/", "city-county-lat": 43.603768, "city-county-name": "Boise", "twitter": "", "name": "KKGL 670 AM", "video": ""}, {"city-county-long": -116.272921, "open-search": [], "rss": ["http://www.nashfm979.com/home/feed/", "http://www.nashfm979.com/comments/feed/", "http://www.nashfm979.com/feed/"], "media-class": "radio", "media-subclass": " News and Talk", "facebook": "https://www.facebook.com/NASHFM979", "website": "http://www.nashfm979.com/", "city-county-lat": 43.603768, "city-county-name": "Boise", "twitter": "http://www.twitter.com/nashfm979", "name": "KQFC 670 AM", "video": "https://www.youtube.com/user/nashfm947/videos"}, {"city-county-long": -116.272921, "open-search": [], "rss": ["http://www.ktik.com/comments/feed/", "http://www.ktik.com/home/feed/", "http://www.ktik.com/feed/"], "media-class": "radio", "media-subclass": " News and Talk", "facebook": "https://www.facebook.com/ktik931fm", "website": "http://www.ktik.com/", "city-county-lat": 43.603768, "city-county-name": "Boise", "twitter": "http://www.twitter.com/ktik931fm", "name": "KTIK 670 AM", "video": "https://www.youtube.com/user/931theticket/videos"}, {"city-county-long": -116.272921, "open-search": [], "rss": [], "media-class": "radio", "media-subclass": " News and Talk", "facebook": "http://www.facebook.com/895KTSY", "website": "http://895ktsy.org/", "city-county-lat": 43.603768, "city-county-name": "Boise", "twitter": "http://www.twitter.com/895KTSY", "name": "KTSY 670 AM", "video": "http://www.youtube.com/user/895KTSYRadio"}, {"city-county-long": -116.67755, "open-search": [], "rss": [], "media-class": "radio", "media-subclass": "Christian", "facebook": "https://www.facebook.com/895KTSY", "website": "http://895ktsy.org/", "city-county-lat": 43.658834, "city-county-name": "Caldwell", "twitter": "http://www.twitter.com/895KTSY", "name": "KTSY 89.5 FM", "video": "http://www.youtube.com/user/895KTSYRadio"}], "state-name": "Idaho_ID", "tv": [{"city-county-long": -116.272921, "open-search": [], "rss": [], "media-class": "tv", "media-subclass": "", "facebook": "https://www.facebook.com/idahoptv", "website": "http://www.idahoptv.org/", "city-county-lat": 43.603768, "city-county-name": "Boise", "twitter": "http://www.twitter.com/IdahoPTV", "name": "KAID", "video": "http://www.youtube.com/user/IdahoPTV"}, {"city-county-long": -116.272921, "open-search": [], "rss": [], "media-class": "tv", "media-subclass": "", "facebook": "https://www.facebook.com/kboi2", "website": "http://www.kboi2.com/", "city-county-lat": 43.603768, "city-county-name": "Boise", "twitter": "http://www.twitter.com/kboitv", "name": "KBOI", "video": "http://www.youtube.com/user/2NewsBoise"}, {"city-county-long": -116.272921, "open-search": [], "rss": [], "media-class": "tv", "media-subclass": "", "facebook": "https://www.facebook.com/6OnYourSide", "website": "http://www.kivitv.com/", "city-county-lat": 43.603768, "city-county-name": "Boise", "twitter": "http://www.twitter.com/idahoonyourside", "name": "KIVI", "video": "http://www.youtube.com/user/KiviTV"}, {"city-county-long": -116.272921, "open-search": [], "rss": [], "media-class": "tv", "media-subclass": "", "facebook": "https://www.facebook.com/12KTRV", "website": "http://12ktrv.com/", "city-county-lat": 43.603768, "city-county-name": "Boise", "twitter": "http://www.twitter.com/12KTRV", "name": "KTRV", "video": ""}, {"city-county-long": -116.272921, "open-search": [], "rss": [], "media-class": "tv", "media-subclass": "", "facebook": "https://www.facebook.com/KTVB7", "website": "http://www.ktvb.com/", "city-county-lat": 43.603768, "city-county-name": "Boise", "twitter": "http://www.twitter.com/KTVB", "name": "KTVB", "video": "http://www.youtube.com/user/ktvb7"}, {"city-county-long": -116.7805, "open-search": [], "rss": [], "media-class": "tv", "media-subclass": "", "facebook": "https://www.facebook.com/idahoptv", "website": "http://www.idahoptv.org/", "city-county-lat": 47.6777, "city-county-name": "Coeur d Alene", "twitter": "http://www.twitter.com/IdahoPTV", "name": "KCDT", "video": "http://www.youtube.com/user/IdahoPTV"}, {"city-county-long": -111.98136, "open-search": [], "rss": [], "media-class": "tv", "media-subclass": "", "facebook": "https://www.facebook.com/LocalNews8", "website": "http://www.localnews8.com/", "city-county-lat": 43.528891, "city-county-name": "Idaho Falls", "twitter": "http://www.twitter.com/localnews8", "name": "KIDK", "video": "https://www.youtube.com/channel/UCZpHPHzqI5tomsKmJkv0wMQ"}, {"city-county-long": -111.98136, "open-search": [], "rss": [], "media-class": "tv", "media-subclass": "", "facebook": "https://www.facebook.com/LocalNews8", "website": "http://www.localnews8.com/", "city-county-lat": 43.528891, "city-county-name": "Idaho Falls", "twitter": "http://www.twitter.com/localnews8", "name": "KIFI", "video": "https://www.youtube.com/channel/UCZpHPHzqI5tomsKmJkv0wMQ"}, {"city-county-long": -116.98484, "open-search": [], "rss": [], "media-class": "tv", "media-subclass": "", "facebook": "https://www.facebook.com/KLEWNews", "website": "http://www.klewtv.com/", "city-county-lat": 46.388753, "city-county-name": "Lewiston", "twitter": "http://www.twitter.com/KLEWNews", "name": "KLEW", "video": ""}, {"city-county-long": -116.98067, "open-search": [], "rss": [], "media-class": "tv", "media-subclass": "", "facebook": "https://www.facebook.com/idahoptv", "website": "http://www.idahoptv.org/", "city-county-lat": 46.727636, "city-county-name": "Moscow", "twitter": "http://www.twitter.com/IdahoPTV", "name": "KUID", "video": "http://www.youtube.com/user/IdahoPTV"}, {"city-county-long": -112.43968, "open-search": [], "rss": [], "media-class": "tv", "media-subclass": "", "facebook": "https://www.facebook.com/idahoptv", "website": "http://www.idahoptv.org/", "city-county-lat": 42.883214, "city-county-name": "Pocatello", "twitter": "http://www.twitter.com/IdahoPTV", "name": "KISU", "video": "http://www.youtube.com/user/IdahoPTV"}, {"city-county-long": -112.43968, "open-search": [], "rss": ["http://www.kpvi.com/search/?f=rss&t=article&l=50&s=start_time&sd=desc&k[]=%23topstory"], "media-class": "tv", "media-subclass": "", "facebook": "https://www.facebook.com/kpvi6", "website": "http://www.kpvi.com/", "city-county-lat": 42.883214, "city-county-name": "Pocatello", "twitter": "http://www.twitter.com/KPVI", "name": "KPVI", "video": "http://www.youtube.com/user/KPVINEWS6"}, {"city-county-long": -114.47509, "open-search": [], "rss": [], "media-class": "tv", "media-subclass": "", "facebook": "https://www.facebook.com/idahoptv", "website": "http://www.idahoptv.org/", "city-county-lat": 42.530288, "city-county-name": "Twin Falls", "twitter": "http://www.twitter.com/IdahoPTV", "name": "KIPT", "video": "http://www.youtube.com/user/IdahoPTV"}, {"city-county-long": -114.47509, "open-search": [], "rss": [], "media-class": "tv", "media-subclass": "", "facebook": "https://www.facebook.com/KMVTNews11", "website": "http://www.kmvt.com/", "city-county-lat": 42.530288, "city-county-name": "Twin Falls", "twitter": "http://www.twitter.com/kmvtnews", "name": "KMVT", "video": "http://www.youtube.com/user/KMVT11CBS"}]}